Index,stop_id,stop_name,stop_lat,stop_lon,trip_id,arrival_time,departure_time,stop_sequence,stop_headsign,shape_dist_traveled,route_id,customer_route_name,project_subnet
94,8220DB000302,"Eden Quay, stop 302",53.3480381,-6.25633882,10007.3.60-61-b12-1.154.O,09:30:00,09:30:00,1, Whitechurch,0.0,60-61-b12-1,61,b12
95,8220DB000340,"Townsend Street, stop 340",53.34597512,-6.256017478,10007.3.60-61-b12-1.154.O,09:31:36,09:31:36,2, Whitechurch,359.93,60-61-b12-1,61,b12
96,8220DB000350,"Prince's St South, stop 350",53.34563194,-6.24976825,10007.3.60-61-b12-1.154.O,09:33:31,09:33:31,3, Whitechurch,776.46,60-61-b12-1,61,b12
97,8220DB002809,"Pearse Station, stop 2809",53.34288455,-6.2499709,10007.3.60-61-b12-1.154.O,09:35:17,09:35:17,4, Whitechurch,1168.81,60-61-b12-1,61,b12
98,8220DB002810,"Merrion Square West, stop 2810",53.34079491,-6.250897489,10007.3.60-61-b12-1.154.O,09:36:24,09:36:24,5, Whitechurch,1408.83,60-61-b12-1,61,b12
99,8220DB002811,"Merrion Street, stop 2811",53.3393595,-6.252307819,10007.3.60-61-b12-1.154.O,09:36:58,09:36:58,6, Whitechurch,1594.8,60-61-b12-1,61,b12
100,8220DB001013,"Earlsfort Terrace, stop 1013",53.33418076,-6.258345677,10007.3.60-61-b12-1.154.O,09:40:47,09:40:47,7, Whitechurch,2414.56,60-61-b12-1,61,b12
101,8220DB001015,"Adelaide Road, stop 1015",53.33273035,-6.259966355,10007.3.60-61-b12-1.154.O,09:41:51,09:41:51,8, Whitechurch,2660.1,60-61-b12-1,61,b12
102,8220DB002812,"Charlemont Street, stop 2812",53.33192755,-6.262236257,10007.3.60-61-b12-1.154.O,09:43:13,09:43:13,9, Whitechurch,2968.15,60-61-b12-1,61,b12
103,8220DB002813,"Ranelagh Road, stop 2813",53.32871177,-6.258673582,10007.3.60-61-b12-1.154.O,09:44:32,09:44:32,10, Whitechurch,3402.19,60-61-b12-1,61,b12
104,8220DB002814,"Ranelagh Luas, stop 2814",53.32603377,-6.255629952,10007.3.60-61-b12-1.154.O,09:46:01,09:46:01,11, Whitechurch,3789.17,60-61-b12-1,61,b12
105,8220DB000852,"Ranelagh, stop 852",53.32442927,-6.252858085,10007.3.60-61-b12-1.154.O,09:47:01,09:47:01,12, Whitechurch,4049.72,60-61-b12-1,61,b12
106,8220DB000853,"Sandford Road, stop 853",53.32259277,-6.248369577,10007.3.60-61-b12-1.154.O,09:48:10,09:48:10,13, Whitechurch,4413.06,60-61-b12-1,61,b12
107,8220DB000854,"Larch Grove, stop 854",53.32163167,-6.246577563,10007.3.60-61-b12-1.154.O,09:48:41,09:48:41,14, Whitechurch,4572.68,60-61-b12-1,61,b12
108,8220DB000855,"Sandford Road, stop 855",53.3193023,-6.242815366,10007.3.60-61-b12-1.154.O,09:49:35,09:49:35,15, Whitechurch,4931.28,60-61-b12-1,61,b12
109,8220DB002815,"Milltown Road, stop 2815",53.315851,-6.245268593,10007.3.60-61-b12-1.154.O,09:50:48,09:50:48,16, Whitechurch,5417.41,60-61-b12-1,61,b12
110,8220DB002816,"Glenmalure Square, stop 2816",53.31426575,-6.246264168,10007.3.60-61-b12-1.154.O,09:51:19,09:51:19,17, Whitechurch,5605.74,60-61-b12-1,61,b12
111,8220DB002817,"Alexandra College, stop 2817",53.31115237,-6.247862555,10007.3.60-61-b12-1.154.O,09:52:21,09:52:21,18, Whitechurch,5971.8,60-61-b12-1,61,b12
112,8250DB002818,"Dundrum Road, stop 2818",53.30794932,-6.246418047,10007.3.60-61-b12-1.154.O,09:53:21,09:53:21,19, Whitechurch,6369.96,60-61-b12-1,61,b12
113,8250DB002819,"Millmount Terrace, stop 2819",53.30548511,-6.245708734,10007.3.60-61-b12-1.154.O,09:54:02,09:54:02,20, Whitechurch,6649.02,60-61-b12-1,61,b12
114,8250DB002820,"Dundrum Business Pk, stop 2820",53.30325754,-6.245199862,10007.3.60-61-b12-1.154.O,09:54:38,09:54:38,21, Whitechurch,6899.47,60-61-b12-1,61,b12
115,8250DB002822,"Dundrum Hospital, stop 2822",53.30108989,-6.245708864,10007.3.60-61-b12-1.154.O,09:55:13,09:55:13,22, Whitechurch,7143.64,60-61-b12-1,61,b12
116,8250DB002823,"Sommerville, stop 2823",53.29752202,-6.246350202,10007.3.60-61-b12-1.154.O,09:55:57,09:55:57,23, Whitechurch,7549.78,60-61-b12-1,61,b12
117,8250DB005032,"Rosemount Estate, stop 5032",53.29546909,-6.246104263,10007.3.60-61-b12-1.154.O,09:56:21,09:56:21,24, Whitechurch,7777.62,60-61-b12-1,61,b12
118,8250DB002867,"Notre Dame School, stop 2867",53.29399753,-6.249944971,10007.3.60-61-b12-1.154.O,09:58:03,09:58:03,25, Whitechurch,8307.1,60-61-b12-1,61,b12
119,8250DB001035,"Beaumont Avenue, stop 1035",53.29510374,-6.256125578,10007.3.60-61-b12-1.154.O,09:59:26,09:59:26,26, Whitechurch,8735.2,60-61-b12-1,61,b12
120,8250DB001314,"Nutgrove Avenue, stop 1314",53.29422671,-6.258231541,10007.3.60-61-b12-1.154.O,10:00:14,10:00:14,27, Whitechurch,8983.33,60-61-b12-1,61,b12
121,8250DB001316,"Good Shepherd Ch, stop 1316",53.29302074,-6.261820909,10007.3.60-61-b12-1.154.O,10:01:02,10:01:02,28, Whitechurch,9257.52,60-61-b12-1,61,b12
122,8250DB001315,"Whitebarn Road, stop 1315",53.29216616,-6.26424076,10007.3.60-61-b12-1.154.O,10:01:35,10:01:35,29, Whitechurch,9443.62,60-61-b12-1,61,b12
123,8250DB001317,"Loreto Park, stop 1317",53.29193477,-6.269965473,10007.3.60-61-b12-1.154.O,10:02:46,10:02:46,30, Whitechurch,9839.64,60-61-b12-1,61,b12
124,8250DB001318,"Loreto Avenue, stop 1318",53.29253504,-6.272311383,10007.3.60-61-b12-1.154.O,10:03:14,10:03:14,31, Whitechurch,10008.1,60-61-b12-1,61,b12
125,8250DB001319,"Nutgrove Court, stop 1319",53.2937102,-6.275879308,10007.3.60-61-b12-1.154.O,10:04:02,10:04:02,32, Whitechurch,10279.01,60-61-b12-1,61,b12
126,8250DB001281,"Ely House, stop 1281",53.29421219,-6.278274354,10007.3.60-61-b12-1.154.O,10:04:32,10:04:32,33, Whitechurch,10449.71,60-61-b12-1,61,b12
127,8230DB001329,"St Mary's School, stop 1329",53.29496692,-6.281994472,10007.3.60-61-b12-1.154.O,10:05:18,10:05:18,34, Whitechurch,10712.52,60-61-b12-1,61,b12
128,8230DB001330,"Willbrook Road, stop 1330",53.29619102,-6.283985656,10007.3.60-61-b12-1.154.O,10:05:51,10:05:51,35, Whitechurch,10895.7,60-61-b12-1,61,b12
129,8230DB002919,"Willbrook Road, stop 2919",53.29592427,-6.285436564,10007.3.60-61-b12-1.154.O,10:06:17,10:06:17,36, Whitechurch,11070.06,60-61-b12-1,61,b12
130,8230DB002920,"Otterbrook, stop 2920",53.29381368,-6.287426291,10007.3.60-61-b12-1.154.O,10:07:00,10:07:00,37, Whitechurch,11356.54,60-61-b12-1,61,b12
131,8230DB002921,"Willbrook Park, stop 2921",53.29127273,-6.289493016,10007.3.60-61-b12-1.154.O,10:07:48,10:07:48,38, Whitechurch,11673.81,60-61-b12-1,61,b12
132,8230DB002922,"Fonthill Park, stop 2922",53.28913014,-6.290508608,10007.3.60-61-b12-1.154.O,10:08:25,10:08:25,39, Whitechurch,11922.1,60-61-b12-1,61,b12
133,8230DB002923,"Glendoher Road, stop 2923",53.28718968,-6.291831012,10007.3.60-61-b12-1.154.O,10:09:00,10:09:00,40, Whitechurch,12154.25,60-61-b12-1,61,b12
134,8230DB002924,"Everton Hall, stop 2924",53.28582821,-6.294045133,10007.3.60-61-b12-1.154.O,10:09:33,10:09:33,41, Whitechurch,12365.01,60-61-b12-1,61,b12
135,8230DB002925,"Ballyboden Road, stop 2925",53.28334382,-6.296303789,10007.3.60-61-b12-1.154.O,10:10:04,10:10:04,42, Whitechurch,12683.24,60-61-b12-1,61,b12
136,8230DB002948,"Ballyboden Crescent, stop 2948",53.28195272,-6.295819227,10007.3.60-61-b12-1.154.O,10:10:45,10:10:45,43, Whitechurch,12927.55,60-61-b12-1,61,b12
137,8230DB002949,"Moyville Lawns, stop 2949",53.2816733,-6.293250826,10007.3.60-61-b12-1.154.O,10:11:23,10:11:23,44, Whitechurch,13103.59,60-61-b12-1,61,b12
138,8230DB002950,"Pearse Brothers Park, stop 2950",53.28179341,-6.288461914,10007.3.60-61-b12-1.154.O,10:12:29,10:12:29,45, Whitechurch,13422.31,60-61-b12-1,61,b12
139,8230DB002954,"Whitechurch Green, stop 2954",53.2780415,-6.286317462,10007.3.60-61-b12-1.154.O,10:15:25,10:15:25,46, Whitechurch,14252.26,60-61-b12-1,61,b12
140,8230DB002955,"Ballyboden Church, stop 2955",53.27787197,-6.289533367,10007.3.60-61-b12-1.154.O,10:16:11,10:16:11,47, Whitechurch,14469.7,60-61-b12-1,61,b12
