Index,stop_id,stop_name,stop_lat,stop_lon,trip_id,arrival_time,departure_time,stop_sequence,stop_headsign,shape_dist_traveled,route_id,customer_route_name,project_subnet
0,8240DB000707,"Howth Summit, stop 707",53.37248953,-6.058649902,11748.3.60-H3-b12-1.361.I,08:55:00,08:55:00,1, Abbey St Lower,0.0,60-H3-b12-1,H3,b12
1,8240DB000568,"Kitestown Road, stop 568",53.37393526,-6.055803553,11748.3.60-H3-b12-1.361.I,08:55:32,08:55:32,2, Abbey St Lower,279.97,60-H3-b12-1,H3,b12
2,8240DB000569,"Thormanby Hill, stop 569",53.37553679,-6.054798685,11748.3.60-H3-b12-1.361.I,08:55:57,08:55:57,3, Abbey St Lower,496.87,60-H3-b12-1,H3,b12
3,8240DB000570,"Thormanby Woods, stop 570",53.37733328,-6.055829117,11748.3.60-H3-b12-1.361.I,08:56:22,08:56:22,4, Abbey St Lower,713.98,60-H3-b12-1,H3,b12
4,8240DB000571,"Mariners Cove, stop 571",53.37856416,-6.056900422,11748.3.60-H3-b12-1.361.I,08:56:44,08:56:44,5, Abbey St Lower,867.94,60-H3-b12-1,H3,b12
5,8240DB000572,"Upper Cliff Road, stop 572",53.38042057,-6.057747895,11748.3.60-H3-b12-1.361.I,08:57:14,08:57:14,6, Abbey St Lower,1082.41,60-H3-b12-1,H3,b12
6,8240DB000573,"Thormanby Lawns, stop 573",53.38222344,-6.059725359,11748.3.60-H3-b12-1.361.I,08:57:47,08:57:47,7, Abbey St Lower,1324.89,60-H3-b12-1,H3,b12
7,8240DB000574,"Howth Church, stop 574",53.3846161,-6.064262028,11748.3.60-H3-b12-1.361.I,08:58:44,08:58:44,8, Abbey St Lower,1751.13,60-H3-b12-1,H3,b12
8,8240DB000575,"Main Street Howth, stop 575",53.3859831,-6.065417787,11748.3.60-H3-b12-1.361.I,08:59:17,08:59:17,9, Abbey St Lower,1923.88,60-H3-b12-1,H3,b12
9,8240DB000576,"Howth Abbey, stop 576",53.38776007,-6.06635958,11748.3.60-H3-b12-1.361.I,09:00:35,09:00:35,10, Abbey St Lower,2326.24,60-H3-b12-1,H3,b12
10,8240DB000577,"Howth Harbour, stop 577",53.38816314,-6.070160244,11748.3.60-H3-b12-1.361.I,09:01:11,09:01:11,11, Abbey St Lower,2583.93,60-H3-b12-1,H3,b12
11,8240DB000579,"Howth Station, stop 579",53.38866124,-6.074287463,11748.3.60-H3-b12-1.361.I,09:02:03,09:02:03,12, Abbey St Lower,2873.86,60-H3-b12-1,H3,b12
12,8240DB000580,"Howth Castle, stop 580",53.38877437,-6.079634948,11748.3.60-H3-b12-1.361.I,09:02:36,09:02:36,13, Abbey St Lower,3233.3,60-H3-b12-1,H3,b12
13,8240DB000581,"Howth Lodge, stop 581",53.3900579,-6.083997688,11748.3.60-H3-b12-1.361.I,09:03:07,09:03:07,14, Abbey St Lower,3565.37,60-H3-b12-1,H3,b12
14,8240DB000582,"Claremont Road, stop 582",53.39095887,-6.0919865,11748.3.60-H3-b12-1.361.I,09:03:52,09:03:52,15, Abbey St Lower,4117.18,60-H3-b12-1,H3,b12
15,8240DB000583,"Burrow School, stop 583",53.39076519,-6.100129653,11748.3.60-H3-b12-1.361.I,09:04:52,09:04:52,16, Abbey St Lower,4665.0,60-H3-b12-1,H3,b12
16,8240DB000584,"Church Road, stop 584",53.3899021,-6.105205058,11748.3.60-H3-b12-1.361.I,09:05:31,09:05:31,17, Abbey St Lower,5014.29,60-H3-b12-1,H3,b12
17,8240DB000585,"Sutton Cross, stop 585",53.38935321,-6.11083768,11748.3.60-H3-b12-1.361.I,09:06:59,09:06:59,18, Abbey St Lower,5394.21,60-H3-b12-1,H3,b12
18,8240DB000586,"St Fintans High Sch, stop 586",53.38883694,-6.116844595,11748.3.60-H3-b12-1.361.I,09:07:41,09:07:41,19, Abbey St Lower,5796.55,60-H3-b12-1,H3,b12
19,8240DB000587,"Baldoyle Rd Junction, stop 587",53.38832032,-6.125136707,11748.3.60-H3-b12-1.361.I,09:08:40,09:08:40,20, Abbey St Lower,6351.4,60-H3-b12-1,H3,b12
20,8240DB000588,"Sutton Park, stop 588",53.38805314,-6.127584119,11748.3.60-H3-b12-1.361.I,09:08:56,09:08:56,21, Abbey St Lower,6516.82,60-H3-b12-1,H3,b12
21,8240DB000589,"Kilbarrack Cemetery, stop 589",53.38677413,-6.134300556,11748.3.60-H3-b12-1.361.I,09:09:43,09:09:43,22, Abbey St Lower,6985.26,60-H3-b12-1,H3,b12
22,8240DB000590,"Bayside, stop 590",53.38618193,-6.137243112,11748.3.60-H3-b12-1.361.I,09:10:08,09:10:08,23, Abbey St Lower,7190.98,60-H3-b12-1,H3,b12
23,8220DB000591,"Kilbarrack Road, stop 591",53.38416759,-6.144682487,11748.3.60-H3-b12-1.361.I,09:11:13,09:11:13,24, Abbey St Lower,7735.07,60-H3-b12-1,H3,b12
24,8220DB000592,"James Larkin Road, stop 592",53.38273301,-6.148382872,11748.3.60-H3-b12-1.361.I,09:11:56,09:11:56,25, Abbey St Lower,8028.6,60-H3-b12-1,H3,b12
25,8220DB000593,"Howth Road, stop 593",53.38184869,-6.151638257,11748.3.60-H3-b12-1.361.I,09:12:32,09:12:32,26, Abbey St Lower,8275.32,60-H3-b12-1,H3,b12
26,8220DB000594,"Lonsdale,stop 594",53.38116337,-6.155561362,11748.3.60-H3-b12-1.361.I,09:12:55,09:12:55,27, Abbey St Lower,8546.76,60-H3-b12-1,H3,b12
27,8220DB000595,"Foxfield, stop 595",53.38059995,-6.159238563,11748.3.60-H3-b12-1.361.I,09:13:16,09:13:16,28, Abbey St Lower,8799.29,60-H3-b12-1,H3,b12
28,8220DB000596,"Shieling Square, stop 596",53.38025284,-6.161793972,11748.3.60-H3-b12-1.361.I,09:13:31,09:13:31,29, Abbey St Lower,8973.88,60-H3-b12-1,H3,b12
29,8220DB000597,"Maywood, stop 597",53.37989814,-6.165612355,11748.3.60-H3-b12-1.361.I,09:14:10,09:14:10,30, Abbey St Lower,9241.18,60-H3-b12-1,H3,b12
30,8220DB000598,"Avondale Park, stop 598",53.37984663,-6.169282377,11748.3.60-H3-b12-1.361.I,09:14:45,09:14:45,31, Abbey St Lower,9484.73,60-H3-b12-1,H3,b12
31,8220DB000599,"Raheny Library, stop 599",53.38030032,-6.173081078,11748.3.60-H3-b12-1.361.I,09:15:22,09:15:22,32, Abbey St Lower,9742.6,60-H3-b12-1,H3,b12
32,8220DB000600,"Raheny, stop 600",53.38024793,-6.176119811,11748.3.60-H3-b12-1.361.I,09:16:30,09:16:30,33, Abbey St Lower,9945.24,60-H3-b12-1,H3,b12
33,8220DB000601,"Cill Eanna, stop 601",53.37922348,-6.179665997,11748.3.60-H3-b12-1.361.I,09:16:59,09:16:59,34, Abbey St Lower,10214.18,60-H3-b12-1,H3,b12
34,8220DB000602,"Wade's Avenue, stop 602",53.37814252,-6.183049071,11748.3.60-H3-b12-1.361.I,09:17:28,09:17:28,35, Abbey St Lower,10468.48,60-H3-b12-1,H3,b12
35,8220DB000603,"Ennafort Park, stop 603",53.37738216,-6.18742543,11748.3.60-H3-b12-1.361.I,09:18:02,09:18:02,36, Abbey St Lower,10769.19,60-H3-b12-1,H3,b12
36,8220DB000604,"All Saints Road, stop 604",53.37635464,-6.19079086,11748.3.60-H3-b12-1.361.I,09:18:35,09:18:35,37, Abbey St Lower,11026.67,60-H3-b12-1,H3,b12
37,8220DB000605,"The Meadows, stop 605",53.37566666,-6.193435327,11748.3.60-H3-b12-1.361.I,09:19:19,09:19:19,38, Abbey St Lower,11217.54,60-H3-b12-1,H3,b12
38,8220DB000606,"St Brigid's Church, stop 606",53.37470898,-6.19786466,11748.3.60-H3-b12-1.361.I,09:20:06,09:20:06,39, Abbey St Lower,11529.99,60-H3-b12-1,H3,b12
39,8220DB000607,"The Demesne, stop 607",53.37251578,-6.202030214,11748.3.60-H3-b12-1.361.I,09:20:55,09:20:55,40, Abbey St Lower,11910.97,60-H3-b12-1,H3,b12
40,8220DB000608,"Killester, stop 608",53.37107838,-6.204465315,11748.3.60-H3-b12-1.361.I,09:21:26,09:21:26,41, Abbey St Lower,12163.98,60-H3-b12-1,H3,b12
41,8220DB000609,"Castle Grove, stop 609",53.36983754,-6.208620256,11748.3.60-H3-b12-1.361.I,09:22:12,09:22:12,42, Abbey St Lower,12488.81,60-H3-b12-1,H3,b12
42,8220DB000610,"Ashbrook, stop 610",53.3683623,-6.211537455,11748.3.60-H3-b12-1.361.I,09:22:49,09:22:49,43, Abbey St Lower,12743.93,60-H3-b12-1,H3,b12
43,8220DB000611,"Hollybrook Park, stop 611",53.36675468,-6.218832922,11748.3.60-H3-b12-1.361.I,09:23:53,09:23:53,44, Abbey St Lower,13269.62,60-H3-b12-1,H3,b12
44,8220DB000612,"Copeland Avenue, stop 612",53.36575623,-6.22420913,11748.3.60-H3-b12-1.361.I,09:24:40,09:24:40,45, Abbey St Lower,13652.96,60-H3-b12-1,H3,b12
45,8220DB000613,"Marino Crescent Park, stop 613",53.36461747,-6.226810998,11748.3.60-H3-b12-1.361.I,09:25:30,09:25:30,46, Abbey St Lower,13867.08,60-H3-b12-1,H3,b12
46,8220DB000614,"Fairview, stop 614",53.363638,-6.23349323,11748.3.60-H3-b12-1.361.I,09:27:20,09:27:20,47, Abbey St Lower,14341.87,60-H3-b12-1,H3,b12
47,8220DB000616,"Nth Strand Fire Stn, stop 616",53.35984471,-6.239554896,11748.3.60-H3-b12-1.361.I,09:28:56,09:28:56,49, Abbey St Lower,14946.04,60-H3-b12-1,H3,b12
48,8220DB000618,"Newcomen Bridge, stop 618",53.35610118,-6.244742068,11748.3.60-H3-b12-1.361.I,09:30:13,09:30:13,51, Abbey St Lower,15486.06,60-H3-b12-1,H3,b12
49,8220DB000619,"Amiens Street, stop 619",53.35404463,-6.247305334,11748.3.60-H3-b12-1.361.I,09:30:58,09:30:58,52, Abbey St Lower,15772.27,60-H3-b12-1,H3,b12
50,8220DB000620,"Talbot Street, stop 620",53.35096109,-6.252779557,11748.3.60-H3-b12-1.361.I,09:32:39,09:32:39,54, Abbey St Lower,16304.43,60-H3-b12-1,H3,b12
51,8220DB007569,"Gardiner Street, stop 7569",53.35045051,-6.255969966,11748.3.60-H3-b12-1.361.I,09:34:03,09:34:03,55, Abbey St Lower,16524.63,60-H3-b12-1,H3,b12
52,8220DB007591,"Abbey Street Lower, stop 7591",53.34889015,-6.256829774,11748.3.60-H3-b12-1.361.I,09:36:35,09:36:35,56, Abbey St Lower,16712.48,60-H3-b12-1,H3,b12
