Index,stop_id,stop_name,stop_lat,stop_lon,trip_id,arrival_time,departure_time,stop_sequence,stop_headsign,shape_dist_traveled,route_id,customer_route_name,project_subnet
140,8220DB004495,"Hawkins Street, stop 4495",53.34649329,-6.25703271,10626.3.60-68-b12-1.285.O,14:30:00,14:30:00,1, Greenogue,0.0,60-68-b12-1,68,b12
141,8220DB001278,"College Green, stop 1278",53.34423662,-6.261300118,10626.3.60-68-b12-1.285.O,14:32:24,14:32:24,2, Greenogue,447.3,60-68-b12-1,68,b12
142,8220DB001282,"S Great George's St, stop 1282",53.3423418,-6.264501083,10626.3.60-68-b12-1.285.O,14:34:37,14:34:37,3, Greenogue,858.05,60-68-b12-1,68,b12
143,8220DB004456,"Whitefriars St, stop 4456",53.3399144,-6.265695957,10626.3.60-68-b12-1.285.O,14:35:57,14:35:57,4, Greenogue,1144.74,60-68-b12-1,68,b12
144,8220DB001284,"Redmond's Hill, stop 1284",53.33812835,-6.265873557,10626.3.60-68-b12-1.285.O,14:36:59,14:36:59,5, Greenogue,1347.67,60-68-b12-1,68,b12
145,8220DB001285,"Camden Street Lower, stop 1285",53.33437841,-6.265124754,10626.3.60-68-b12-1.285.O,14:39:06,14:39:06,6, Greenogue,1768.76,60-68-b12-1,68,b12
146,8220DB001286,"Harrington Street, stop 1286",53.33249965,-6.265726535,10626.3.60-68-b12-1.285.O,14:41:34,14:41:34,7, Greenogue,2030.06,60-68-b12-1,68,b12
147,8220DB001288,"Victoria Street, stop 1288",53.33232275,-6.269637622,10626.3.60-68-b12-1.285.O,14:42:50,14:42:50,8, Greenogue,2302.37,60-68-b12-1,68,b12
148,8220DB001289,"Longwood Avenue, stop 1289",53.33212936,-6.273038833,10626.3.60-68-b12-1.285.O,14:43:53,14:43:53,9, Greenogue,2529.2,60-68-b12-1,68,b12
149,8220DB001360,"Raymond Street, stop 1360",53.33198339,-6.276618278,10626.3.60-68-b12-1.285.O,14:44:58,14:44:58,10, Greenogue,2773.73,60-68-b12-1,68,b12
150,8220DB001362,"National Stadium, stop 1362",53.33120396,-6.279907874,10626.3.60-68-b12-1.285.O,14:46:02,14:46:02,11, Greenogue,3008.94,60-68-b12-1,68,b12
151,8220DB001363,"St Anne's Road S, stop 1363",53.33184593,-6.285167265,10626.3.60-68-b12-1.285.O,14:47:43,14:47:43,12, Greenogue,3372.84,60-68-b12-1,68,b12
152,8220DB001364,"Dolphin Avenue, stop 1364",53.33234587,-6.28806012,10626.3.60-68-b12-1.285.O,14:48:26,14:48:26,13, Greenogue,3575.25,60-68-b12-1,68,b12
153,8220DB001365,"Dolphins Barn Church, stop 1365",53.33290153,-6.290455313,10626.3.60-68-b12-1.285.O,14:49:05,14:49:05,14, Greenogue,3748.91,60-68-b12-1,68,b12
154,8220DB001366,"St Andrews Centre, stop 1366",53.33514987,-6.294314591,10626.3.60-68-b12-1.285.O,14:50:37,14:50:37,15, Greenogue,4114.22,60-68-b12-1,68,b12
155,8220DB001367,"Rialto Church, stop 1367",53.33568529,-6.296560663,10626.3.60-68-b12-1.285.O,14:51:15,14:51:15,16, Greenogue,4274.46,60-68-b12-1,68,b12
156,8220DB001369,"Mayfield Road, stop 1369",53.33886722,-6.30224552,10626.3.60-68-b12-1.285.O,14:53:50,14:53:50,17, Greenogue,4888.06,60-68-b12-1,68,b12
157,8220DB001370,"Hybreasal House, stop 1370",53.33918858,-6.305251246,10626.3.60-68-b12-1.285.O,14:54:41,14:54:41,18, Greenogue,5090.35,60-68-b12-1,68,b12
158,8220DB001371,"Suir Road, stop 1371",53.33887574,-6.307906689,10626.3.60-68-b12-1.285.O,14:55:39,14:55:39,19, Greenogue,5319.51,60-68-b12-1,68,b12
159,8220DB001372,"Goldenbridge Avenue, stop 1372",53.33810369,-6.309874446,10626.3.60-68-b12-1.285.O,14:56:23,14:56:23,20, Greenogue,5496.31,60-68-b12-1,68,b12
160,8220DB001373,"Stephen's Road, stop 1373",53.33777476,-6.312034865,10626.3.60-68-b12-1.285.O,14:57:00,14:57:00,21, Greenogue,5645.84,60-68-b12-1,68,b12
161,8220DB001374,"Southern Cross Ave, stop 1374",53.33921771,-6.313014071,10626.3.60-68-b12-1.285.O,14:57:53,14:57:53,22, Greenogue,5859.02,60-68-b12-1,68,b12
162,8220DB001946,"Richmond Park, stop 1946",53.3401188,-6.316357477,10626.3.60-68-b12-1.285.O,14:59:08,14:59:08,23, Greenogue,6156.67,60-68-b12-1,68,b12
163,8220DB001947,"Camac Close, stop 1947",53.33981786,-6.317961195,10626.3.60-68-b12-1.285.O,14:59:36,14:59:36,24, Greenogue,6268.7,60-68-b12-1,68,b12
164,8220DB001948,"Tyrconnell Road, stop 1948",53.338662,-6.322046302,10626.3.60-68-b12-1.285.O,15:01:01,15:01:01,25, Greenogue,6600.49,60-68-b12-1,68,b12
165,8220DB001949,"Tyrconnell Park, stop 1949",53.33764148,-6.32361808,10626.3.60-68-b12-1.285.O,15:01:24,15:01:24,26, Greenogue,6754.61,60-68-b12-1,68,b12
166,8220DB001950,"Oblates Church, stop 1950",53.33602104,-6.325994134,10626.3.60-68-b12-1.285.O,15:01:59,15:01:59,27, Greenogue,6995.59,60-68-b12-1,68,b12
167,8220DB001951,"Blackhorse Luas, stop 1951",53.33313484,-6.329125219,10626.3.60-68-b12-1.285.O,15:02:56,15:02:56,28, Greenogue,7382.77,60-68-b12-1,68,b12
168,8220DB001952,"Lansdowne Valley, stop 1952",53.33170952,-6.330036768,10626.3.60-68-b12-1.285.O,15:03:19,15:03:19,29, Greenogue,7552.38,60-68-b12-1,68,b12
169,8220DB001953,"Bluebell Luas, stop 1953",53.3299945,-6.332085621,10626.3.60-68-b12-1.285.O,15:03:52,15:03:52,30, Greenogue,7784.18,60-68-b12-1,68,b12
170,8220DB001954,"Muirfield Drive, stop 1954",53.32877417,-6.334805659,10626.3.60-68-b12-1.285.O,15:04:24,15:04:24,31, Greenogue,8008.76,60-68-b12-1,68,b12
171,8220DB001955,"Carriglea Ind Estate, stop 1955",53.32794571,-6.337915663,10626.3.60-68-b12-1.285.O,15:04:53,15:04:53,32, Greenogue,8233.91,60-68-b12-1,68,b12
172,8220DB001956,"Kylemore Luas, stop 1956",53.32636542,-6.343847094,10626.3.60-68-b12-1.285.O,15:05:51,15:05:51,33, Greenogue,8667.66,60-68-b12-1,68,b12
173,8230DB001957,"Robinhood Road, stop 1957",53.32541157,-6.347006627,10626.3.60-68-b12-1.285.O,15:06:09,15:06:09,34, Greenogue,8902.75,60-68-b12-1,68,b12
174,8230DB001958,"Long Mile Road, stop 1958",53.32456342,-6.349366296,10626.3.60-68-b12-1.285.O,15:06:22,15:06:22,35, Greenogue,9087.07,60-68-b12-1,68,b12
175,8230DB001959,"Club Road, stop 1959",53.32223375,-6.35574596,10626.3.60-68-b12-1.285.O,15:07:42,15:07:42,36, Greenogue,9582.16,60-68-b12-1,68,b12
176,8230DB001960,"Red Cow Hotel, stop 1960",53.32006317,-6.361953712,10626.3.60-68-b12-1.285.O,15:08:53,15:08:53,37, Greenogue,10059.87,60-68-b12-1,68,b12
177,8230DB004379,"Red Cow Luas, stop 4379",53.31629635,-6.373715086,10626.3.60-68-b12-1.285.O,15:10:27,15:10:27,38, Greenogue,11027.02,60-68-b12-1,68,b12
178,8230DB007782,"Monastery Gate, stop 7782",53.31811367,-6.375161977,10626.3.60-68-b12-1.285.O,15:11:28,15:11:28,39, Greenogue,11440.88,60-68-b12-1,68,b12
179,8230DB001968,"Monastery Road, stop 1968",53.31951373,-6.382283708,10626.3.60-68-b12-1.285.O,15:12:47,15:12:47,40, Greenogue,11948.47,60-68-b12-1,68,b12
180,8230DB001969,"Monastery Walk, stop 1969",53.31981048,-6.384283876,10626.3.60-68-b12-1.285.O,15:13:18,15:13:18,41, Greenogue,12084.79,60-68-b12-1,68,b12
181,8230DB001970,"Floraville Avenue, stop 1970",53.32074248,-6.389397339,10626.3.60-68-b12-1.285.O,15:14:22,15:14:22,42, Greenogue,12440.91,60-68-b12-1,68,b12
182,8230DB001971,"Laurel Park, stop 1971",53.32112631,-6.391199195,10626.3.60-68-b12-1.285.O,15:14:52,15:14:52,43, Greenogue,12568.66,60-68-b12-1,68,b12
183,8230DB002114,"Ninth Lock Road, stop 2114",53.32421455,-6.395601595,10626.3.60-68-b12-1.285.O,15:17:39,15:17:39,44, Greenogue,13249.64,60-68-b12-1,68,b12
184,8230DB002115,"Oakfield, stop 2115",53.3256299,-6.39524824,10626.3.60-68-b12-1.285.O,15:18:20,15:18:20,45, Greenogue,13409.21,60-68-b12-1,68,b12
185,8230DB006011,"Michael Collins Park, stop 6011",53.3275797,-6.39654125,10626.3.60-68-b12-1.285.O,15:19:37,15:19:37,46, Greenogue,13729.82,60-68-b12-1,68,b12
186,8230DB002133,"Dunawley, stop 2133",53.32480454,-6.403400768,10626.3.60-68-b12-1.285.O,15:20:35,15:20:35,47, Greenogue,14283.16,60-68-b12-1,68,b12
187,8230DB006244,"Alpine Heights, stop 6244",53.32272964,-6.408206819,10626.3.60-68-b12-1.285.O,15:21:22,15:21:22,48, Greenogue,14732.14,60-68-b12-1,68,b12
188,8230DB002134,"Lealand Drive, stop 2134",53.32162695,-6.412465947,10626.3.60-68-b12-1.285.O,15:22:00,15:22:00,49, Greenogue,15039.52,60-68-b12-1,68,b12
189,8230DB003378,"Old Church Avenue, stop 3378",53.31969828,-6.414774073,10626.3.60-68-b12-1.285.O,15:22:53,15:22:53,50, Greenogue,15428.58,60-68-b12-1,68,b12
190,8230DB003379,"Cherrywood Park, stop 3379",53.31906508,-6.4192105,10626.3.60-68-b12-1.285.O,15:23:36,15:23:36,51, Greenogue,15738.79,60-68-b12-1,68,b12
191,8230DB004669,"Mill Church Way, stop 4669",53.31989958,-6.421821476,10626.3.60-68-b12-1.285.O,15:24:11,15:24:11,52, Greenogue,15992.74,60-68-b12-1,68,b12
192,8230DB002165,"Rath Gael Estate, stop 2165",53.320211,-6.424301719,10626.3.60-68-b12-1.285.O,15:24:42,15:24:42,53, Greenogue,16216.93,60-68-b12-1,68,b12
193,8230DB002166,"Castlegrange, stop 2166",53.31996419,-6.42671247,10626.3.60-68-b12-1.285.O,15:25:04,15:25:04,54, Greenogue,16379.98,60-68-b12-1,68,b12
194,8230DB002167,"Grange Castle GC, stop 2167",53.3182214,-6.435662341,10626.3.60-68-b12-1.285.O,15:26:11,15:26:11,55, Greenogue,17017.36,60-68-b12-1,68,b12
195,8230DB003383,"Kilcarberry, stop 3383",53.31848482,-6.445499141,10626.3.60-68-b12-1.285.O,15:27:03,15:27:03,56, Greenogue,17682.49,60-68-b12-1,68,b12
196,8230DB003384,"Ballybane Green, stop 3384",53.3195769,-6.449992521,10626.3.60-68-b12-1.285.O,15:27:24,15:27:24,57, Greenogue,18016.8,60-68-b12-1,68,b12
197,8230DB003385,"Clutterland, stop 3385",53.32096231,-6.457717827,10626.3.60-68-b12-1.285.O,15:33:57,15:33:57,59, Greenogue,22320.66,60-68-b12-1,68,b12
198,8230DB003386,"Peamount Road, stop 3386",53.31898257,-6.463102737,10626.3.60-68-b12-1.285.O,15:34:25,15:34:25,60, Greenogue,22669.68,60-68-b12-1,68,b12
199,8230DB003387,"The Lodge, stop 3387",53.31849327,-6.466287379,10626.3.60-68-b12-1.285.O,15:34:41,15:34:41,61, Greenogue,22886.59,60-68-b12-1,68,b12
200,8230DB004559,"Newcastle Golf C, stop 4559",53.31753595,-6.471529975,10626.3.60-68-b12-1.285.O,15:35:07,15:35:07,62, Greenogue,23258.59,60-68-b12-1,68,b12
201,8230DB003389,"Peamount Hospital, stop 3389",53.31573243,-6.480209455,10626.3.60-68-b12-1.285.O,15:35:57,15:35:57,63, Greenogue,23897.39,60-68-b12-1,68,b12
202,8230DB003390,"Peamount, stop 3390",53.31318343,-6.488269187,10626.3.60-68-b12-1.285.O,15:36:47,15:36:47,64, Greenogue,24529.68,60-68-b12-1,68,b12
203,8230DB006119,"The Beeches, stop 6119",53.31129894,-6.490631877,10626.3.60-68-b12-1.285.O,15:37:01,15:37:01,65, Greenogue,24792.16,60-68-b12-1,68,b12
204,8230DB003392,"Westmanstown, stop 3392",53.30822383,-6.495512298,10626.3.60-68-b12-1.285.O,15:37:28,15:37:28,66, Greenogue,25267.78,60-68-b12-1,68,b12
205,8230DB003393,"Cornerpark, stop 3393",53.30390603,-6.499505275,10626.3.60-68-b12-1.285.O,15:38:46,15:38:46,67, Greenogue,25818.33,60-68-b12-1,68,b12
206,8230DB003394,"Glebe Close, stop 3394",53.30056434,-6.501077764,10626.3.60-68-b12-1.285.O,15:39:40,15:39:40,68, Greenogue,26209.07,60-68-b12-1,68,b12
207,8230DB003396,"Newcastle, stop 3396",53.29975207,-6.499380852,10626.3.60-68-b12-1.285.O,15:40:09,15:40:09,69, Greenogue,26417.29,60-68-b12-1,68,b12
208,8230DB003397,"Orchard Grove, stop 3397",53.29963646,-6.496624339,10626.3.60-68-b12-1.285.O,15:40:36,15:40:36,70, Greenogue,26599.23,60-68-b12-1,68,b12
209,8230DB003398,"Alymer Road, stop 3398",53.2980706,-6.49361882,10626.3.60-68-b12-1.285.O,15:41:08,15:41:08,71, Greenogue,26860.5,60-68-b12-1,68,b12
210,8230DB003399,"Newcastle Manor, stop 3399",53.29605495,-6.492009547,10626.3.60-68-b12-1.285.O,15:41:39,15:41:39,72, Greenogue,27120.84,60-68-b12-1,68,b12
211,8230DB006187,"Ballynakelly, stop 6187",53.29508899,-6.488833254,10626.3.60-68-b12-1.285.O,15:42:08,15:42:08,73, Greenogue,27368.22,60-68-b12-1,68,b12
212,8230DB006188,"Newcastle Road, stop 6188",53.29368326,-6.47865218,10626.3.60-68-b12-1.285.O,15:43:34,15:43:34,74, Greenogue,28077.98,60-68-b12-1,68,b12
213,8230DB006215,"College Road, stop 6215",53.29407788,-6.4715576,10626.3.60-68-b12-1.285.O,15:44:46,15:44:46,75, Greenogue,28677.22,60-68-b12-1,68,b12
214,8230DB006184,"Greenoge, stop 6184",53.29666228,-6.47053519,10626.3.60-68-b12-1.285.O,15:45:22,15:45:22,76, Greenogue,28973.35,60-68-b12-1,68,b12
