Index,stop_id,stop_name,stop_lat,stop_lon,trip_id,arrival_time,departure_time,stop_sequence,stop_headsign,shape_dist_traveled,route_id,customer_route_name,project_subnet
740,8220DB002492,"Stannaway Ave, stop 2492",53.31630636,-6.307884119,14713.2.60-83-b12-1.304.I,17:00:00,17:00:00,1, Charlestown,0.0,60-83-b12-1,83,b12
741,8220DB002493,"Captain's Road, stop 2493",53.31833048,-6.308644599,14713.2.60-83-b12-1.304.I,17:00:51,17:00:51,2, Charlestown,357.7,60-83-b12-1,83,b12
742,8220DB002465,"Armagh Road, stop 2465",53.31998846,-6.308939283,14713.2.60-83-b12-1.304.I,17:01:25,17:01:25,3, Charlestown,583.6,60-83-b12-1,83,b12
743,8220DB002466,"Scoil Colm, stop 2466",53.32065423,-6.306451176,14713.2.60-83-b12-1.304.I,17:01:52,17:01:52,4, Charlestown,767.45,60-83-b12-1,83,b12
744,8220DB002467,"Cashel Road, stop 2467",53.31923418,-6.303925628,14713.2.60-83-b12-1.304.I,17:02:33,17:02:33,5, Charlestown,1034.5,60-83-b12-1,83,b12
745,8220DB002494,"Stannaway Road, stop 2494",53.31969667,-6.300424844,14713.2.60-83-b12-1.304.I,17:03:43,17:03:43,6, Charlestown,1387.63,60-83-b12-1,83,b12
746,8220DB002495,"Ferns Road, stop 2495",53.32121991,-6.296941782,14713.2.60-83-b12-1.304.I,17:04:46,17:04:46,7, Charlestown,1674.57,60-83-b12-1,83,b12
747,8220DB002496,"Eamonn Ceannt Park, stop 2496",53.32196775,-6.293924742,14713.2.60-83-b12-1.304.I,17:05:37,17:05:37,8, Charlestown,1930.55,60-83-b12-1,83,b12
748,8220DB002497,"Sundrive Park, stop 2497",53.32032995,-6.291903584,14713.2.60-83-b12-1.304.I,17:06:31,17:06:31,9, Charlestown,2158.37,60-83-b12-1,83,b12
749,8220DB002471,"Larkfield Park, stop 2471",53.31868158,-6.289147501,14713.2.60-83-b12-1.304.I,17:07:29,17:07:29,10, Charlestown,2417.4,60-83-b12-1,83,b12
750,8220DB002472,"Harolds Cross NS, stop 2472",53.31767791,-6.285600295,14713.2.60-83-b12-1.304.I,17:08:19,17:08:19,11, Charlestown,2690.43,60-83-b12-1,83,b12
751,8220DB002473,"Clareville Road, stop 2473",53.31788873,-6.283385384,14713.2.60-83-b12-1.304.I,17:08:45,17:08:45,12, Charlestown,2843.05,60-83-b12-1,83,b12
752,8220DB002474,"Westfield Road, stop 2474",53.31875601,-6.281819529,14713.2.60-83-b12-1.304.I,17:09:10,17:09:10,13, Charlestown,2991.19,60-83-b12-1,83,b12
753,8220DB002475,"Kenilworth Park, stop 2475",53.31886589,-6.280088932,14713.2.60-83-b12-1.304.I,17:09:36,17:09:36,14, Charlestown,3130.12,60-83-b12-1,83,b12
754,8220DB002476,"Kenilworth Square N, stop 2476",53.31904381,-6.277469975,14713.2.60-83-b12-1.304.I,17:10:15,17:10:15,15, Charlestown,3325.86,60-83-b12-1,83,b12
755,8220DB002477,"Kenilworth Road, stop 2477",53.31987794,-6.274239109,14713.2.60-83-b12-1.304.I,17:11:06,17:11:06,16, Charlestown,3559.23,60-83-b12-1,83,b12
756,8220DB002478,"Grosvenor Road, stop 2478",53.32057759,-6.269797669,14713.2.60-83-b12-1.304.I,17:12:24,17:12:24,17, Charlestown,3918.69,60-83-b12-1,83,b12
757,8220DB001170,"Rathmines Garda Stn, stop 1170",53.32168955,-6.266525249,14713.2.60-83-b12-1.304.I,17:13:16,17:13:16,18, Charlestown,4169.13,60-83-b12-1,83,b12
758,8220DB001069,"Swan Centre, stop 1069",53.32328526,-6.265619895,14713.2.60-83-b12-1.304.I,17:14:05,17:14:05,19, Charlestown,4373.39,60-83-b12-1,83,b12
759,8220DB001070,"Rathmines, stop 1070",53.32498018,-6.265355983,14713.2.60-83-b12-1.304.I,17:14:50,17:14:50,20, Charlestown,4577.09,60-83-b12-1,83,b12
760,8220DB001071,"St Mary's College, stop 1071",53.32721804,-6.264724712,14713.2.60-83-b12-1.304.I,17:15:51,17:15:51,21, Charlestown,4831.08,60-83-b12-1,83,b12
761,8220DB004528,"Grove Park, stop 4528",53.32889608,-6.26453649,14713.2.60-83-b12-1.304.I,17:16:43,17:16:43,22, Charlestown,5018.68,60-83-b12-1,83,b12
762,8220DB001072,"South Richmond St, stop 1072",53.33102697,-6.264585114,14713.2.60-83-b12-1.304.I,17:17:55,17:17:55,23, Charlestown,5259.09,60-83-b12-1,83,b12
763,8220DB001352,"Camden Street Lower, stop 1352",53.33444543,-6.265407334,14713.2.60-83-b12-1.304.I,17:19:48,17:19:48,24, Charlestown,5642.21,60-83-b12-1,83,b12
764,8220DB001353,"Pleasants Street, stop 1353",53.33600953,-6.265418938,14713.2.60-83-b12-1.304.I,17:20:40,17:20:40,25, Charlestown,5819.08,60-83-b12-1,83,b12
765,8220DB001355,"Whitefriars Street, stop 1355",53.34009624,-6.265838755,14713.2.60-83-b12-1.304.I,17:23:08,17:23:08,26, Charlestown,6278.13,60-83-b12-1,83,b12
766,8220DB001357,"Exchequer Street, stop 1357",53.34256789,-6.26459703,14713.2.60-83-b12-1.304.I,17:24:43,17:24:43,27, Charlestown,6569.31,60-83-b12-1,83,b12
767,8220DB001359,"College Green, stop 1359",53.34439941,-6.26136859,14713.2.60-83-b12-1.304.I,17:27:58,17:27:58,28, Charlestown,6954.69,60-83-b12-1,83,b12
768,8220DB000319,"Westmoreland Street, stop 319",53.34627443,-6.259279614,14713.2.60-83-b12-1.304.I,17:30:45,17:30:45,29, Charlestown,7275.76,60-83-b12-1,83,b12
769,8220DB001443,"Civic Offices, stop 1443",53.34512939,-6.269539559,14713.2.60-83-b12-1.304.I,17:33:18,17:33:18,30, Charlestown,8075.25,60-83-b12-1,83,b12
770,8220DB001616,"St Michan's Church, stop 1616",53.34728507,-6.275024773,14713.2.60-83-b12-1.304.I,17:38:31,17:38:31,31, Charlestown,8728.3,60-83-b12-1,83,b12
771,8220DB001617,"Capuchin Church, stop 1617",53.34933121,-6.274806964,14713.2.60-83-b12-1.304.I,17:40:22,17:40:22,32, Charlestown,8957.83,60-83-b12-1,83,b12
772,8220DB001618,"Church Street Upper, stop 1618",53.35088706,-6.274248419,14713.2.60-83-b12-1.304.I,17:41:06,17:41:06,33, Charlestown,9134.41,60-83-b12-1,83,b12
773,8220DB001619,"Constitution Hill, stop 1619",53.3529127,-6.273235199,14713.2.60-83-b12-1.304.I,17:42:06,17:42:06,34, Charlestown,9372.78,60-83-b12-1,83,b12
774,8220DB000195,"Broadstone, stop 195",53.35501178,-6.27357098,14713.2.60-83-b12-1.304.I,17:43:06,17:43:06,35, Charlestown,9964.64,60-83-b12-1,83,b12
775,8220DB000196,"Fire Station, stop 196",53.3568839,-6.273750704,14713.2.60-83-b12-1.304.I,17:43:59,17:43:59,36, Charlestown,10189.42,60-83-b12-1,83,b12
776,8220DB000197,"Monck Place, stop 197",53.35895263,-6.273231374,14713.2.60-83-b12-1.304.I,17:44:57,17:44:57,37, Charlestown,10419.49,60-83-b12-1,83,b12
777,8220DB000198,"Phibsborough SC, stop 198",53.36162538,-6.27283781,14713.2.60-83-b12-1.304.I,17:46:13,17:46:13,38, Charlestown,10725.16,60-83-b12-1,83,b12
778,8220DB000199,"Munster Street, stop 199",53.36362181,-6.272291246,14713.2.60-83-b12-1.304.I,17:46:56,17:46:56,39, Charlestown,10950.83,60-83-b12-1,83,b12
779,8220DB000200,"Prospect Way, stop 200",53.36742269,-6.271596444,14713.2.60-83-b12-1.304.I,17:48:34,17:48:34,40, Charlestown,11462.08,60-83-b12-1,83,b12
780,8220DB000201,"Botanic Road, stop 201",53.3682911,-6.270118627,14713.2.60-83-b12-1.304.I,17:49:00,17:49:00,41, Charlestown,11648.37,60-83-b12-1,83,b12
781,8220DB000202,"Fairfield Road, stop 202",53.37008009,-6.268903978,14713.2.60-83-b12-1.304.I,17:49:31,17:49:31,42, Charlestown,11861.88,60-83-b12-1,83,b12
782,8220DB000151,"Botanic Gardens, stop 151",53.37195526,-6.269293828,14713.2.60-83-b12-1.304.I,17:50:06,17:50:06,43, Charlestown,12097.94,60-83-b12-1,83,b12
783,8220DB000153,"Met Eireann, stop 153",53.37568851,-6.270134439,14713.2.60-83-b12-1.304.I,17:51:16,17:51:16,44, Charlestown,12569.76,60-83-b12-1,83,b12
784,8220DB000154,"St Brigid's School, stop 154",53.377259,-6.275557037,14713.2.60-83-b12-1.304.I,17:52:26,17:52:26,45, Charlestown,12974.84,60-83-b12-1,83,b12
785,8220DB000155,"Old Finglas Road, stop 155",53.37787425,-6.279575527,14713.2.60-83-b12-1.304.I,17:53:15,17:53:15,46, Charlestown,13254.61,60-83-b12-1,83,b12
786,8220DB000156,"Tolka Estate, stop 156",53.37862339,-6.281664739,14713.2.60-83-b12-1.304.I,17:53:49,17:53:49,47, Charlestown,13452.65,60-83-b12-1,83,b12
787,8220DB007430,"Griffith Avenue, stop 7430",53.37986768,-6.280066365,14713.2.60-83-b12-1.304.I,17:54:28,17:54:28,48, Charlestown,13670.36,60-83-b12-1,83,b12
788,8220DB000177,"Ballygall Rd East, stop 177",53.38046838,-6.276224035,14713.2.60-83-b12-1.304.I,17:55:30,17:55:30,49, Charlestown,14027.8,60-83-b12-1,83,b12
789,8220DB000178,"Fitzmaurice Road, stop 178",53.38189026,-6.276346983,14713.2.60-83-b12-1.304.I,17:55:56,17:55:56,50, Charlestown,14187.8,60-83-b12-1,83,b12
790,8220DB001539,"Glasanaon Road, stop 1539",53.3831358,-6.279198016,14713.2.60-83-b12-1.304.I,17:56:43,17:56:43,51, Charlestown,14473.09,60-83-b12-1,83,b12
791,8220DB001540,"Johnstown Park, stop 1540",53.38434031,-6.284200629,14713.2.60-83-b12-1.304.I,17:57:46,17:57:46,52, Charlestown,14852.87,60-83-b12-1,83,b12
792,8220DB007426,"Ballygall Parade, stop 7426",53.38545638,-6.288064506,14713.2.60-83-b12-1.304.I,17:58:35,17:58:35,53, Charlestown,15144.44,60-83-b12-1,83,b12
793,8220DB007427,"Ballygall Place, stop 7427",53.38779679,-6.29207501,14713.2.60-83-b12-1.304.I,17:59:36,17:59:36,54, Charlestown,15515.26,60-83-b12-1,83,b12
794,8220DB007428,"Ballygall Road Junc, stop 7428",53.38908976,-6.293241074,14713.2.60-83-b12-1.304.I,18:00:03,18:00:03,55, Charlestown,15679.32,60-83-b12-1,83,b12
795,8220DB000138,"St Canice's BNS, stop 138",53.38999501,-6.291806573,14713.2.60-83-b12-1.304.I,18:00:36,18:00:36,56, Charlestown,15879.43,60-83-b12-1,83,b12
796,8220DB000133,"Grove Park Road, stop 133",53.39079693,-6.286301509,14713.2.60-83-b12-1.304.I,18:01:44,18:01:44,57, Charlestown,16292.65,60-83-b12-1,83,b12
797,8220DB000134,"Sycamore Road, stop 134",53.39309459,-6.286073865,14713.2.60-83-b12-1.304.I,18:02:30,18:02:30,58, Charlestown,16572.87,60-83-b12-1,83,b12
798,8220DB004890,"Sycamore Park, stop 4890",53.39516758,-6.290862585,14713.2.60-83-b12-1.304.I,18:03:34,18:03:34,59, Charlestown,16966.1,60-83-b12-1,83,b12
799,8220DB004369,"Oakwood Road, stop 4369",53.3972652,-6.292357491,14713.2.60-83-b12-1.304.I,18:04:29,18:04:29,60, Charlestown,17309.63,60-83-b12-1,83,b12
800,8240DB006219,"St Margaret's Road, stop 6219",53.39983649,-6.293036536,14713.2.60-83-b12-1.304.I,18:05:29,18:05:29,61, Charlestown,17707.35,60-83-b12-1,83,b12
801,8240DB006229,"Melville, stop 6229",53.40204632,-6.298617971,14713.2.60-83-b12-1.304.I,18:06:37,18:06:37,62, Charlestown,18159.23,60-83-b12-1,83,b12
802,8240DB007131,"Charlestown SC, stop 7131",53.40295145,-6.304116512,14713.2.60-83-b12-1.304.I,18:07:35,18:07:35,63, Charlestown,18539.92,60-83-b12-1,83,b12
