Index,stop_id,stop_name,stop_lat,stop_lon,trip_id,arrival_time,departure_time,stop_sequence,stop_headsign,shape_dist_traveled,route_id,customer_route_name,project_subnet
126,8220DB006122,"St Pappin's Road, stop 6122",53.38637271,-6.274301664,15564.2.60-11-b12-1.15.O,10:30:00,10:30:00,1, Sandyford B.D.,0.0,60-11-b12-1,11,b12
127,8220DB000035,"Dean Swift Road, stop 35",53.38620679,-6.270910693,15564.2.60-11-b12-1.15.O,10:30:40,10:30:40,2, Sandyford B.D.,257.4,60-11-b12-1,11,b12
128,8220DB000036,"Maolbuille Road, stop 36",53.38612685,-6.26787707,15564.2.60-11-b12-1.15.O,10:31:13,10:31:13,3, Sandyford B.D.,459.04,60-11-b12-1,11,b12
129,8220DB000037,"DCU Ballymun Road, stop 37",53.3853464,-6.264886981,15564.2.60-11-b12-1.15.O,10:31:56,10:31:56,4, Sandyford B.D.,719.54,60-11-b12-1,11,b12
130,8220DB000038,"Hampstead Avenue, stop 38",53.38223659,-6.265509521,15564.2.60-11-b12-1.15.O,10:32:53,10:32:53,5, Sandyford B.D.,1067.78,60-11-b12-1,11,b12
131,8220DB000039,"The Rise, stop 39",53.38041419,-6.265658759,15564.2.60-11-b12-1.15.O,10:33:25,10:33:25,6, Sandyford B.D.,1270.66,60-11-b12-1,11,b12
132,8220DB000040,"Stella Avenue, stop 40",53.37666077,-6.264668969,15564.2.60-11-b12-1.15.O,10:34:30,10:34:30,7, Sandyford B.D.,1693.44,60-11-b12-1,11,b12
133,8220DB000041,"Home Farm Road, stop 41",53.37555927,-6.261858006,15564.2.60-11-b12-1.15.O,10:35:10,10:35:10,8, Sandyford B.D.,1951.7,60-11-b12-1,11,b12
134,8220DB000042,"Corpus Christi NS, stop 42",53.37465027,-6.25746119,15564.2.60-11-b12-1.15.O,10:35:58,10:35:58,9, Sandyford B.D.,2260.36,60-11-b12-1,11,b12
135,8220DB000043,"Achill Road, stop 43",53.37386122,-6.25390131,15564.2.60-11-b12-1.15.O,10:37:16,10:37:16,10, Sandyford B.D.,2511.64,60-11-b12-1,11,b12
136,8220DB000044,"Skylon Hotel, stop 44",53.37301741,-6.252132303,15564.2.60-11-b12-1.15.O,10:38:11,10:38:11,11, Sandyford B.D.,2687.68,60-11-b12-1,11,b12
137,8220DB007603,"St Patrick's College, stop 7603",53.37157673,-6.253183204,15564.2.60-11-b12-1.15.O,10:39:05,10:39:05,12, Sandyford B.D.,2861.86,60-11-b12-1,11,b12
138,8220DB000045,"DCU St Patrick's, stop 45",53.36993643,-6.254106941,15564.2.60-11-b12-1.15.O,10:40:07,10:40:07,13, Sandyford B.D.,3055.81,60-11-b12-1,11,b12
139,8220DB000046,"Botanic Avenue, stop 46",53.36713102,-6.255258557,15564.2.60-11-b12-1.15.O,10:41:13,10:41:13,14, Sandyford B.D.,3382.41,60-11-b12-1,11,b12
140,8220DB000047,"Drumcondra Rail Stn, stop 47",53.36391612,-6.257298257,15564.2.60-11-b12-1.15.O,10:42:33,10:42:33,15, Sandyford B.D.,3761.96,60-11-b12-1,11,b12
141,8220DB000048,"Fitzroy Avenue, stop 48",53.36225739,-6.258808412,15564.2.60-11-b12-1.15.O,10:43:36,10:43:36,16, Sandyford B.D.,3972.19,60-11-b12-1,11,b12
142,8220DB000049,"Dorset Street Lower, stop 49",53.36000424,-6.260853508,15564.2.60-11-b12-1.15.O,10:45:06,10:45:06,17, Sandyford B.D.,4258.58,60-11-b12-1,11,b12
143,8220DB000051,"Temple Street, stop 51",53.35781041,-6.263271572,15564.2.60-11-b12-1.15.O,10:46:15,10:46:15,18, Sandyford B.D.,4548.81,60-11-b12-1,11,b12
144,8220DB000052,"Dorset Street Upper, stop 52",53.35666078,-6.264565282,15564.2.60-11-b12-1.15.O,10:46:52,10:46:52,19, Sandyford B.D.,4705.57,60-11-b12-1,11,b12
145,8220DB000261,"Parnell Square East, stop 261",53.35405628,-6.262853361,15564.2.60-11-b12-1.15.O,10:48:23,10:48:23,20, Sandyford B.D.,5179.88,60-11-b12-1,11,b12
146,8220DB000271,"O'Connell St Lower, stop 271",53.34859636,-6.25948542,15564.2.60-11-b12-1.15.O,10:52:11,10:52:11,21, Sandyford B.D.,5833.26,60-11-b12-1,11,b12
147,8220DB000404,"Nassau Street, stop 404",53.34266333,-6.256347892,15564.2.60-11-b12-1.15.O,10:56:21,10:56:21,22, Sandyford B.D.,6738.2,60-11-b12-1,11,b12
148,8220DB000747,"Kildare Street, stop 747",53.3399308,-6.255723519,15564.2.60-11-b12-1.15.O,10:58:10,10:58:10,23, Sandyford B.D.,7128.33,60-11-b12-1,11,b12
149,8220DB000842,"Stephen's Green East, stop 842",53.33725198,-6.256313389,15564.2.60-11-b12-1.15.O,10:59:30,10:59:30,24, Sandyford B.D.,7483.81,60-11-b12-1,11,b12
150,8220DB000845,"Leeson St Lower, stop 845",53.33545345,-6.256251618,15564.2.60-11-b12-1.15.O,11:00:22,11:00:22,25, Sandyford B.D.,7721.69,60-11-b12-1,11,b12
151,8220DB000846,"Fitzwilliam Place, stop 846",53.33345373,-6.254110908,15564.2.60-11-b12-1.15.O,11:01:34,11:01:34,26, Sandyford B.D.,7984.59,60-11-b12-1,11,b12
152,8220DB000847,"Leeson St Upper, stop 847",53.33160145,-6.25221962,15564.2.60-11-b12-1.15.O,11:02:40,11:02:40,27, Sandyford B.D.,8224.85,60-11-b12-1,11,b12
153,8220DB000848,"Sussex Road, stop 848",53.32972799,-6.248887998,15564.2.60-11-b12-1.15.O,11:03:16,11:03:16,28, Sandyford B.D.,8547.0,60-11-b12-1,11,b12
154,8220DB000849,"Appian Way, stop 849",53.32789827,-6.247927009,15564.2.60-11-b12-1.15.O,11:04:26,11:04:26,29, Sandyford B.D.,8826.68,60-11-b12-1,11,b12
155,8220DB000850,"Chelmsford Road, stop 850",53.32608574,-6.251199031,15564.2.60-11-b12-1.15.O,11:05:32,11:05:32,30, Sandyford B.D.,9124.62,60-11-b12-1,11,b12
156,8220DB000851,"Chelmsford Road, stop 851",53.32509971,-6.253221016,15564.2.60-11-b12-1.15.O,11:06:14,11:06:14,31, Sandyford B.D.,9298.83,60-11-b12-1,11,b12
157,8220DB000852,"Ranelagh, stop 852",53.32442927,-6.252858085,15564.2.60-11-b12-1.15.O,11:06:46,11:06:46,32, Sandyford B.D.,9432.65,60-11-b12-1,11,b12
158,8220DB000853,"Sandford Road, stop 853",53.32259277,-6.248369577,15564.2.60-11-b12-1.15.O,11:07:41,11:07:41,33, Sandyford B.D.,9795.99,60-11-b12-1,11,b12
159,8220DB000854,"Larch Grove, stop 854",53.32163167,-6.246577563,15564.2.60-11-b12-1.15.O,11:08:05,11:08:05,34, Sandyford B.D.,9955.62,60-11-b12-1,11,b12
160,8220DB000855,"Sandford Road, stop 855",53.3193023,-6.242815366,15564.2.60-11-b12-1.15.O,11:08:56,11:08:56,35, Sandyford B.D.,10314.22,60-11-b12-1,11,b12
161,8220DB000856,"Clonskeagh Road, stop 856",53.31765511,-6.24082668,15564.2.60-11-b12-1.15.O,11:09:28,11:09:28,36, Sandyford B.D.,10539.18,60-11-b12-1,11,b12
162,8220DB000857,"Clonskeagh Hospital, stop 857",53.31656738,-6.23837983,15564.2.60-11-b12-1.15.O,11:09:56,11:09:56,37, Sandyford B.D.,10744.23,60-11-b12-1,11,b12
163,8220DB000858,"Clonskeagh, stop 858",53.31409447,-6.238301572,15564.2.60-11-b12-1.15.O,11:10:42,11:10:42,38, Sandyford B.D.,11037.11,60-11-b12-1,11,b12
164,8250DB000859,"Whitethorn Road, stop 859",53.31184114,-6.238484419,15564.2.60-11-b12-1.15.O,11:11:23,11:11:23,39, Sandyford B.D.,11293.83,60-11-b12-1,11,b12
165,8250DB000860,"Wynnsward Drive, stop 860",53.30818685,-6.236924124,15564.2.60-11-b12-1.15.O,11:12:52,11:12:52,40, Sandyford B.D.,11715.46,60-11-b12-1,11,b12
166,8250DB000861,"Roebuck Road, stop 861",53.30517043,-6.23595301,15564.2.60-11-b12-1.15.O,11:14:09,11:14:09,41, Sandyford B.D.,12073.15,60-11-b12-1,11,b12
167,8250DB000862,"Islamic Centre, stop 862",53.30360798,-6.234231824,15564.2.60-11-b12-1.15.O,11:14:39,11:14:39,42, Sandyford B.D.,12281.46,60-11-b12-1,11,b12
168,8250DB003014,"Goatstown Road, stop 3014",53.30014894,-6.233114227,15564.2.60-11-b12-1.15.O,11:15:39,11:15:39,43, Sandyford B.D.,12680.37,60-11-b12-1,11,b12
169,8250DB003015,"Larchfield Road, stop 3015",53.29846863,-6.23375372,15564.2.60-11-b12-1.15.O,11:16:08,11:16:08,44, Sandyford B.D.,12871.41,60-11-b12-1,11,b12
170,8250DB003016,"Willowfield Avenue, stop 3016",53.29642898,-6.233192781,15564.2.60-11-b12-1.15.O,11:16:42,11:16:42,45, Sandyford B.D.,13111.13,60-11-b12-1,11,b12
171,8250DB003017,"Hollywood Park, stop 3017",53.29433993,-6.231118751,15564.2.60-11-b12-1.15.O,11:17:21,11:17:21,46, Sandyford B.D.,13381.59,60-11-b12-1,11,b12
172,8250DB003018,"Drummartin Road, stop 3018",53.29202026,-6.228649435,15564.2.60-11-b12-1.15.O,11:18:04,11:18:04,47, Sandyford B.D.,13688.62,60-11-b12-1,11,b12
173,8250DB003019,"Eden Park Drive, stop 3019",53.29026699,-6.227401946,15564.2.60-11-b12-1.15.O,11:18:37,11:18:37,48, Sandyford B.D.,13900.12,60-11-b12-1,11,b12
174,8250DB003020,"Drummartin Close, stop 3020",53.28919741,-6.22498623,15564.2.60-11-b12-1.15.O,11:19:21,11:19:21,49, Sandyford B.D.,14179.45,60-11-b12-1,11,b12
175,8250DB003021,"Lower Kilmacud Rd, stop 3021",53.28908025,-6.221346096,15564.2.60-11-b12-1.15.O,11:19:46,11:19:46,50, Sandyford B.D.,14420.79,60-11-b12-1,11,b12
176,8250DB003022,"Mount Anville NS, stop 3022",53.2888451,-6.217035895,15564.2.60-11-b12-1.15.O,11:20:16,11:20:16,51, Sandyford B.D.,14708.13,60-11-b12-1,11,b12
177,8250DB000441,"Redesdale Road, stop 441",53.28894125,-6.2150519,15564.2.60-11-b12-1.15.O,11:20:30,11:20:30,52, Sandyford B.D.,14841.6,60-11-b12-1,11,b12
178,8250DB000442,"Dale Drive, stop 442",53.28921027,-6.212010676,15564.2.60-11-b12-1.15.O,11:21:02,11:21:02,53, Sandyford B.D.,15045.79,60-11-b12-1,11,b12
179,8250DB000443,"South Avenue, stop 443",53.2891298,-6.209044034,15564.2.60-11-b12-1.15.O,11:21:31,11:21:31,54, Sandyford B.D.,15243.27,60-11-b12-1,11,b12
180,8250DB000444,"Kilmacud Park, stop 444",53.28813647,-6.20754062,15564.2.60-11-b12-1.15.O,11:22:06,11:22:06,55, Sandyford B.D.,15468.86,60-11-b12-1,11,b12
181,8250DB000445,"Kilmacud House, stop 445",53.28568853,-6.208528028,15564.2.60-11-b12-1.15.O,11:22:46,11:22:46,56, Sandyford B.D.,15749.29,60-11-b12-1,11,b12
182,8250DB004779,"St Raphaela's Road, stop 4779",53.28317879,-6.208992975,15564.2.60-11-b12-1.15.O,11:23:27,11:23:27,57, Sandyford B.D.,16033.12,60-11-b12-1,11,b12
183,8250DB007057,"Stillorgan Luas, stop 7057",53.2801061,-6.210276235,15564.2.60-11-b12-1.15.O,11:24:30,11:24:30,58, Sandyford B.D.,16385.84,60-11-b12-1,11,b12
184,8250DB004847,"Blackthorn Drive, stop 4847",53.27981511,-6.213047797,15564.2.60-11-b12-1.15.O,11:25:17,11:25:17,59, Sandyford B.D.,16650.23,60-11-b12-1,11,b12
185,8250DB004848,"Maple Avenue, stop 4848",53.27781391,-6.218064987,15564.2.60-11-b12-1.15.O,11:26:44,11:26:44,60, Sandyford B.D.,17148.2,60-11-b12-1,11,b12
