Index,stop_id,stop_name,stop_lat,stop_lon,trip_id,arrival_time,departure_time,stop_sequence,stop_headsign,shape_dist_traveled,route_id,customer_route_name,project_subnet
122,8240DB000324,"Harristown, stop 324",53.41772268,-6.278644169,15121.2.60-4-b12-1.3.O,13:15:00,13:15:00,1, Monkstown Ave,0.0,60-4-b12-1,4,b12
123,8240DB000327,"Silloge Golf Club, stop 327",53.41319803,-6.265347926,15121.2.60-4-b12-1.3.O,13:17:05,13:17:05,6, Monkstown Ave,2181.47,60-4-b12-1,4,b12
124,8220DB007113,"Northwood Avenue, stop 7113",53.40254107,-6.264924264,15121.2.60-4-b12-1.3.O,13:20:01,13:20:01,7, Monkstown Ave,3387.92,60-4-b12-1,4,b12
125,8220DB000127,"Nursing Home, stop 127",53.39910753,-6.263680428,15121.2.60-4-b12-1.3.O,13:21:47,13:21:47,8, Monkstown Ave,3784.6,60-4-b12-1,4,b12
126,8220DB000112,"Civic Centre, stop 112",53.3961544,-6.26395104,15121.2.60-4-b12-1.3.O,13:23:16,13:23:16,9, Monkstown Ave,4113.6,60-4-b12-1,4,b12
127,8220DB000113,"Trinity Comp School, stop 113",53.39226796,-6.263703255,15121.2.60-4-b12-1.3.O,13:24:37,13:24:37,10, Monkstown Ave,4546.42,60-4-b12-1,4,b12
128,8220DB000114,"Ballymun Road, stop 114",53.39133332,-6.263711229,15121.2.60-4-b12-1.3.O,13:24:56,13:24:56,11, Monkstown Ave,4650.35,60-4-b12-1,4,b12
129,8220DB000115,"Ballymun Road Church, stop 115",53.38796409,-6.2650361,15121.2.60-4-b12-1.3.O,13:26:09,13:26:09,12, Monkstown Ave,5035.35,60-4-b12-1,4,b12
130,8220DB000037,"DCU Ballymun Road, stop 37",53.3853464,-6.264886981,15121.2.60-4-b12-1.3.O,13:27:03,13:27:03,13, Monkstown Ave,5328.22,60-4-b12-1,4,b12
131,8220DB000038,"Hampstead Avenue, stop 38",53.38223659,-6.265509521,15121.2.60-4-b12-1.3.O,13:28:08,13:28:08,14, Monkstown Ave,5676.46,60-4-b12-1,4,b12
132,8220DB000039,"The Rise, stop 39",53.38041419,-6.265658759,15121.2.60-4-b12-1.3.O,13:28:45,13:28:45,15, Monkstown Ave,5879.34,60-4-b12-1,4,b12
133,8220DB000040,"Stella Avenue, stop 40",53.37666077,-6.264668969,15121.2.60-4-b12-1.3.O,13:30:04,13:30:04,16, Monkstown Ave,6302.12,60-4-b12-1,4,b12
134,8220DB000146,"Na Fianna GAA Club, stop 146",53.37504013,-6.265095586,15121.2.60-4-b12-1.3.O,13:30:37,13:30:37,17, Monkstown Ave,6485.76,60-4-b12-1,4,b12
135,8220DB000147,"Tolka Bridge, stop 147",53.37248023,-6.265830862,15121.2.60-4-b12-1.3.O,13:31:32,13:31:32,18, Monkstown Ave,6775.56,60-4-b12-1,4,b12
136,8220DB000184,"Botanic Road, stop 184",53.36970368,-6.268979354,15121.2.60-4-b12-1.3.O,13:32:41,13:32:41,19, Monkstown Ave,7147.64,60-4-b12-1,4,b12
137,8220DB000185,"St Teresa's Place, stop 185",53.36810094,-6.270021139,15121.2.60-4-b12-1.3.O,13:33:30,13:33:30,20, Monkstown Ave,7340.18,60-4-b12-1,4,b12
138,8220DB000186,"Lindsay Grove, stop 186",53.36535534,-6.271589978,15121.2.60-4-b12-1.3.O,13:34:55,13:34:55,21, Monkstown Ave,7663.86,60-4-b12-1,4,b12
139,8220DB000187,"Phibsborough Road, stop 187",53.36273425,-6.272447365,15121.2.60-4-b12-1.3.O,13:36:43,13:36:43,22, Monkstown Ave,7958.75,60-4-b12-1,4,b12
140,8220DB000188,"North Circular Road, stop 188",53.36012069,-6.272583149,15121.2.60-4-b12-1.3.O,13:38:06,13:38:06,23, Monkstown Ave,8256.42,60-4-b12-1,4,b12
141,8220DB000189,"Fire Station, stop 189",53.35716744,-6.273468816,15121.2.60-4-b12-1.3.O,13:39:38,13:39:38,24, Monkstown Ave,8590.92,60-4-b12-1,4,b12
142,8220DB000190,"Broadstone, stop 190",53.35512573,-6.273371074,15121.2.60-4-b12-1.3.O,13:40:30,13:40:30,25, Monkstown Ave,8818.13,60-4-b12-1,4,b12
143,8220DB000191,"Western Way, stop 191",53.35501795,-6.269033781,15121.2.60-4-b12-1.3.O,13:42:03,13:42:03,26, Monkstown Ave,9239.7,60-4-b12-1,4,b12
144,8220DB000819,"Blessington Street, stop 819",53.35630402,-6.265991986,15121.2.60-4-b12-1.3.O,13:43:26,13:43:26,27, Monkstown Ave,9612.43,60-4-b12-1,4,b12
145,8220DB004725,"O'Connell St Upper, stop 4725",53.35211562,-6.261054534,15121.2.60-4-b12-1.3.O,13:46:08,13:46:08,29, Monkstown Ave,10309.0,60-4-b12-1,4,b12
146,8220DB000273,"O'Connell Bridge, stop 273",53.34724742,-6.258819402,15121.2.60-4-b12-1.3.O,13:49:30,13:49:30,30, Monkstown Ave,10871.61,60-4-b12-1,4,b12
147,8220DB000405,"Nassau Street, stop 405",53.34248169,-6.255604373,15121.2.60-4-b12-1.3.O,13:54:17,13:54:17,31, Monkstown Ave,11671.79,60-4-b12-1,4,b12
148,8220DB000408,"Merrion Sq North, stop 408",53.34097078,-6.25001924,15121.2.60-4-b12-1.3.O,13:56:45,13:56:45,32, Monkstown Ave,12083.21,60-4-b12-1,4,b12
149,8220DB000409,"Holles Street, stop 409",53.34013673,-6.247695596,15121.2.60-4-b12-1.3.O,13:57:10,13:57:10,33, Monkstown Ave,12263.1,60-4-b12-1,4,b12
150,8220DB000410,"Mount Street Lower, stop 410",53.33881345,-6.24389039,15121.2.60-4-b12-1.3.O,13:58:17,13:58:17,34, Monkstown Ave,12555.6,60-4-b12-1,4,b12
151,8220DB000411,"Mount Street Bridge, stop 411",53.33811712,-6.241771554,15121.2.60-4-b12-1.3.O,13:58:55,13:58:55,35, Monkstown Ave,12715.83,60-4-b12-1,4,b12
152,8220DB000412,"Haddington Road, stop 412",53.33525551,-6.237279319,15121.2.60-4-b12-1.3.O,14:00:37,14:00:37,36, Monkstown Ave,13159.58,60-4-b12-1,4,b12
153,8220DB000413,"Lansdowne Park, stop 413",53.33409419,-6.236546394,15121.2.60-4-b12-1.3.O,14:01:06,14:01:06,37, Monkstown Ave,13296.94,60-4-b12-1,4,b12
154,8220DB000414,"Lansdowne Road, stop 414",53.33157381,-6.234473217,15121.2.60-4-b12-1.3.O,14:02:11,14:02:11,38, Monkstown Ave,13611.89,60-4-b12-1,4,b12
155,8220DB000415,"American Embassy, stop 415",53.33033782,-6.23294775,15121.2.60-4-b12-1.3.O,14:02:50,14:02:50,39, Monkstown Ave,13781.83,60-4-b12-1,4,b12
156,8220DB000416,"RDS Ballsbridge, stop 416",53.32863992,-6.229369569,15121.2.60-4-b12-1.3.O,14:04:03,14:04:03,40, Monkstown Ave,14093.93,60-4-b12-1,4,b12
157,8220DB000417,"Merrion Road, stop 417",53.32769959,-6.22597042,15121.2.60-4-b12-1.3.O,14:04:50,14:04:50,41, Monkstown Ave,14342.59,60-4-b12-1,4,b12
158,8220DB000418,"British Embassy, stop 418",53.32571981,-6.223395298,15121.2.60-4-b12-1.3.O,14:05:43,14:05:43,42, Monkstown Ave,14621.71,60-4-b12-1,4,b12
159,8220DB000419,"Shrewsbury Park, stop 419",53.32399511,-6.220449503,15121.2.60-4-b12-1.3.O,14:06:36,14:06:36,43, Monkstown Ave,14896.31,60-4-b12-1,4,b12
160,8220DB000420,"Merlyn Road, stop 420",53.3219108,-6.217503922,15121.2.60-4-b12-1.3.O,14:07:24,14:07:24,44, Monkstown Ave,15199.24,60-4-b12-1,4,b12
161,8220DB000421,"Merrion View Avenue, stop 421",53.32000518,-6.21449112,15121.2.60-4-b12-1.3.O,14:08:10,14:08:10,45, Monkstown Ave,15491.84,60-4-b12-1,4,b12
162,8220DB000422,"St Vincent's Hosp, stop 422",53.31806419,-6.210324281,15121.2.60-4-b12-1.3.O,14:09:06,14:09:06,46, Monkstown Ave,15848.39,60-4-b12-1,4,b12
163,8220DB000423,"Herbert Avenue, stop 423",53.3171485,-6.207405658,15121.2.60-4-b12-1.3.O,14:09:33,14:09:33,47, Monkstown Ave,16066.8,60-4-b12-1,4,b12
164,8220DB000424,"Merrion Gates, stop 424",53.31539438,-6.203726866,15121.2.60-4-b12-1.3.O,14:10:12,14:10:12,48, Monkstown Ave,16379.43,60-4-b12-1,4,b12
165,8250DB000425,"Merrion Road, stop 425",53.31250221,-6.201477017,15121.2.60-4-b12-1.3.O,14:11:00,14:11:00,49, Monkstown Ave,16730.99,60-4-b12-1,4,b12
166,8250DB000426,"Rock Road, stop 426",53.31096735,-6.19983067,15121.2.60-4-b12-1.3.O,14:11:28,14:11:28,50, Monkstown Ave,16938.73,60-4-b12-1,4,b12
167,8250DB000427,"Booterstown Station, stop 427",53.30827033,-6.195036945,15121.2.60-4-b12-1.3.O,14:12:24,14:12:24,51, Monkstown Ave,17376.7,60-4-b12-1,4,b12
168,8250DB000428,"Blackrock College, stop 428",53.30691071,-6.190727473,15121.2.60-4-b12-1.3.O,14:12:58,14:12:58,52, Monkstown Ave,17705.75,60-4-b12-1,4,b12
169,8250DB000429,"Blackrock Clinic, stop 429",53.3047081,-6.187144257,15121.2.60-4-b12-1.3.O,14:13:34,14:13:34,53, Monkstown Ave,18048.45,60-4-b12-1,4,b12
170,8250DB006334,"Frascati SC, stop 6334",53.30109897,-6.18033517,15121.2.60-4-b12-1.3.O,14:15:45,14:15:45,54, Monkstown Ave,18655.84,60-4-b12-1,4,b12
171,8250DB007660,"Frascati Road, stop 7660",53.29914606,-6.174881877,15121.2.60-4-b12-1.3.O,14:17:17,14:17:17,55, Monkstown Ave,19094.28,60-4-b12-1,4,b12
172,8250DB003114,"Temple Hill, stop 3114",53.29580501,-6.169773491,15121.2.60-4-b12-1.3.O,14:19:06,14:19:06,56, Monkstown Ave,19618.19,60-4-b12-1,4,b12
173,8250DB003115,"Stradbrook Road, stop 3115",53.29399219,-6.167615733,15121.2.60-4-b12-1.3.O,14:19:45,14:19:45,57, Monkstown Ave,19875.4,60-4-b12-1,4,b12
174,8250DB003116,"Rowan Park, stop 3116",53.28992269,-6.167174904,15121.2.60-4-b12-1.3.O,14:20:55,14:20:55,58, Monkstown Ave,20342.54,60-4-b12-1,4,b12
175,8250DB006085,"Grange Grove, stop 6085",53.28649209,-6.166196821,15121.2.60-4-b12-1.3.O,14:22:29,14:22:29,59, Monkstown Ave,20854.9,60-4-b12-1,4,b12
176,8250DB002026,"Monkstown Avenue, stop 2026",53.28664406,-6.159725633,15121.2.60-4-b12-1.3.O,14:23:39,14:23:39,60, Monkstown Ave,21337.7,60-4-b12-1,4,b12
177,8250DB007226,"Richmond Grove, stop 7226",53.28855675,-6.153793442,15121.2.60-4-b12-1.3.O,14:24:44,14:24:44,61, Monkstown Ave,21785.73,60-4-b12-1,4,b12
