Index,stop_id,stop_name,stop_lat,stop_lon,trip_id,arrival_time,departure_time,stop_sequence,stop_headsign,shape_dist_traveled,route_id,customer_route_name,project_subnet
1092,8240DB004745,"Damastown IBM, stop 4745",53.42046909,-6.419423162,6452.1.60-38B-b12-1.201.I,06:00:00,06:00:00,1, O'Connell Street,0.0,60-38B-b12-1,38B,b12
1093,8240DB004989,"IBM Campus, stop 4989",53.41910966,-6.417893831,6452.1.60-38B-b12-1.201.I,06:00:26,06:00:26,2, O'Connell Street,238.57,60-38B-b12-1,38B,b12
1094,8240DB004990,"Damastown Road, stop 4990",53.41172607,-6.42298156,6452.1.60-38B-b12-1.201.I,06:02:25,06:02:25,3, O'Connell Street,1331.14,60-38B-b12-1,38B,b12
1095,8240DB004991,"Damastown Green, stop 4991",53.41108542,-6.420071985,6452.1.60-38B-b12-1.201.I,06:02:48,06:02:48,4, O'Connell Street,1537.99,60-38B-b12-1,38B,b12
1096,8240DB004992,"Damastown Ind Park, stop 4992",53.41067546,-6.417620242,6452.1.60-38B-b12-1.201.I,06:03:06,06:03:06,5, O'Connell Street,1707.11,60-38B-b12-1,38B,b12
1097,8240DB001719,"Damastown Close, stop 1719",53.40887925,-6.408255782,6452.1.60-38B-b12-1.201.I,06:04:19,06:04:19,6, O'Connell Street,2374.91,60-38B-b12-1,38B,b12
1098,8240DB001828,"Lady's Well Road, stop 1828",53.4070255,-6.398006837,6452.1.60-38B-b12-1.201.I,06:05:37,06:05:37,7, O'Connell Street,3097.72,60-38B-b12-1,38B,b12
1099,8240DB001829,"Parslickstown Ave, stop 1829",53.40619883,-6.395345602,6452.1.60-38B-b12-1.201.I,06:06:22,06:06:22,8, O'Connell Street,3294.96,60-38B-b12-1,38B,b12
1100,8240DB004997,"Castlecurragh Vale, stop 4997",53.40454591,-6.39206889,6452.1.60-38B-b12-1.201.I,06:07:29,06:07:29,9, O'Connell Street,3592.05,60-38B-b12-1,38B,b12
1101,8240DB004998,"Castlecurragh Heath, stop 4998",53.4031354,-6.389445016,6452.1.60-38B-b12-1.201.I,06:08:22,06:08:22,10, O'Connell Street,3826.26,60-38B-b12-1,38B,b12
1102,8240DB004999,"Warrenstown Green, stop 4999",53.40093171,-6.385994102,6452.1.60-38B-b12-1.201.I,06:09:44,06:09:44,11, O'Connell Street,4180.57,60-38B-b12-1,38B,b12
1103,8240DB001833,"Blackcourt Road, stop 1833",53.39917703,-6.383849882,6452.1.60-38B-b12-1.201.I,06:10:42,06:10:42,12, O'Connell Street,4439.71,60-38B-b12-1,38B,b12
1104,8240DB001834,"Corduff Park, stop 1834",53.39942521,-6.378952991,6452.1.60-38B-b12-1.201.I,06:12:13,06:12:13,13, O'Connell Street,4839.66,60-38B-b12-1,38B,b12
1105,8240DB001835,"Corduff, stop 1835",53.40001235,-6.37520109,6452.1.60-38B-b12-1.201.I,06:13:19,06:13:19,14, O'Connell Street,5126.47,60-38B-b12-1,38B,b12
1106,8240DB001836,"Aquatic Centre, stop 1836",53.398012,-6.37153286,6452.1.60-38B-b12-1.201.I,06:14:29,06:14:29,15, O'Connell Street,5482.16,60-38B-b12-1,38B,b12
1107,8240DB001837,"Corduff Crescent, stop 1837",53.39584106,-6.375134453,6452.1.60-38B-b12-1.201.I,06:15:38,06:15:38,16, O'Connell Street,5825.05,60-38B-b12-1,38B,b12
1108,8240DB002338,"Waterville Row, stop 2338",53.39308467,-6.377991082,6452.1.60-38B-b12-1.201.I,06:16:26,06:16:26,17, O'Connell Street,6252.59,60-38B-b12-1,38B,b12
1109,8240DB001845,"Morgan Place, stop 1845",53.37902299,-6.352716929,6452.1.60-38B-b12-1.201.I,06:21:09,06:21:09,18, O'Connell Street,8817.57,60-38B-b12-1,38B,b12
1110,8240DB007166,"Parkway Station, stop 7166",53.3770936,-6.345787136,6452.1.60-38B-b12-1.201.I,06:22:07,06:22:07,19, O'Connell Street,9328.62,60-38B-b12-1,38B,b12
1111,8220DB001847,"Old Racecourse, stop 1847",53.37290201,-6.333926261,6452.1.60-38B-b12-1.201.I,06:23:35,06:23:35,20, O'Connell Street,10242.41,60-38B-b12-1,38B,b12
1112,8220DB001696,"Ashtown Roundabout, stop 1696",53.37154152,-6.329831443,6452.1.60-38B-b12-1.201.I,06:24:36,06:24:36,21, O'Connell Street,10565.15,60-38B-b12-1,38B,b12
1113,8220DB001697,"Kempton, stop 1697",53.37080115,-6.327666259,6452.1.60-38B-b12-1.201.I,06:24:50,06:24:50,22, O'Connell Street,10730.24,60-38B-b12-1,38B,b12
1114,8220DB001698,"Ashtown Grove, stop 1698",53.3695773,-6.323716751,6452.1.60-38B-b12-1.201.I,06:25:16,06:25:16,23, O'Connell Street,11025.98,60-38B-b12-1,38B,b12
1115,8220DB001699,"Baggot Road, stop 1699",53.36874361,-6.321314995,6452.1.60-38B-b12-1.201.I,06:25:44,06:25:44,24, O'Connell Street,11210.2,60-38B-b12-1,38B,b12
1116,8220DB001700,"Baggot Road, stop 1700",53.36770883,-6.317403485,6452.1.60-38B-b12-1.201.I,06:26:26,06:26:26,25, O'Connell Street,11495.72,60-38B-b12-1,38B,b12
1117,8220DB001701,"Our Lady's Church, stop 1701",53.36656726,-6.312940383,6452.1.60-38B-b12-1.201.I,06:27:04,06:27:04,26, O'Connell Street,11816.31,60-38B-b12-1,38B,b12
1118,8220DB001702,"Navan Road Church, stop 1702",53.36561083,-6.310138139,6452.1.60-38B-b12-1.201.I,06:27:31,06:27:31,27, O'Connell Street,12031.33,60-38B-b12-1,38B,b12
1119,8220DB001703,"Cabra Garda Station, stop 1703",53.3647354,-6.307347834,6452.1.60-38B-b12-1.201.I,06:28:16,06:28:16,28, O'Connell Street,12241.54,60-38B-b12-1,38B,b12
1120,8220DB001905,"Skreen Road, stop 1905",53.36331755,-6.303076594,6452.1.60-38B-b12-1.201.I,06:29:23,06:29:23,29, O'Connell Street,12564.94,60-38B-b12-1,38B,b12
1121,8220DB001804,"Rosecourt, stop 1804",53.36169739,-6.297236037,6452.1.60-38B-b12-1.201.I,06:30:28,06:30:28,30, O'Connell Street,13002.41,60-38B-b12-1,38B,b12
1122,8220DB001803,"Cabra Road, stop 1803",53.3615636,-6.294161194,6452.1.60-38B-b12-1.201.I,06:31:00,06:31:00,31, O'Connell Street,13207.98,60-38B-b12-1,38B,b12
1123,8220DB000077,"Quarry Road, stop 77",53.36130918,-6.289573652,6452.1.60-38B-b12-1.201.I,06:31:47,06:31:47,32, O'Connell Street,13513.18,60-38B-b12-1,38B,b12
1124,8220DB000078,"Annamoe Terrace, stop 78",53.36114922,-6.284065835,6452.1.60-38B-b12-1.201.I,06:32:45,06:32:45,33, O'Connell Street,13883.96,60-38B-b12-1,38B,b12
1125,8220DB000079,"Churchview Home, stop 79",53.36102125,-6.280795506,6452.1.60-38B-b12-1.201.I,06:33:29,06:33:29,34, O'Connell Street,14113.67,60-38B-b12-1,38B,b12
1126,8220DB000080,"Phibsborough PO, stop 80",53.36086296,-6.276053962,6452.1.60-38B-b12-1.201.I,06:34:35,06:34:35,35, O'Connell Street,14428.88,60-38B-b12-1,38B,b12
1127,8220DB000082,"Phibsborough, stop 82",53.3607978,-6.27154908,6452.1.60-38B-b12-1.201.I,06:36:03,06:36:03,36, O'Connell Street,14727.19,60-38B-b12-1,38B,b12
1128,8220DB000817,"Mater Hospital, stop 817",53.35964622,-6.269612438,6452.1.60-38B-b12-1.201.I,06:37:12,06:37:12,37, O'Connell Street,14959.48,60-38B-b12-1,38B,b12
1129,8220DB000818,"O'Connell Avenue, stop 818",53.35848112,-6.269223945,6452.1.60-38B-b12-1.201.I,06:37:53,06:37:53,38, O'Connell Street,15101.75,60-38B-b12-1,38B,b12
1130,8220DB000819,"Blessington Street, stop 819",53.35630402,-6.265991986,6452.1.60-38B-b12-1.201.I,06:39:07,06:39:07,39, O'Connell Street,15452.81,60-38B-b12-1,38B,b12
1131,8220DB000265,"Parnell Square East, stop 265",53.35336157,-6.262055381,6452.1.60-38B-b12-1.201.I,06:40:51,06:40:51,40, O'Connell Street,15994.96,60-38B-b12-1,38B,b12
1132,8220DB006059,"The Spire of Dublin, stop 6059",53.35022443,-6.260185175,6452.1.60-38B-b12-1.201.I,06:42:01,06:42:01,41, O'Connell Street,16366.93,60-38B-b12-1,38B,b12
