Index,stop_id,stop_name,stop_lat,stop_lon,trip_id,arrival_time,departure_time,stop_sequence,stop_headsign,shape_dist_traveled,route_id,customer_route_name,project_subnet
64,8220DB007571,"DCU Helix, stop 7571",53.38677565,-6.258724958,6440.1.60-70D-b12-1.208.O,17:05:00,17:05:00,1, Dunboyne,0.0,60-70D-b12-1,70D,b12
65,8220DB001644,"DCU Collins Avenue, stop 1644",53.38687004,-6.256571206,6440.1.60-70D-b12-1.208.O,17:07:04,17:07:04,2, Dunboyne,424.61,60-70D-b12-1,70D,b12
66,8220DB001605,"Albert College Pk, stop 1605",53.38825297,-6.26079959,6440.1.60-70D-b12-1.208.O,17:08:40,17:08:40,3, Dunboyne,746.72,60-70D-b12-1,70D,b12
67,8220DB000115,"Ballymun Road Church, stop 115",53.38796409,-6.2650361,6440.1.60-70D-b12-1.208.O,17:10:41,17:10:41,4, Dunboyne,1154.96,60-70D-b12-1,70D,b12
68,8220DB000037,"DCU Ballymun Road, stop 37",53.3853464,-6.264886981,6440.1.60-70D-b12-1.208.O,17:11:06,17:11:06,5, Dunboyne,1447.84,60-70D-b12-1,70D,b12
69,8220DB000038,"Hampstead Avenue, stop 38",53.38223659,-6.265509521,6440.1.60-70D-b12-1.208.O,17:11:46,17:11:46,6, Dunboyne,1796.07,60-70D-b12-1,70D,b12
70,8220DB000039,"The Rise, stop 39",53.38041419,-6.265658759,6440.1.60-70D-b12-1.208.O,17:12:10,17:12:10,7, Dunboyne,1998.95,60-70D-b12-1,70D,b12
71,8220DB000175,"Northland Grove, stop 175",53.37842425,-6.281567539,6440.1.60-70D-b12-1.208.O,17:16:20,17:16:20,8, Dunboyne,3398.94,60-70D-b12-1,70D,b12
72,8220DB005147,"Marian College, stop 5147",53.37182345,-6.305834409,6440.1.60-70D-b12-1.208.O,17:23:50,17:23:50,10, Dunboyne,6317.25,60-70D-b12-1,70D,b12
73,8220DB004498,"Nephin Road, stop 4498",53.36680375,-6.304260414,6440.1.60-70D-b12-1.208.O,17:25:27,17:25:27,11, Dunboyne,7069.62,60-70D-b12-1,70D,b12
74,8220DB001660,"Cabra Garda Station, stop 1660",53.36518655,-6.309373553,6440.1.60-70D-b12-1.208.O,17:27:37,17:27:37,12, Dunboyne,7494.18,60-70D-b12-1,70D,b12
75,8220DB001661,"Our Lady's Church, stop 1661",53.36644362,-6.313095538,6440.1.60-70D-b12-1.208.O,17:29:00,17:29:00,13, Dunboyne,7777.89,60-70D-b12-1,70D,b12
76,8220DB001662,"Baggot Road, stop 1662",53.36760294,-6.317542905,6440.1.60-70D-b12-1.208.O,17:30:33,17:30:33,14, Dunboyne,8100.36,60-70D-b12-1,70D,b12
77,8220DB001664,"Ashtown Grove, stop 1664",53.36940852,-6.32385863,6440.1.60-70D-b12-1.208.O,17:31:56,17:31:56,15, Dunboyne,8565.99,60-70D-b12-1,70D,b12
78,8220DB001665,"Kempton, stop 1665",53.37065784,-6.32770193,6440.1.60-70D-b12-1.208.O,17:32:19,17:32:19,16, Dunboyne,8856.38,60-70D-b12-1,70D,b12
79,8220DB001666,"Ashtown Roundabout, stop 1666",53.37159715,-6.330595731,6440.1.60-70D-b12-1.208.O,17:32:36,17:32:36,17, Dunboyne,9074.56,60-70D-b12-1,70D,b12
80,8220DB001667,"Castleknock Road, stop 1667",53.37086977,-6.334501519,6440.1.60-70D-b12-1.208.O,17:33:20,17:33:20,18, Dunboyne,9399.9,60-70D-b12-1,70D,b12
81,8220DB001668,"Old Race Course, stop 1668",53.37084274,-6.34030355,6440.1.60-70D-b12-1.208.O,17:34:05,17:34:05,19, Dunboyne,9807.43,60-70D-b12-1,70D,b12
82,8240DB001669,"Castleknock Gate, stop 1669",53.37023179,-6.344850795,6440.1.60-70D-b12-1.208.O,17:34:40,17:34:40,20, Dunboyne,10116.67,60-70D-b12-1,70D,b12
83,8240DB001670,"Oak Park, stop 1670",53.37027717,-6.350725067,6440.1.60-70D-b12-1.208.O,17:35:24,17:35:24,21, Dunboyne,10522.18,60-70D-b12-1,70D,b12
84,8240DB001671,"Peck's Lane, stop 1671",53.37119764,-6.356204972,6440.1.60-70D-b12-1.208.O,17:35:52,17:35:52,22, Dunboyne,10907.4,60-70D-b12-1,70D,b12
85,8240DB001672,"Oak Lodge, stop 1672",53.37199708,-6.359435435,6440.1.60-70D-b12-1.208.O,17:38:05,17:38:05,23, Dunboyne,11139.06,60-70D-b12-1,70D,b12
86,8240DB001673,"St Brigid's Church, stop 1673",53.37366603,-6.363158692,6440.1.60-70D-b12-1.208.O,17:41:07,17:41:07,24, Dunboyne,11455.95,60-70D-b12-1,70D,b12
87,8240DB001674,"Hawthorn Lawn, stop 1674",53.37750182,-6.366288274,6440.1.60-70D-b12-1.208.O,17:42:09,17:42:09,25, Dunboyne,11941.44,60-70D-b12-1,70D,b12
88,8240DB001675,"Ashleigh Green, stop 1675",53.37935536,-6.367750515,6440.1.60-70D-b12-1.208.O,17:42:56,17:42:56,26, Dunboyne,12174.44,60-70D-b12-1,70D,b12
89,8240DB001849,"Park Lodge, stop 1849",53.38079181,-6.369604618,6440.1.60-70D-b12-1.208.O,17:43:36,17:43:36,27, Dunboyne,12378.13,60-70D-b12-1,70D,b12
90,8240DB001813,"Blanchardstown Vlge, stop 1813",53.38567975,-6.374108313,6440.1.60-70D-b12-1.208.O,17:45:22,17:45:22,28, Dunboyne,13032.35,60-70D-b12-1,70D,b12
91,8240DB001814,"Ramor Park, stop 1814",53.38756181,-6.378997886,6440.1.60-70D-b12-1.208.O,17:46:39,17:46:39,29, Dunboyne,13419.33,60-70D-b12-1,70D,b12
92,8240DB004325,"Littlepace, stop 4325",53.4085875,-6.428978917,6440.1.60-70D-b12-1.208.O,18:01:16,18:01:16,30, Dunboyne,17894.22,60-70D-b12-1,70D,b12
