Index,stop_id,stop_name,stop_lat,stop_lon,trip_id,arrival_time,departure_time,stop_sequence,stop_headsign,shape_dist_traveled,route_id,customer_route_name,project_subnet
106,8240DB003605,"Wendell Avenue, stop 3605",53.43396806,-6.124918713,10206.3.60-42-b12-1.249.I,22:45:00,22:45:00,1, Talbot Street,0.0,60-42-b12-1,42,b12
107,8240DB003606,"Kelvin Close, stop 3606",53.43492919,-6.130039071,10206.3.60-42-b12-1.249.I,22:45:43,22:45:43,2, Talbot Street,377.97,60-42-b12-1,42,b12
108,8240DB003607,"Redfern Avenue, stop 3607",53.43490103,-6.136286688,10206.3.60-42-b12-1.249.I,22:46:33,22:46:33,3, Talbot Street,832.5,60-42-b12-1,42,b12
109,8240DB006051,"PSLC, stop 6051",53.43475688,-6.137993811,10206.3.60-42-b12-1.249.I,22:46:46,22:46:46,4, Talbot Street,946.04,60-42-b12-1,42,b12
110,8240DB006053,"Malahide Golf Club, stop 6053",53.43411912,-6.143214369,10206.3.60-42-b12-1.249.I,22:47:26,22:47:26,5, Talbot Street,1300.39,60-42-b12-1,42,b12
111,8240DB007327,"Blackwood Lane, stop 7327",53.43400824,-6.150549122,10206.3.60-42-b12-1.249.I,22:48:21,22:48:21,6, Talbot Street,1787.96,60-42-b12-1,42,b12
112,8240DB003629,"The Hill Malahide, stop 3629",53.43551469,-6.153223103,10206.3.60-42-b12-1.249.I,22:48:56,22:48:56,7, Talbot Street,2110.24,60-42-b12-1,42,b12
113,8240DB003630,"Community School, stop 3630",53.4384604,-6.151906175,10206.3.60-42-b12-1.249.I,22:49:30,22:49:30,8, Talbot Street,2453.17,60-42-b12-1,42,b12
114,8240DB003631,"Seamount Road, stop 3631",53.44196612,-6.151347539,10206.3.60-42-b12-1.249.I,22:50:10,22:50:10,9, Talbot Street,2844.96,60-42-b12-1,42,b12
115,8240DB003632,"Hill Drive, stop 3632",53.44441982,-6.152505591,10206.3.60-42-b12-1.249.I,22:50:39,22:50:39,10, Talbot Street,3134.19,60-42-b12-1,42,b12
116,8240DB003633,"Church Street, stop 3633",53.44839489,-6.153236429,10206.3.60-42-b12-1.249.I,22:51:24,22:51:24,11, Talbot Street,3579.49,60-42-b12-1,42,b12
117,8240DB003634,"Malahide Station, stop 3634",53.45045531,-6.155119488,10206.3.60-42-b12-1.249.I,22:52:41,22:52:41,12, Talbot Street,3943.06,60-42-b12-1,42,b12
118,8240DB003635,"Cricket Club, stop 3635",53.44963995,-6.160530062,10206.3.60-42-b12-1.249.I,22:54:00,22:54:00,13, Talbot Street,4313.34,60-42-b12-1,42,b12
119,8240DB003636,"St Sylvesters School, stop 3636",53.44942245,-6.162165573,10206.3.60-42-b12-1.249.I,22:54:09,22:54:09,14, Talbot Street,4422.48,60-42-b12-1,42,b12
120,8240DB000905,"Yellow Walls Road, stop 905",53.45156174,-6.170369781,10206.3.60-42-b12-1.249.I,22:55:34,22:55:34,16, Talbot Street,5041.47,60-42-b12-1,42,b12
121,8240DB004331,"Seabury Road, stop 4331",53.45539992,-6.179209839,10206.3.60-42-b12-1.249.I,22:57:18,22:57:18,22, Talbot Street,5791.48,60-42-b12-1,42,b12
122,8240DB004339,"Estuary Road, stop 4339",53.45268719,-6.183451712,10206.3.60-42-b12-1.249.I,22:58:28,22:58:28,23, Talbot Street,6287.42,60-42-b12-1,42,b12
123,8240DB007616,"The Warren, stop 7616",53.4495775,-6.183463984,10206.3.60-42-b12-1.249.I,22:59:36,22:59:36,24, Talbot Street,6776.6,60-42-b12-1,42,b12
124,8240DB005081,"Kileen Park, stop 5081",53.44833687,-6.179903456,10206.3.60-42-b12-1.249.I,23:00:18,23:00:18,25, Talbot Street,7048.74,60-42-b12-1,42,b12
125,8240DB005082,"Millview, stop 5082",53.44719747,-6.176504409,10206.3.60-42-b12-1.249.I,23:00:44,23:00:44,26, Talbot Street,7307.99,60-42-b12-1,42,b12
126,8240DB003639,"Malahide Castle, stop 3639",53.44541078,-6.17310321,10206.3.60-42-b12-1.249.I,23:01:19,23:01:19,27, Talbot Street,7650.68,60-42-b12-1,42,b12
127,8240DB003644,"Malahide Demense, stop 3644",53.44301207,-6.173763156,10206.3.60-42-b12-1.249.I,23:01:47,23:01:47,28, Talbot Street,7923.08,60-42-b12-1,42,b12
128,8240DB003645,"Auburn House, stop 3645",53.44053429,-6.176308091,10206.3.60-42-b12-1.249.I,23:02:12,23:02:12,29, Talbot Street,8247.76,60-42-b12-1,42,b12
129,8240DB003646,"Streamstown Lane, stop 3646",53.43911576,-6.177001072,10206.3.60-42-b12-1.249.I,23:02:25,23:02:25,30, Talbot Street,8413.44,60-42-b12-1,42,b12
130,8240DB003647,"Myra Manor, stop 3647",53.4327126,-6.176763451,10206.3.60-42-b12-1.249.I,23:03:20,23:03:20,31, Talbot Street,9127.25,60-42-b12-1,42,b12
131,8240DB003661,"Copperbush, stop 3661",53.42913393,-6.177849701,10206.3.60-42-b12-1.249.I,23:03:50,23:03:50,32, Talbot Street,9532.83,60-42-b12-1,42,b12
132,8240DB003573,"Chapel Road, stop 3573",53.42607658,-6.176580991,10206.3.60-42-b12-1.249.I,23:04:17,23:04:17,33, Talbot Street,9888.83,60-42-b12-1,42,b12
133,8240DB003662,"Baskin Lane, stop 3662",53.42323245,-6.176326541,10206.3.60-42-b12-1.249.I,23:04:48,23:04:48,34, Talbot Street,10205.97,60-42-b12-1,42,b12
134,8240DB001212,"Kinsealy School, stop 1212",53.42056033,-6.176741843,10206.3.60-42-b12-1.249.I,23:05:17,23:05:17,35, Talbot Street,10504.52,60-42-b12-1,42,b12
135,8240DB001213,"Posey Row, stop 1213",53.41750125,-6.177715271,10206.3.60-42-b12-1.249.I,23:05:40,23:05:40,36, Talbot Street,10852.48,60-42-b12-1,42,b12
136,8240DB001214,"St Doolagh's Park, stop 1214",53.41531324,-6.178049546,10206.3.60-42-b12-1.249.I,23:05:56,23:05:56,37, Talbot Street,11097.53,60-42-b12-1,42,b12
137,8240DB001215,"St Doulagh's Church, stop 1215",53.41339444,-6.178943942,10206.3.60-42-b12-1.249.I,23:06:20,23:06:20,38, Talbot Street,11317.72,60-42-b12-1,42,b12
138,8240DB001216,"Fingal Cemetery, stop 1216",53.41032506,-6.178653887,10206.3.60-42-b12-1.249.I,23:07:00,23:07:00,39, Talbot Street,11677.08,60-42-b12-1,42,b12
139,8240DB001217,"Balgriffin Cottages, stop 1217",53.40820207,-6.177947375,10206.3.60-42-b12-1.249.I,23:07:27,23:07:27,40, Talbot Street,11919.6,60-42-b12-1,42,b12
140,8220DB004563,"Clare Hall, stop 4563",53.40166897,-6.180978835,10206.3.60-42-b12-1.249.I,23:09:18,23:09:18,41, Talbot Street,12700.41,60-42-b12-1,42,b12
141,8220DB001218,"Belcamp Lane, stop 1218",53.3997059,-6.18428092,10206.3.60-42-b12-1.249.I,23:09:56,23:09:56,42, Talbot Street,13009.19,60-42-b12-1,42,b12
142,8220DB001270,"Newtown Road, stop 1270",53.396497,-6.187229624,10206.3.60-42-b12-1.249.I,23:10:45,23:10:45,43, Talbot Street,13424.45,60-42-b12-1,42,b12
143,8220DB001272,"Newtown Cottages, stop 1272",53.39288238,-6.191879186,10206.3.60-42-b12-1.249.I,23:11:26,23:11:26,44, Talbot Street,13936.66,60-42-b12-1,42,b12
144,8220DB001273,"Coolock Leisureplex, stop 1273",53.39110921,-6.195277289,10206.3.60-42-b12-1.249.I,23:12:20,23:12:20,45, Talbot Street,14238.39,60-42-b12-1,42,b12
145,8220DB001274,"St Brendans Church, stop 1274",53.38893882,-6.197970194,10206.3.60-42-b12-1.249.I,23:13:13,23:13:13,46, Talbot Street,14538.99,60-42-b12-1,42,b12
146,8220DB001275,"Mask Avenue, stop 1275",53.38558577,-6.202110858,10206.3.60-42-b12-1.249.I,23:14:04,23:14:04,47, Talbot Street,15004.43,60-42-b12-1,42,b12
147,8220DB001276,"Mask Park, stop 1276",53.38433055,-6.202915429,10206.3.60-42-b12-1.249.I,23:14:21,23:14:21,48, Talbot Street,15154.15,60-42-b12-1,42,b12
148,8220DB001277,"Mornington Grove, stop 1277",53.38268146,-6.206216964,10206.3.60-42-b12-1.249.I,23:14:54,23:14:54,49, Talbot Street,15454.1,60-42-b12-1,42,b12
149,8220DB001219,"Danieli Road, stop 1219",53.38130213,-6.208334392,10206.3.60-42-b12-1.249.I,23:15:20,23:15:20,50, Talbot Street,15665.24,60-42-b12-1,42,b12
150,8220DB001220,"Killester Avenue, stop 1220",53.37876251,-6.212198902,10206.3.60-42-b12-1.249.I,23:16:06,23:16:06,51, Talbot Street,16045.14,60-42-b12-1,42,b12
151,8220DB001221,"Mayfield Park, stop 1221",53.3768165,-6.216098254,10206.3.60-42-b12-1.249.I,23:16:48,23:16:48,52, Talbot Street,16386.37,60-42-b12-1,42,b12
152,8220DB000664,"Donnycarney Church, stop 664",53.37471925,-6.219507562,10206.3.60-42-b12-1.249.I,23:17:29,23:17:29,53, Talbot Street,16714.14,60-42-b12-1,42,b12
153,8220DB000665,"Casino Park, stop 665",53.37246632,-6.222126461,10206.3.60-42-b12-1.249.I,23:17:58,23:17:58,54, Talbot Street,17021.59,60-42-b12-1,42,b12
154,8220DB000666,"Mount Temple School, stop 666",53.37023312,-6.224263348,10206.3.60-42-b12-1.249.I,23:18:28,23:18:28,55, Talbot Street,17307.63,60-42-b12-1,42,b12
155,8220DB000667,"Brian Road, stop 667",53.36798165,-6.226986847,10206.3.60-42-b12-1.249.I,23:18:58,23:18:58,56, Talbot Street,17616.64,60-42-b12-1,42,b12
156,8220DB000668,"Marino Crescent Park, stop 668",53.36457498,-6.229397317,10206.3.60-42-b12-1.249.I,23:20:21,23:20:21,57, Talbot Street,18033.12,60-42-b12-1,42,b12
157,8220DB000614,"Fairview, stop 614",53.363638,-6.23349323,10206.3.60-42-b12-1.249.I,23:21:20,23:21:20,58, Talbot Street,18330.86,60-42-b12-1,42,b12
158,8220DB000616,"Nth Strand Fire Stn, stop 616",53.35984471,-6.239554896,10206.3.60-42-b12-1.249.I,23:22:55,23:22:55,60, Talbot Street,18935.04,60-42-b12-1,42,b12
159,8220DB000618,"Newcomen Bridge, stop 618",53.35610118,-6.244742068,10206.3.60-42-b12-1.249.I,23:24:39,23:24:39,62, Talbot Street,19475.05,60-42-b12-1,42,b12
160,8220DB000619,"Amiens Street, stop 619",53.35404463,-6.247305334,10206.3.60-42-b12-1.249.I,23:25:44,23:25:44,63, Talbot Street,19761.26,60-42-b12-1,42,b12
161,8220DB001184,"Moland Street, stop 1184",53.35085992,-6.253850228,10206.3.60-42-b12-1.249.I,23:28:05,23:28:05,65, Talbot Street,20365.35,60-42-b12-1,42,b12
