Index,stop_id,stop_name,stop_lat,stop_lon,trip_id,arrival_time,departure_time,stop_sequence,stop_headsign,shape_dist_traveled,route_id,customer_route_name,project_subnet
116,8240DB004747,"Blanchardstown SC, stop 4747",53.39433278,-6.391852482,10227.3.60-37-b12-1.31.I,14:00:00,14:00:00,1, Wilton Terrace,0.0,60-37-b12-1,37,b12
117,8240DB001882,"Millennium Park, stop 1882",53.39277258,-6.398812848,10227.3.60-37-b12-1.31.I,14:03:12,14:03:12,3, Wilton Terrace,1064.7,60-37-b12-1,37,b12
118,8240DB007379,"Mountview Road, stop 7379",53.38974838,-6.400505036,10227.3.60-37-b12-1.31.I,14:04:11,14:04:11,4, Wilton Terrace,1421.82,60-37-b12-1,37,b12
119,8240DB004903,"Lohunda Road, stop 4903",53.38666401,-6.401733181,10227.3.60-37-b12-1.31.I,14:05:09,14:05:09,5, Wilton Terrace,1776.91,60-37-b12-1,37,b12
120,8240DB007219,"Limelawn, stop 7219",53.38425077,-6.402740594,10227.3.60-37-b12-1.31.I,14:05:55,14:05:55,6, Wilton Terrace,2057.05,60-37-b12-1,37,b12
121,8240DB007218,"The Courtyard, stop 7218",53.38163842,-6.40297367,10227.3.60-37-b12-1.31.I,14:06:46,14:06:46,7, Wilton Terrace,2371.44,60-37-b12-1,37,b12
122,8240DB007031,"Diswellstown Road, stop 7031",53.3742044,-6.401553505,10227.3.60-37-b12-1.31.I,14:09:45,14:09:45,8, Wilton Terrace,3431.08,60-37-b12-1,37,b12
123,8240DB004897,"Luttrellstown Court, stop 4897",53.37215721,-6.398353896,10227.3.60-37-b12-1.31.I,14:10:35,14:10:35,9, Wilton Terrace,3746.35,60-37-b12-1,37,b12
124,8240DB004898,"Castleknock College, stop 4898",53.37027583,-6.392788944,10227.3.60-37-b12-1.31.I,14:11:44,14:11:44,10, Wilton Terrace,4172.19,60-37-b12-1,37,b12
125,8240DB004574,"Burnell Park Avenue, stop 4574",53.37045314,-6.387943192,10227.3.60-37-b12-1.31.I,14:12:51,14:12:51,11, Wilton Terrace,4578.79,60-37-b12-1,37,b12
126,8240DB004575,"Carpenterstown Road, stop 4575",53.37266441,-6.388626159,10227.3.60-37-b12-1.31.I,14:13:33,14:13:33,12, Wilton Terrace,4844.46,60-37-b12-1,37,b12
127,8240DB001680,"Bramley Walk, stop 1680",53.37553658,-6.388998684,10227.3.60-37-b12-1.31.I,14:15:01,14:15:01,13, Wilton Terrace,5372.83,60-37-b12-1,37,b12
128,8240DB001681,"Sycamore Drive, stop 1681",53.3754027,-6.385742241,10227.3.60-37-b12-1.31.I,14:15:39,14:15:39,14, Wilton Terrace,5602.56,60-37-b12-1,37,b12
129,8240DB001682,"Oaktree Green, stop 1682",53.37613703,-6.382888789,10227.3.60-37-b12-1.31.I,14:16:27,14:16:27,15, Wilton Terrace,5888.19,60-37-b12-1,37,b12
130,8240DB001683,"Maple Glen, stop 1683",53.37747701,-6.381620531,10227.3.60-37-b12-1.31.I,14:16:55,14:16:55,16, Wilton Terrace,6057.11,60-37-b12-1,37,b12
131,8240DB001684,"Oaktree Avenue, stop 1684",53.37762875,-6.379555566,10227.3.60-37-b12-1.31.I,14:17:28,14:17:28,17, Wilton Terrace,6259.16,60-37-b12-1,37,b12
132,8240DB001685,"Castleknock Vale, stop 1685",53.37806708,-6.375435489,10227.3.60-37-b12-1.31.I,14:18:31,14:18:31,18, Wilton Terrace,6639.89,60-37-b12-1,37,b12
133,8240DB001686,"Parklands, stop 1686",53.37880974,-6.372551297,10227.3.60-37-b12-1.31.I,14:19:06,14:19:06,19, Wilton Terrace,6847.24,60-37-b12-1,37,b12
134,8240DB001687,"Ashleigh Green, stop 1687",53.37958851,-6.367711534,10227.3.60-37-b12-1.31.I,14:20:19,14:20:19,20, Wilton Terrace,7286.85,60-37-b12-1,37,b12
135,8240DB001688,"Oak Lawns, stop 1688",53.37620885,-6.364413894,10227.3.60-37-b12-1.31.I,14:21:24,14:21:24,21, Wilton Terrace,7729.08,60-37-b12-1,37,b12
136,8240DB001689,"Castleknock, stop 1689",53.37269826,-6.361407348,10227.3.60-37-b12-1.31.I,14:23:40,14:23:40,22, Wilton Terrace,8187.08,60-37-b12-1,37,b12
137,8240DB001690,"Peck's Lane, stop 1690",53.37156627,-6.356867066,10227.3.60-37-b12-1.31.I,14:24:32,14:24:32,23, Wilton Terrace,8517.56,60-37-b12-1,37,b12
138,8240DB001691,"Deerpark Road, stop 1691",53.3706099,-6.351388486,10227.3.60-37-b12-1.31.I,14:25:31,14:25:31,24, Wilton Terrace,8903.68,60-37-b12-1,37,b12
139,8240DB001692,"Park View, stop 1692",53.36996654,-6.347761504,10227.3.60-37-b12-1.31.I,14:26:12,14:26:12,25, Wilton Terrace,9169.57,60-37-b12-1,37,b12
140,8240DB001693,"Castleknock Gate, stop 1693",53.37046246,-6.343985239,10227.3.60-37-b12-1.31.I,14:26:40,14:26:40,26, Wilton Terrace,9425.13,60-37-b12-1,37,b12
141,8220DB001694,"Old Race Course, stop 1694",53.37101739,-6.339936076,10227.3.60-37-b12-1.31.I,14:27:12,14:27:12,27, Wilton Terrace,9701.48,60-37-b12-1,37,b12
142,8220DB001695,"Ashtown Gate, stop 1695",53.37101014,-6.334255586,10227.3.60-37-b12-1.31.I,14:27:58,14:27:58,28, Wilton Terrace,10119.05,60-37-b12-1,37,b12
143,8220DB001696,"Ashtown Roundabout, stop 1696",53.37154152,-6.329831443,10227.3.60-37-b12-1.31.I,14:29:45,14:29:45,29, Wilton Terrace,10519.95,60-37-b12-1,37,b12
144,8220DB001697,"Kempton, stop 1697",53.37080115,-6.327666259,10227.3.60-37-b12-1.31.I,14:30:06,14:30:06,30, Wilton Terrace,10685.04,60-37-b12-1,37,b12
145,8220DB001698,"Ashtown Grove, stop 1698",53.3695773,-6.323716751,10227.3.60-37-b12-1.31.I,14:30:43,14:30:43,31, Wilton Terrace,10980.78,60-37-b12-1,37,b12
146,8220DB001699,"Baggot Road, stop 1699",53.36874361,-6.321314995,10227.3.60-37-b12-1.31.I,14:31:16,14:31:16,32, Wilton Terrace,11165.0,60-37-b12-1,37,b12
147,8220DB001700,"Baggot Road, stop 1700",53.36770883,-6.317403485,10227.3.60-37-b12-1.31.I,14:32:06,14:32:06,33, Wilton Terrace,11450.52,60-37-b12-1,37,b12
148,8220DB001701,"Our Lady's Church, stop 1701",53.36656726,-6.312940383,10227.3.60-37-b12-1.31.I,14:32:40,14:32:40,34, Wilton Terrace,11771.11,60-37-b12-1,37,b12
149,8220DB001702,"Navan Road Church, stop 1702",53.36561083,-6.310138139,10227.3.60-37-b12-1.31.I,14:33:04,14:33:04,35, Wilton Terrace,11986.13,60-37-b12-1,37,b12
150,8220DB001703,"Cabra Garda Station, stop 1703",53.3647354,-6.307347834,10227.3.60-37-b12-1.31.I,14:33:51,14:33:51,36, Wilton Terrace,12196.34,60-37-b12-1,37,b12
151,8220DB001704,"Skreen Road, stop 1704",53.36305227,-6.305280899,10227.3.60-37-b12-1.31.I,14:35:12,14:35:12,37, Wilton Terrace,12562.94,60-37-b12-1,37,b12
152,8220DB001705,"Ardpatrick Road, stop 1705",53.36218075,-6.308470834,10227.3.60-37-b12-1.31.I,14:35:52,14:35:52,38, Wilton Terrace,12795.38,60-37-b12-1,37,b12
153,8220DB001706,"Blackhorse Avenue, stop 1706",53.36006983,-6.307292375,10227.3.60-37-b12-1.31.I,14:36:54,14:36:54,39, Wilton Terrace,13164.59,60-37-b12-1,37,b12
154,8220DB001707,"Dunard Walk, stop 1707",53.35842827,-6.302459573,10227.3.60-37-b12-1.31.I,14:37:58,14:37:58,40, Wilton Terrace,13538.7,60-37-b12-1,37,b12
155,8220DB001708,"Mc Kee Park, stop 1708",53.35733235,-6.298717145,10227.3.60-37-b12-1.31.I,14:38:44,14:38:44,41, Wilton Terrace,13815.69,60-37-b12-1,37,b12
156,8220DB001709,"Glenbeigh Avenue, stop 1709",53.3568682,-6.297052991,10227.3.60-37-b12-1.31.I,14:39:03,14:39:03,42, Wilton Terrace,13936.63,60-37-b12-1,37,b12
157,8220DB001528,"St David's Terrace, stop 1528",53.35619543,-6.294000026,10227.3.60-37-b12-1.31.I,14:39:59,14:39:59,43, Wilton Terrace,14158.65,60-37-b12-1,37,b12
158,8220DB001710,"Aughrim Street, stop 1710",53.3555699,-6.291741491,10227.3.60-37-b12-1.31.I,14:40:42,14:40:42,44, Wilton Terrace,14322.4,60-37-b12-1,37,b12
159,8220DB001711,"Holy Family Church, stop 1711",53.35457798,-6.289632902,10227.3.60-37-b12-1.31.I,14:41:28,14:41:28,45, Wilton Terrace,14500.06,60-37-b12-1,37,b12
160,8220DB001712,"Aughrim Court, stop 1712",53.35333392,-6.286242592,10227.3.60-37-b12-1.31.I,14:42:48,14:42:48,46, Wilton Terrace,14768.26,60-37-b12-1,37,b12
161,8220DB001713,"Manor Street, stop 1713",53.35190782,-6.283325473,10227.3.60-37-b12-1.31.I,14:44:09,14:44:09,47, Wilton Terrace,15039.61,60-37-b12-1,37,b12
162,8220DB001714,"Stoneybatter, stop 1714",53.35063781,-6.281889388,10227.3.60-37-b12-1.31.I,14:45:08,14:45:08,48, Wilton Terrace,15211.05,60-37-b12-1,37,b12
163,8220DB001715,"Blackhall Place, stop 1715",53.34771198,-6.2821873,10227.3.60-37-b12-1.31.I,14:47:01,14:47:01,49, Wilton Terrace,15536.33,60-37-b12-1,37,b12
164,8220DB007453,"Arran Quay, stop 7453",53.34633589,-6.278382504,10227.3.60-37-b12-1.31.I,14:49:12,14:49:12,50, Wilton Terrace,15913.78,60-37-b12-1,37,b12
165,8220DB001478,"Four Courts, stop 1478",53.3456082,-6.272809481,10227.3.60-37-b12-1.31.I,14:51:21,14:51:21,51, Wilton Terrace,16296.35,60-37-b12-1,37,b12
166,8220DB001479,"Ormond Quay, stop 1479",53.34598809,-6.268633628,10227.3.60-37-b12-1.31.I,14:53:02,14:53:02,52, Wilton Terrace,16579.51,60-37-b12-1,37,b12
167,8220DB000315,"Bachelors Walk, stop 315",53.34702829,-6.261667155,10227.3.60-37-b12-1.31.I,14:55:50,14:55:50,53, Wilton Terrace,17059.96,60-37-b12-1,37,b12
168,8220DB000404,"Nassau Street, stop 404",53.34266333,-6.256347892,10227.3.60-37-b12-1.31.I,15:01:27,15:01:27,56, Wilton Terrace,18039.12,60-37-b12-1,37,b12
169,8220DB000747,"Kildare Street, stop 747",53.3399308,-6.255723519,10227.3.60-37-b12-1.31.I,15:03:17,15:03:17,57, Wilton Terrace,18429.25,60-37-b12-1,37,b12
170,8220DB000843,"Stephen's Green East, stop 843",53.33700243,-6.256458721,10227.3.60-37-b12-1.31.I,15:04:51,15:04:51,58, Wilton Terrace,18814.24,60-37-b12-1,37,b12
171,8220DB000845,"Leeson St Lower, stop 845",53.33545345,-6.256251618,10227.3.60-37-b12-1.31.I,15:05:43,15:05:43,59, Wilton Terrace,19022.61,60-37-b12-1,37,b12
172,8220DB000846,"Fitzwilliam Place, stop 846",53.33345373,-6.254110908,10227.3.60-37-b12-1.31.I,15:06:33,15:06:33,60, Wilton Terrace,19285.51,60-37-b12-1,37,b12
173,8220DB007340,"Wilton Terrace, stop 7340",53.33425595,-6.246299977,10227.3.60-37-b12-1.31.I,15:08:38,15:08:38,61, Wilton Terrace,19937.81,60-37-b12-1,37,b12
