Index,stop_id,stop_name,stop_lat,stop_lon,trip_id,arrival_time,departure_time,stop_sequence,stop_headsign,shape_dist_traveled,route_id,customer_route_name,project_subnet
88,8220DB006004,"Parnell Street, stop 6004",53.35290764,-6.260511532,12594.3.60-40D-b12-1.223.O,08:00:00,08:00:00,1, Tyrrelstown,0.0,60-40D-b12-1,40D,b12
89,8220DB000007,"Parnell Square West, stop 7",53.35284091,-6.264570261,12594.3.60-40D-b12-1.223.O,08:01:15,08:01:15,2, Tyrrelstown,346.05,60-40D-b12-1,40D,b12
90,8220DB000011,"St Joseph's Parade, stop 11",53.35681523,-6.264679195,12594.3.60-40D-b12-1.223.O,08:03:14,08:03:14,3, Tyrrelstown,895.05,60-40D-b12-1,40D,b12
91,8220DB000014,"Dorset Street Lower, stop 14",53.35853124,-6.262776506,12594.3.60-40D-b12-1.223.O,08:04:28,08:04:28,4, Tyrrelstown,1123.12,60-40D-b12-1,40D,b12
92,8220DB000015,"Innisfallen Parade, stop 15",53.36026671,-6.260978043,12594.3.60-40D-b12-1.223.O,08:05:39,08:05:39,5, Tyrrelstown,1352.39,60-40D-b12-1,40D,b12
93,8220DB000834,"Binns Bridge, stop 834",53.36197541,-6.260427638,12594.3.60-40D-b12-1.223.O,08:06:19,08:06:19,6, Tyrrelstown,1608.34,60-40D-b12-1,40D,b12
94,8220DB000835,"St Brigid's Rd Lower, stop 835",53.36262802,-6.263270962,12594.3.60-40D-b12-1.223.O,08:06:50,08:06:50,7, Tyrrelstown,1810.58,60-40D-b12-1,40D,b12
95,8220DB000836,"Claude Road, stop 836",53.3632915,-6.266249162,12594.3.60-40D-b12-1.223.O,08:07:26,08:07:26,8, Tyrrelstown,2021.24,60-40D-b12-1,40D,b12
96,8220DB000837,"David Road, stop 837",53.36377841,-6.268212837,12594.3.60-40D-b12-1.223.O,08:07:46,08:07:46,9, Tyrrelstown,2163.16,60-40D-b12-1,40D,b12
97,8220DB001506,"Finglas Road, stop 1506",53.36677782,-6.272373909,12594.3.60-40D-b12-1.223.O,08:08:58,08:08:58,10, Tyrrelstown,2665.17,60-40D-b12-1,40D,b12
98,8220DB001507,"St Vincent's School, stop 1507",53.36839052,-6.274502692,12594.3.60-40D-b12-1.223.O,08:09:22,08:09:22,11, Tyrrelstown,2904.32,60-40D-b12-1,40D,b12
99,8220DB001508,"Glasnevin Cemetery, stop 1508",53.3699109,-6.278333551,12594.3.60-40D-b12-1.223.O,08:09:53,08:09:53,12, Tyrrelstown,3208.51,60-40D-b12-1,40D,b12
100,8220DB001509,"Slaney Road, stop 1509",53.37292583,-6.28422366,12594.3.60-40D-b12-1.223.O,08:10:51,08:10:51,13, Tyrrelstown,3727.26,60-40D-b12-1,40D,b12
101,8220DB001510,"Ballyboggan Road, stop 1510",53.37690693,-6.287310237,12594.3.60-40D-b12-1.223.O,08:11:37,08:11:37,14, Tyrrelstown,4220.47,60-40D-b12-1,40D,b12
102,8220DB001511,"Tolka Vale, stop 1511",53.37823452,-6.287752985,12594.3.60-40D-b12-1.223.O,08:11:52,08:11:52,15, Tyrrelstown,4370.26,60-40D-b12-1,40D,b12
103,8220DB001512,"Prospect Hill, stop 1512",53.38217432,-6.291728835,12594.3.60-40D-b12-1.223.O,08:12:44,08:12:44,16, Tyrrelstown,4901.11,60-40D-b12-1,40D,b12
104,8220DB001538,"Clearwater SC, stop 1538",53.38447414,-6.294793755,12594.3.60-40D-b12-1.223.O,08:13:39,08:13:39,17, Tyrrelstown,5227.92,60-40D-b12-1,40D,b12
105,8220DB004548,"Finglas Place, stop 4548",53.38623592,-6.29606136,12594.3.60-40D-b12-1.223.O,08:14:20,08:14:20,18, Tyrrelstown,5480.61,60-40D-b12-1,40D,b12
106,8220DB001514,"Drogheda Mall, stop 1514",53.38946516,-6.300021914,12594.3.60-40D-b12-1.223.O,08:15:37,08:15:37,19, Tyrrelstown,5933.42,60-40D-b12-1,40D,b12
107,8220DB000980,"Finglas Sports Centre, stop 980",53.38980457,-6.303030463,12594.3.60-40D-b12-1.223.O,08:16:23,08:16:23,20, Tyrrelstown,6203.3,60-40D-b12-1,40D,b12
108,8220DB000981,"Finglas Garda Stn, stop 981",53.38978091,-6.307060832,12594.3.60-40D-b12-1.223.O,08:16:58,08:16:58,21, Tyrrelstown,6470.8,60-40D-b12-1,40D,b12
109,8220DB001576,"Cappagh Road, stop 1576",53.38931741,-6.313048125,12594.3.60-40D-b12-1.223.O,08:17:59,08:17:59,22, Tyrrelstown,6947.42,60-40D-b12-1,40D,b12
110,8220DB001577,"Abbottstown Road, stop 1577",53.38988581,-6.315747017,12594.3.60-40D-b12-1.223.O,08:18:23,08:18:23,23, Tyrrelstown,7137.62,60-40D-b12-1,40D,b12
111,8220DB001578,"Ratoath Drive, stop 1578",53.39038513,-6.318012677,12594.3.60-40D-b12-1.223.O,08:18:44,08:18:44,24, Tyrrelstown,7299.4,60-40D-b12-1,40D,b12
112,8220DB004364,"Cappagh Hospital, stop 4364",53.39291139,-6.322529185,12594.3.60-40D-b12-1.223.O,08:19:43,08:19:43,25, Tyrrelstown,7762.29,60-40D-b12-1,40D,b12
113,8240DB001579,"Heathfield Avenue, stop 1579",53.39476368,-6.326426073,12594.3.60-40D-b12-1.223.O,08:20:28,08:20:28,26, Tyrrelstown,8110.81,60-40D-b12-1,40D,b12
114,8240DB001580,"Cappagh Cross, stop 1580",53.39790321,-6.334333152,12594.3.60-40D-b12-1.223.O,08:21:22,08:21:22,27, Tyrrelstown,8805.11,60-40D-b12-1,40D,b12
115,8240DB007237,"Stadium Business Pk, stop 7237",53.39714127,-6.341581009,12594.3.60-40D-b12-1.223.O,08:22:04,08:22:04,28, Tyrrelstown,9298.51,60-40D-b12-1,40D,b12
116,8240DB007241,"Barnlodge, stop 7241",53.39774486,-6.346865916,12594.3.60-40D-b12-1.223.O,08:22:35,08:22:35,29, Tyrrelstown,9666.93,60-40D-b12-1,40D,b12
117,8240DB007247,"Ballycoolin Road, stop 7247",53.3987924,-6.351772895,12594.3.60-40D-b12-1.223.O,08:23:04,08:23:04,30, Tyrrelstown,10014.92,60-40D-b12-1,40D,b12
118,8240DB007243,"Rosemount Bus. Park, stop 7243",53.40335258,-6.357883275,12594.3.60-40D-b12-1.223.O,08:24:00,08:24:00,31, Tyrrelstown,10671.65,60-40D-b12-1,40D,b12
119,8240DB007126,"IDA Ireland, stop 7126",53.40587682,-6.356477504,12594.3.60-40D-b12-1.223.O,08:25:04,08:25:04,32, Tyrrelstown,11114.52,60-40D-b12-1,40D,b12
120,8240DB007124,"Ballycoolin  Bus Pk, stop 7124",53.40843447,-6.358153812,12594.3.60-40D-b12-1.223.O,08:25:49,08:25:49,33, Tyrrelstown,11500.63,60-40D-b12-1,40D,b12
121,8240DB007343,"Corporate Park 2, stop 7343",53.41284468,-6.361218217,12594.3.60-40D-b12-1.223.O,08:26:47,08:26:47,34, Tyrrelstown,12046.45,60-40D-b12-1,40D,b12
122,8240DB007318,"Corporate Park, stop 7318",53.40991475,-6.368445799,12594.3.60-40D-b12-1.223.O,08:28:15,08:28:15,35, Tyrrelstown,12869.43,60-40D-b12-1,40D,b12
123,8240DB004978,"Corporate Park, stop 4978",53.40925753,-6.370997995,12594.3.60-40D-b12-1.223.O,08:28:55,08:28:55,36, Tyrrelstown,13252.25,60-40D-b12-1,40D,b12
124,8240DB004979,"Alexion, stop 4979",53.41133678,-6.377823101,12594.3.60-40D-b12-1.223.O,08:29:43,08:29:43,37, Tyrrelstown,13762.32,60-40D-b12-1,40D,b12
125,8240DB004986,"Curragh Hall, stop 4986",53.41520327,-6.385243058,12594.3.60-40D-b12-1.223.O,08:31:16,08:31:16,38, Tyrrelstown,14745.07,60-40D-b12-1,40D,b12
126,8240DB007107,"Ballentree Avenue, stop 7107",53.41704744,-6.386030725,12594.3.60-40D-b12-1.223.O,08:31:40,08:31:40,39, Tyrrelstown,15002.47,60-40D-b12-1,40D,b12
127,8240DB007102,"Bealing Walk, stop 7102",53.41815047,-6.387177505,12594.3.60-40D-b12-1.223.O,08:31:55,08:31:55,40, Tyrrelstown,15161.64,60-40D-b12-1,40D,b12
128,8240DB007103,"Cruise Park, stop 7103",53.41983038,-6.393117116,12594.3.60-40D-b12-1.223.O,08:32:43,08:32:43,41, Tyrrelstown,15662.75,60-40D-b12-1,40D,b12
129,8240DB007104,"Mount Garrett, stop 7104",53.42191654,-6.391187743,12594.3.60-40D-b12-1.223.O,08:33:13,08:33:13,42, Tyrrelstown,15982.23,60-40D-b12-1,40D,b12
130,8240DB007105,"Mount Eustace, stop 7105",53.42135069,-6.387883912,12594.3.60-40D-b12-1.223.O,08:33:38,08:33:38,43, Tyrrelstown,16239.28,60-40D-b12-1,40D,b12
131,8240DB007106,"Bellgree Avenue, stop 7106",53.42098865,-6.385700891,12594.3.60-40D-b12-1.223.O,08:33:53,08:33:53,44, Tyrrelstown,16400.93,60-40D-b12-1,40D,b12
132,8240DB006005,"Plaza Apartments, stop 6005",53.41994262,-6.383453581,12594.3.60-40D-b12-1.223.O,08:34:18,08:34:18,45, Tyrrelstown,16663.23,60-40D-b12-1,40D,b12
133,8240DB001546,"Tyrrelstown, stop 1546",53.41934547,-6.382498281,12594.3.60-40D-b12-1.223.O,08:34:29,08:34:29,46, Tyrrelstown,16783.26,60-40D-b12-1,40D,b12
134,8240DB007072,"Carlton Hotel, stop 7072",53.41926876,-6.378168111,12594.3.60-40D-b12-1.223.O,08:35:00,08:35:00,47, Tyrrelstown,17108.51,60-40D-b12-1,40D,b12
