Index,stop_id,stop_name,stop_lat,stop_lon,trip_id,arrival_time,departure_time,stop_sequence,stop_headsign,shape_dist_traveled,route_id,customer_route_name,project_subnet
282,8230DB003943,"Dept of Agriculture, stop 3943",53.3470719,-6.494294919,12444.3.60-C6-b12-1.353.I,24:18:33,24:18:33,24, Ringsend Road,9688.69,60-C6-b12-1,C6,b12
283,8230DB003945,"Weston Aerodrome, stop 3945",53.35370171,-6.479865358,12444.3.60-C6-b12-1.353.I,24:19:56,24:19:56,25, Ringsend Road,10903.01,60-C6-b12-1,C6,b12
284,8230DB003946,"Weston Estate, stop 3946",53.35611534,-6.475317639,12444.3.60-C6-b12-1.353.I,24:20:35,24:20:35,26, Ringsend Road,11309.43,60-C6-b12-1,C6,b12
285,8230DB004001,"Liffey Valley Golf, stop 4001",53.35892285,-6.472062381,12444.3.60-C6-b12-1.353.I,24:21:34,24:21:34,28, Ringsend Road,11914.2,60-C6-b12-1,C6,b12
286,8230DB003949,"Leixlip Road, stop 3949",53.35551692,-6.460211074,12444.3.60-C6-b12-1.353.I,24:23:00,24:23:00,29, Ringsend Road,12795.89,60-C6-b12-1,C6,b12
287,8230DB003950,"Ball Alley House, stop 3950",53.35560249,-6.455010094,12444.3.60-C6-b12-1.353.I,24:23:45,24:23:45,30, Ringsend Road,13153.84,60-C6-b12-1,C6,b12
288,8230DB003372,"Lucan Village, stop 3372",53.35656433,-6.448094691,12444.3.60-C6-b12-1.353.I,24:24:43,24:24:43,31, Ringsend Road,13625.44,60-C6-b12-1,C6,b12
289,8230DB003373,"Lucan Heights, stop 3373",53.35808279,-6.441849744,12444.3.60-C6-b12-1.353.I,24:25:26,24:25:26,32, Ringsend Road,14099.03,60-C6-b12-1,C6,b12
290,8230DB003374,"St Mary's Church, stop 3374",53.35963427,-6.439524473,12444.3.60-C6-b12-1.353.I,24:25:47,24:25:47,33, Ringsend Road,14330.39,60-C6-b12-1,C6,b12
291,8230DB002233,"Chalet Gardens, stop 2233",53.3600895,-6.435165776,12444.3.60-C6-b12-1.353.I,24:26:14,24:26:14,34, Ringsend Road,14626.32,60-C6-b12-1,C6,b12
292,8230DB002232,"Ballydowd Grove, stop 2232",53.35973763,-6.430956834,12444.3.60-C6-b12-1.353.I,24:26:57,24:26:57,35, Ringsend Road,14911.83,60-C6-b12-1,C6,b12
293,8230DB002234,"Lucan Retail Park, stop 2234",53.35933655,-6.424390974,12444.3.60-C6-b12-1.353.I,24:28:03,24:28:03,36, Ringsend Road,15349.14,60-C6-b12-1,C6,b12
294,8230DB002236,"Hermitage Bridge, stop 2236",53.35886946,-6.410856513,12444.3.60-C6-b12-1.353.I,24:29:41,24:29:41,37, Ringsend Road,16268.89,60-C6-b12-1,C6,b12
295,8230DB005056,"Hermitage Clinic, stop 5056",53.35752149,-6.402793928,12444.3.60-C6-b12-1.353.I,24:30:41,24:30:41,38, Ringsend Road,16827.55,60-C6-b12-1,C6,b12
296,8230DB002239,"Liffey Valley SC, stop 2239",53.35616847,-6.3917274,12444.3.60-C6-b12-1.353.I,24:31:56,24:31:56,39, Ringsend Road,17646.8,60-C6-b12-1,C6,b12
297,8230DB002241,"Kennelsfort Road, stop 2241",53.35492926,-6.371268023,12444.3.60-C6-b12-1.353.I,24:33:53,24:33:53,40, Ringsend Road,19066.21,60-C6-b12-1,C6,b12
298,8230DB002242,"The Oval, stop 2242",53.35392732,-6.367009818,12444.3.60-C6-b12-1.353.I,24:34:22,24:34:22,41, Ringsend Road,19371.62,60-C6-b12-1,C6,b12
299,8220DB002243,"Glenaulin, stop 2243",53.35197438,-6.355697995,12444.3.60-C6-b12-1.353.I,24:36:03,24:36:03,42, Ringsend Road,20165.26,60-C6-b12-1,C6,b12
300,8220DB002244,"Belgrove Park, stop 2244",53.35088435,-6.351609074,12444.3.60-C6-b12-1.353.I,24:36:41,24:36:41,43, Ringsend Road,20462.36,60-C6-b12-1,C6,b12
301,8220DB002245,"Laurence Brook, stop 2245",53.3494632,-6.348284211,12444.3.60-C6-b12-1.353.I,24:37:15,24:37:15,44, Ringsend Road,20734.71,60-C6-b12-1,C6,b12
302,8220DB002246,"Chapelizod, stop 2246",53.34831131,-6.343642354,12444.3.60-C6-b12-1.353.I,24:38:07,24:38:07,45, Ringsend Road,21147.73,60-C6-b12-1,C6,b12
303,8220DB002247,"St Mary's Hospital, stop 2247",53.34675286,-6.336282916,12444.3.60-C6-b12-1.353.I,24:38:51,24:38:51,46, Ringsend Road,21684.2,60-C6-b12-1,C6,b12
304,8220DB002248,"Military Road, stop 2248",53.34632093,-6.327888637,12444.3.60-C6-b12-1.353.I,24:39:38,24:39:38,47, Ringsend Road,22242.73,60-C6-b12-1,C6,b12
305,8220DB002249,"Garda Boat Club, stop 2249",53.3465317,-6.321136449,12444.3.60-C6-b12-1.353.I,24:40:08,24:40:08,48, Ringsend Road,22693.91,60-C6-b12-1,C6,b12
306,8220DB002250,"Salmon Pool, stop 2250",53.34743859,-6.31533304,12444.3.60-C6-b12-1.353.I,24:40:34,24:40:34,49, Ringsend Road,23092.77,60-C6-b12-1,C6,b12
307,8220DB002251,"Islandbridge Gate, stop 2251",53.34813204,-6.310979792,12444.3.60-C6-b12-1.353.I,24:41:04,24:41:04,50, Ringsend Road,23391.19,60-C6-b12-1,C6,b12
308,8220DB001472,"Conyngham Road, stop 1472",53.34842947,-6.30596617,12444.3.60-C6-b12-1.353.I,24:41:37,24:41:37,51, Ringsend Road,23725.1,60-C6-b12-1,C6,b12
309,8220DB004408,"Phoenix House, stop 4408",53.34833336,-6.30110331,12444.3.60-C6-b12-1.353.I,24:42:15,24:42:15,52, Ringsend Road,24047.14,60-C6-b12-1,C6,b12
310,8220DB001473,"Phoenix Park Gate, stop 1473",53.34830598,-6.298550899,12444.3.60-C6-b12-1.353.I,24:42:35,24:42:35,53, Ringsend Road,24216.59,60-C6-b12-1,C6,b12
311,8220DB001474,"Parkgate Street, stop 1474",53.34794792,-6.292361705,12444.3.60-C6-b12-1.353.I,24:43:38,24:43:38,54, Ringsend Road,24628.98,60-C6-b12-1,C6,b12
312,8220DB001476,"Sarsfield Quay, stop 1476",53.34707369,-6.284676275,12444.3.60-C6-b12-1.353.I,24:44:58,24:44:58,55, Ringsend Road,25157.24,60-C6-b12-1,C6,b12
313,8220DB007854,"Arran Quay, stop 7854",53.34636761,-6.278711665,12444.3.60-C6-b12-1.353.I,24:46:28,24:46:28,56, Ringsend Road,25559.97,60-C6-b12-1,C6,b12
314,8220DB007856,"Four Courts, stop 7856",53.34562262,-6.273184391,12444.3.60-C6-b12-1.353.I,24:47:46,24:47:46,57, Ringsend Road,25939.4,60-C6-b12-1,C6,b12
315,8220DB007883,"Ormond Quay, stop 7883",53.346058,-6.268495617,12444.3.60-C6-b12-1.353.I,24:49:06,24:49:06,58, Ringsend Road,26258.63,60-C6-b12-1,C6,b12
316,8220DB000315,"Bachelors Walk, stop 315",53.34702829,-6.261667155,12444.3.60-C6-b12-1.353.I,24:51:02,24:51:02,59, Ringsend Road,26728.83,60-C6-b12-1,C6,b12
317,8220DB000340,"Townsend Street, stop 340",53.34597512,-6.256017478,12444.3.60-C6-b12-1.353.I,24:54:08,24:54:08,60, Ringsend Road,27219.55,60-C6-b12-1,C6,b12
318,8220DB007861,"Prince's St South, stop 7861",53.34561679,-6.249348317,12444.3.60-C6-b12-1.353.I,24:55:16,24:55:16,61, Ringsend Road,27663.65,60-C6-b12-1,C6,b12
319,8220DB000351,"Erne Street, stop 351",53.34341826,-6.245308174,12444.3.60-C6-b12-1.353.I,24:56:16,24:56:16,62, Ringsend Road,28030.22,60-C6-b12-1,C6,b12
320,8220DB000352,"Pearse Square, stop 352",53.34298915,-6.24241214,12444.3.60-C6-b12-1.353.I,24:57:12,24:57:12,63, Ringsend Road,28231.28,60-C6-b12-1,C6,b12
321,8220DB000353,"Grand Canal Quay, stop 353",53.34264501,-6.239798018,12444.3.60-C6-b12-1.353.I,24:58:03,24:58:03,64, Ringsend Road,28407.56,60-C6-b12-1,C6,b12
322,8220DB000354,"Ringsend Road, stop 354",53.34223583,-6.23643569,12444.3.60-C6-b12-1.353.I,24:58:33,24:58:33,65, Ringsend Road,28635.61,60-C6-b12-1,C6,b12
323,8230DB003943,"Dept of Agriculture, stop 3943",53.3470719,-6.494294919,12444.3.60-C6-d12-1.353.I,24:18:33,24:18:33,24, Ringsend Road,9688.69,60-C6-d12-1,C6,d12
324,8230DB003945,"Weston Aerodrome, stop 3945",53.35370171,-6.479865358,12444.3.60-C6-d12-1.353.I,24:19:56,24:19:56,25, Ringsend Road,10903.01,60-C6-d12-1,C6,d12
325,8230DB003946,"Weston Estate, stop 3946",53.35611534,-6.475317639,12444.3.60-C6-d12-1.353.I,24:20:35,24:20:35,26, Ringsend Road,11309.43,60-C6-d12-1,C6,d12
326,8230DB004001,"Liffey Valley Golf, stop 4001",53.35892285,-6.472062381,12444.3.60-C6-d12-1.353.I,24:21:34,24:21:34,28, Ringsend Road,11914.2,60-C6-d12-1,C6,d12
327,8230DB003949,"Leixlip Road, stop 3949",53.35551692,-6.460211074,12444.3.60-C6-d12-1.353.I,24:23:00,24:23:00,29, Ringsend Road,12795.89,60-C6-d12-1,C6,d12
328,8230DB003950,"Ball Alley House, stop 3950",53.35560249,-6.455010094,12444.3.60-C6-d12-1.353.I,24:23:45,24:23:45,30, Ringsend Road,13153.84,60-C6-d12-1,C6,d12
329,8230DB003372,"Lucan Village, stop 3372",53.35656433,-6.448094691,12444.3.60-C6-d12-1.353.I,24:24:43,24:24:43,31, Ringsend Road,13625.44,60-C6-d12-1,C6,d12
330,8230DB003373,"Lucan Heights, stop 3373",53.35808279,-6.441849744,12444.3.60-C6-d12-1.353.I,24:25:26,24:25:26,32, Ringsend Road,14099.03,60-C6-d12-1,C6,d12
331,8230DB003374,"St Mary's Church, stop 3374",53.35963427,-6.439524473,12444.3.60-C6-d12-1.353.I,24:25:47,24:25:47,33, Ringsend Road,14330.39,60-C6-d12-1,C6,d12
332,8230DB002233,"Chalet Gardens, stop 2233",53.3600895,-6.435165776,12444.3.60-C6-d12-1.353.I,24:26:14,24:26:14,34, Ringsend Road,14626.32,60-C6-d12-1,C6,d12
333,8230DB002232,"Ballydowd Grove, stop 2232",53.35973763,-6.430956834,12444.3.60-C6-d12-1.353.I,24:26:57,24:26:57,35, Ringsend Road,14911.83,60-C6-d12-1,C6,d12
334,8230DB002234,"Lucan Retail Park, stop 2234",53.35933655,-6.424390974,12444.3.60-C6-d12-1.353.I,24:28:03,24:28:03,36, Ringsend Road,15349.14,60-C6-d12-1,C6,d12
335,8230DB002236,"Hermitage Bridge, stop 2236",53.35886946,-6.410856513,12444.3.60-C6-d12-1.353.I,24:29:41,24:29:41,37, Ringsend Road,16268.89,60-C6-d12-1,C6,d12
336,8230DB005056,"Hermitage Clinic, stop 5056",53.35752149,-6.402793928,12444.3.60-C6-d12-1.353.I,24:30:41,24:30:41,38, Ringsend Road,16827.55,60-C6-d12-1,C6,d12
337,8230DB002239,"Liffey Valley SC, stop 2239",53.35616847,-6.3917274,12444.3.60-C6-d12-1.353.I,24:31:56,24:31:56,39, Ringsend Road,17646.8,60-C6-d12-1,C6,d12
338,8230DB002241,"Kennelsfort Road, stop 2241",53.35492926,-6.371268023,12444.3.60-C6-d12-1.353.I,24:33:53,24:33:53,40, Ringsend Road,19066.21,60-C6-d12-1,C6,d12
339,8230DB002242,"The Oval, stop 2242",53.35392732,-6.367009818,12444.3.60-C6-d12-1.353.I,24:34:22,24:34:22,41, Ringsend Road,19371.62,60-C6-d12-1,C6,d12
340,8220DB002243,"Glenaulin, stop 2243",53.35197438,-6.355697995,12444.3.60-C6-d12-1.353.I,24:36:03,24:36:03,42, Ringsend Road,20165.26,60-C6-d12-1,C6,d12
341,8220DB002244,"Belgrove Park, stop 2244",53.35088435,-6.351609074,12444.3.60-C6-d12-1.353.I,24:36:41,24:36:41,43, Ringsend Road,20462.36,60-C6-d12-1,C6,d12
342,8220DB002245,"Laurence Brook, stop 2245",53.3494632,-6.348284211,12444.3.60-C6-d12-1.353.I,24:37:15,24:37:15,44, Ringsend Road,20734.71,60-C6-d12-1,C6,d12
343,8220DB002246,"Chapelizod, stop 2246",53.34831131,-6.343642354,12444.3.60-C6-d12-1.353.I,24:38:07,24:38:07,45, Ringsend Road,21147.73,60-C6-d12-1,C6,d12
344,8220DB002247,"St Mary's Hospital, stop 2247",53.34675286,-6.336282916,12444.3.60-C6-d12-1.353.I,24:38:51,24:38:51,46, Ringsend Road,21684.2,60-C6-d12-1,C6,d12
345,8220DB002248,"Military Road, stop 2248",53.34632093,-6.327888637,12444.3.60-C6-d12-1.353.I,24:39:38,24:39:38,47, Ringsend Road,22242.73,60-C6-d12-1,C6,d12
346,8220DB002249,"Garda Boat Club, stop 2249",53.3465317,-6.321136449,12444.3.60-C6-d12-1.353.I,24:40:08,24:40:08,48, Ringsend Road,22693.91,60-C6-d12-1,C6,d12
347,8220DB002250,"Salmon Pool, stop 2250",53.34743859,-6.31533304,12444.3.60-C6-d12-1.353.I,24:40:34,24:40:34,49, Ringsend Road,23092.77,60-C6-d12-1,C6,d12
348,8220DB002251,"Islandbridge Gate, stop 2251",53.34813204,-6.310979792,12444.3.60-C6-d12-1.353.I,24:41:04,24:41:04,50, Ringsend Road,23391.19,60-C6-d12-1,C6,d12
349,8220DB001472,"Conyngham Road, stop 1472",53.34842947,-6.30596617,12444.3.60-C6-d12-1.353.I,24:41:37,24:41:37,51, Ringsend Road,23725.1,60-C6-d12-1,C6,d12
350,8220DB004408,"Phoenix House, stop 4408",53.34833336,-6.30110331,12444.3.60-C6-d12-1.353.I,24:42:15,24:42:15,52, Ringsend Road,24047.14,60-C6-d12-1,C6,d12
351,8220DB001473,"Phoenix Park Gate, stop 1473",53.34830598,-6.298550899,12444.3.60-C6-d12-1.353.I,24:42:35,24:42:35,53, Ringsend Road,24216.59,60-C6-d12-1,C6,d12
352,8220DB001474,"Parkgate Street, stop 1474",53.34794792,-6.292361705,12444.3.60-C6-d12-1.353.I,24:43:38,24:43:38,54, Ringsend Road,24628.98,60-C6-d12-1,C6,d12
353,8220DB001476,"Sarsfield Quay, stop 1476",53.34707369,-6.284676275,12444.3.60-C6-d12-1.353.I,24:44:58,24:44:58,55, Ringsend Road,25157.24,60-C6-d12-1,C6,d12
354,8220DB007854,"Arran Quay, stop 7854",53.34636761,-6.278711665,12444.3.60-C6-d12-1.353.I,24:46:28,24:46:28,56, Ringsend Road,25559.97,60-C6-d12-1,C6,d12
355,8220DB007856,"Four Courts, stop 7856",53.34562262,-6.273184391,12444.3.60-C6-d12-1.353.I,24:47:46,24:47:46,57, Ringsend Road,25939.4,60-C6-d12-1,C6,d12
356,8220DB007883,"Ormond Quay, stop 7883",53.346058,-6.268495617,12444.3.60-C6-d12-1.353.I,24:49:06,24:49:06,58, Ringsend Road,26258.63,60-C6-d12-1,C6,d12
357,8220DB000315,"Bachelors Walk, stop 315",53.34702829,-6.261667155,12444.3.60-C6-d12-1.353.I,24:51:02,24:51:02,59, Ringsend Road,26728.83,60-C6-d12-1,C6,d12
358,8220DB000340,"Townsend Street, stop 340",53.34597512,-6.256017478,12444.3.60-C6-d12-1.353.I,24:54:08,24:54:08,60, Ringsend Road,27219.55,60-C6-d12-1,C6,d12
359,8220DB007861,"Prince's St South, stop 7861",53.34561679,-6.249348317,12444.3.60-C6-d12-1.353.I,24:55:16,24:55:16,61, Ringsend Road,27663.65,60-C6-d12-1,C6,d12
360,8220DB000351,"Erne Street, stop 351",53.34341826,-6.245308174,12444.3.60-C6-d12-1.353.I,24:56:16,24:56:16,62, Ringsend Road,28030.22,60-C6-d12-1,C6,d12
361,8220DB000352,"Pearse Square, stop 352",53.34298915,-6.24241214,12444.3.60-C6-d12-1.353.I,24:57:12,24:57:12,63, Ringsend Road,28231.28,60-C6-d12-1,C6,d12
362,8220DB000353,"Grand Canal Quay, stop 353",53.34264501,-6.239798018,12444.3.60-C6-d12-1.353.I,24:58:03,24:58:03,64, Ringsend Road,28407.56,60-C6-d12-1,C6,d12
363,8220DB000354,"Ringsend Road, stop 354",53.34223583,-6.23643569,12444.3.60-C6-d12-1.353.I,24:58:33,24:58:33,65, Ringsend Road,28635.61,60-C6-d12-1,C6,d12
364,8230DB003943,"Dept of Agriculture, stop 3943",53.3470719,-6.494294919,12446.3.60-C6-b12-1.353.I,27:20:22,27:20:22,24, Ringsend Road,9688.69,60-C6-b12-1,C6,b12
365,8230DB003945,"Weston Aerodrome, stop 3945",53.35370171,-6.479865358,12446.3.60-C6-b12-1.353.I,27:21:36,27:21:36,25, Ringsend Road,10903.01,60-C6-b12-1,C6,b12
366,8230DB003946,"Weston Estate, stop 3946",53.35611534,-6.475317639,12446.3.60-C6-b12-1.353.I,27:22:14,27:22:14,26, Ringsend Road,11309.43,60-C6-b12-1,C6,b12
367,8230DB004001,"Liffey Valley Golf, stop 4001",53.35892285,-6.472062381,12446.3.60-C6-b12-1.353.I,27:23:10,27:23:10,28, Ringsend Road,11914.2,60-C6-b12-1,C6,b12
368,8230DB003949,"Leixlip Road, stop 3949",53.35551692,-6.460211074,12446.3.60-C6-b12-1.353.I,27:24:19,27:24:19,29, Ringsend Road,12795.89,60-C6-b12-1,C6,b12
369,8230DB003950,"Ball Alley House, stop 3950",53.35560249,-6.455010094,12446.3.60-C6-b12-1.353.I,27:24:56,27:24:56,30, Ringsend Road,13153.84,60-C6-b12-1,C6,b12
370,8230DB003372,"Lucan Village, stop 3372",53.35656433,-6.448094691,12446.3.60-C6-b12-1.353.I,27:25:44,27:25:44,31, Ringsend Road,13625.44,60-C6-b12-1,C6,b12
371,8230DB003373,"Lucan Heights, stop 3373",53.35808279,-6.441849744,12446.3.60-C6-b12-1.353.I,27:26:19,27:26:19,32, Ringsend Road,14099.03,60-C6-b12-1,C6,b12
372,8230DB003374,"St Mary's Church, stop 3374",53.35963427,-6.439524473,12446.3.60-C6-b12-1.353.I,27:26:42,27:26:42,33, Ringsend Road,14330.39,60-C6-b12-1,C6,b12
373,8230DB002233,"Chalet Gardens, stop 2233",53.3600895,-6.435165776,12446.3.60-C6-b12-1.353.I,27:27:11,27:27:11,34, Ringsend Road,14626.32,60-C6-b12-1,C6,b12
374,8230DB002232,"Ballydowd Grove, stop 2232",53.35973763,-6.430956834,12446.3.60-C6-b12-1.353.I,27:27:42,27:27:42,35, Ringsend Road,14911.83,60-C6-b12-1,C6,b12
375,8230DB002234,"Lucan Retail Park, stop 2234",53.35933655,-6.424390974,12446.3.60-C6-b12-1.353.I,27:28:31,27:28:31,36, Ringsend Road,15349.14,60-C6-b12-1,C6,b12
376,8230DB002236,"Hermitage Bridge, stop 2236",53.35886946,-6.410856513,12446.3.60-C6-b12-1.353.I,27:29:46,27:29:46,37, Ringsend Road,16268.89,60-C6-b12-1,C6,b12
377,8230DB005056,"Hermitage Clinic, stop 5056",53.35752149,-6.402793928,12446.3.60-C6-b12-1.353.I,27:30:32,27:30:32,38, Ringsend Road,16827.55,60-C6-b12-1,C6,b12
378,8230DB002239,"Liffey Valley SC, stop 2239",53.35616847,-6.3917274,12446.3.60-C6-b12-1.353.I,27:31:28,27:31:28,39, Ringsend Road,17646.8,60-C6-b12-1,C6,b12
379,8230DB002241,"Kennelsfort Road, stop 2241",53.35492926,-6.371268023,12446.3.60-C6-b12-1.353.I,27:33:04,27:33:04,40, Ringsend Road,19066.21,60-C6-b12-1,C6,b12
380,8230DB002242,"The Oval, stop 2242",53.35392732,-6.367009818,12446.3.60-C6-b12-1.353.I,27:33:26,27:33:26,41, Ringsend Road,19371.62,60-C6-b12-1,C6,b12
381,8220DB002243,"Glenaulin, stop 2243",53.35197438,-6.355697995,12446.3.60-C6-b12-1.353.I,27:34:44,27:34:44,42, Ringsend Road,20165.26,60-C6-b12-1,C6,b12
382,8220DB002244,"Belgrove Park, stop 2244",53.35088435,-6.351609074,12446.3.60-C6-b12-1.353.I,27:35:13,27:35:13,43, Ringsend Road,20462.36,60-C6-b12-1,C6,b12
383,8220DB002245,"Laurence Brook, stop 2245",53.3494632,-6.348284211,12446.3.60-C6-b12-1.353.I,27:35:39,27:35:39,44, Ringsend Road,20734.71,60-C6-b12-1,C6,b12
384,8220DB002246,"Chapelizod, stop 2246",53.34831131,-6.343642354,12446.3.60-C6-b12-1.353.I,27:36:19,27:36:19,45, Ringsend Road,21147.73,60-C6-b12-1,C6,b12
385,8220DB002247,"St Mary's Hospital, stop 2247",53.34675286,-6.336282916,12446.3.60-C6-b12-1.353.I,27:37:01,27:37:01,46, Ringsend Road,21684.2,60-C6-b12-1,C6,b12
386,8220DB002248,"Military Road, stop 2248",53.34632093,-6.327888637,12446.3.60-C6-b12-1.353.I,27:37:45,27:37:45,47, Ringsend Road,22242.73,60-C6-b12-1,C6,b12
387,8220DB002249,"Garda Boat Club, stop 2249",53.3465317,-6.321136449,12446.3.60-C6-b12-1.353.I,27:38:12,27:38:12,48, Ringsend Road,22693.91,60-C6-b12-1,C6,b12
388,8220DB002250,"Salmon Pool, stop 2250",53.34743859,-6.31533304,12446.3.60-C6-b12-1.353.I,27:38:36,27:38:36,49, Ringsend Road,23092.77,60-C6-b12-1,C6,b12
389,8220DB002251,"Islandbridge Gate, stop 2251",53.34813204,-6.310979792,12446.3.60-C6-b12-1.353.I,27:39:07,27:39:07,50, Ringsend Road,23391.19,60-C6-b12-1,C6,b12
390,8220DB001472,"Conyngham Road, stop 1472",53.34842947,-6.30596617,12446.3.60-C6-b12-1.353.I,27:39:42,27:39:42,51, Ringsend Road,23725.1,60-C6-b12-1,C6,b12
391,8220DB004408,"Phoenix House, stop 4408",53.34833336,-6.30110331,12446.3.60-C6-b12-1.353.I,27:40:04,27:40:04,52, Ringsend Road,24047.14,60-C6-b12-1,C6,b12
392,8220DB001473,"Phoenix Park Gate, stop 1473",53.34830598,-6.298550899,12446.3.60-C6-b12-1.353.I,27:40:16,27:40:16,53, Ringsend Road,24216.59,60-C6-b12-1,C6,b12
393,8220DB001474,"Parkgate Street, stop 1474",53.34794792,-6.292361705,12446.3.60-C6-b12-1.353.I,27:40:54,27:40:54,54, Ringsend Road,24628.98,60-C6-b12-1,C6,b12
394,8220DB001476,"Sarsfield Quay, stop 1476",53.34707369,-6.284676275,12446.3.60-C6-b12-1.353.I,27:41:42,27:41:42,55, Ringsend Road,25157.24,60-C6-b12-1,C6,b12
395,8220DB007854,"Arran Quay, stop 7854",53.34636761,-6.278711665,12446.3.60-C6-b12-1.353.I,27:42:50,27:42:50,56, Ringsend Road,25559.97,60-C6-b12-1,C6,b12
396,8220DB007856,"Four Courts, stop 7856",53.34562262,-6.273184391,12446.3.60-C6-b12-1.353.I,27:43:44,27:43:44,57, Ringsend Road,25939.4,60-C6-b12-1,C6,b12
397,8220DB007883,"Ormond Quay, stop 7883",53.346058,-6.268495617,12446.3.60-C6-b12-1.353.I,27:45:11,27:45:11,58, Ringsend Road,26258.63,60-C6-b12-1,C6,b12
398,8220DB000315,"Bachelors Walk, stop 315",53.34702829,-6.261667155,12446.3.60-C6-b12-1.353.I,27:47:18,27:47:18,59, Ringsend Road,26728.83,60-C6-b12-1,C6,b12
399,8220DB000340,"Townsend Street, stop 340",53.34597512,-6.256017478,12446.3.60-C6-b12-1.353.I,27:51:24,27:51:24,60, Ringsend Road,27219.55,60-C6-b12-1,C6,b12
400,8220DB007861,"Prince's St South, stop 7861",53.34561679,-6.249348317,12446.3.60-C6-b12-1.353.I,27:52:39,27:52:39,61, Ringsend Road,27663.65,60-C6-b12-1,C6,b12
401,8220DB000351,"Erne Street, stop 351",53.34341826,-6.245308174,12446.3.60-C6-b12-1.353.I,27:53:45,27:53:45,62, Ringsend Road,28030.22,60-C6-b12-1,C6,b12
402,8220DB000352,"Pearse Square, stop 352",53.34298915,-6.24241214,12446.3.60-C6-b12-1.353.I,27:54:20,27:54:20,63, Ringsend Road,28231.28,60-C6-b12-1,C6,b12
403,8220DB000353,"Grand Canal Quay, stop 353",53.34264501,-6.239798018,12446.3.60-C6-b12-1.353.I,27:54:51,27:54:51,64, Ringsend Road,28407.56,60-C6-b12-1,C6,b12
404,8220DB000354,"Ringsend Road, stop 354",53.34223583,-6.23643569,12446.3.60-C6-b12-1.353.I,27:55:19,27:55:19,65, Ringsend Road,28635.61,60-C6-b12-1,C6,b12
405,8230DB003943,"Dept of Agriculture, stop 3943",53.3470719,-6.494294919,12446.3.60-C6-d12-1.353.I,27:20:22,27:20:22,24, Ringsend Road,9688.69,60-C6-d12-1,C6,d12
406,8230DB003945,"Weston Aerodrome, stop 3945",53.35370171,-6.479865358,12446.3.60-C6-d12-1.353.I,27:21:36,27:21:36,25, Ringsend Road,10903.01,60-C6-d12-1,C6,d12
407,8230DB003946,"Weston Estate, stop 3946",53.35611534,-6.475317639,12446.3.60-C6-d12-1.353.I,27:22:14,27:22:14,26, Ringsend Road,11309.43,60-C6-d12-1,C6,d12
408,8230DB004001,"Liffey Valley Golf, stop 4001",53.35892285,-6.472062381,12446.3.60-C6-d12-1.353.I,27:23:10,27:23:10,28, Ringsend Road,11914.2,60-C6-d12-1,C6,d12
409,8230DB003949,"Leixlip Road, stop 3949",53.35551692,-6.460211074,12446.3.60-C6-d12-1.353.I,27:24:19,27:24:19,29, Ringsend Road,12795.89,60-C6-d12-1,C6,d12
410,8230DB003950,"Ball Alley House, stop 3950",53.35560249,-6.455010094,12446.3.60-C6-d12-1.353.I,27:24:56,27:24:56,30, Ringsend Road,13153.84,60-C6-d12-1,C6,d12
411,8230DB003372,"Lucan Village, stop 3372",53.35656433,-6.448094691,12446.3.60-C6-d12-1.353.I,27:25:44,27:25:44,31, Ringsend Road,13625.44,60-C6-d12-1,C6,d12
412,8230DB003373,"Lucan Heights, stop 3373",53.35808279,-6.441849744,12446.3.60-C6-d12-1.353.I,27:26:19,27:26:19,32, Ringsend Road,14099.03,60-C6-d12-1,C6,d12
413,8230DB003374,"St Mary's Church, stop 3374",53.35963427,-6.439524473,12446.3.60-C6-d12-1.353.I,27:26:42,27:26:42,33, Ringsend Road,14330.39,60-C6-d12-1,C6,d12
414,8230DB002233,"Chalet Gardens, stop 2233",53.3600895,-6.435165776,12446.3.60-C6-d12-1.353.I,27:27:11,27:27:11,34, Ringsend Road,14626.32,60-C6-d12-1,C6,d12
415,8230DB002232,"Ballydowd Grove, stop 2232",53.35973763,-6.430956834,12446.3.60-C6-d12-1.353.I,27:27:42,27:27:42,35, Ringsend Road,14911.83,60-C6-d12-1,C6,d12
416,8230DB002234,"Lucan Retail Park, stop 2234",53.35933655,-6.424390974,12446.3.60-C6-d12-1.353.I,27:28:31,27:28:31,36, Ringsend Road,15349.14,60-C6-d12-1,C6,d12
417,8230DB002236,"Hermitage Bridge, stop 2236",53.35886946,-6.410856513,12446.3.60-C6-d12-1.353.I,27:29:46,27:29:46,37, Ringsend Road,16268.89,60-C6-d12-1,C6,d12
418,8230DB005056,"Hermitage Clinic, stop 5056",53.35752149,-6.402793928,12446.3.60-C6-d12-1.353.I,27:30:32,27:30:32,38, Ringsend Road,16827.55,60-C6-d12-1,C6,d12
419,8230DB002239,"Liffey Valley SC, stop 2239",53.35616847,-6.3917274,12446.3.60-C6-d12-1.353.I,27:31:28,27:31:28,39, Ringsend Road,17646.8,60-C6-d12-1,C6,d12
420,8230DB002241,"Kennelsfort Road, stop 2241",53.35492926,-6.371268023,12446.3.60-C6-d12-1.353.I,27:33:04,27:33:04,40, Ringsend Road,19066.21,60-C6-d12-1,C6,d12
421,8230DB002242,"The Oval, stop 2242",53.35392732,-6.367009818,12446.3.60-C6-d12-1.353.I,27:33:26,27:33:26,41, Ringsend Road,19371.62,60-C6-d12-1,C6,d12
422,8220DB002243,"Glenaulin, stop 2243",53.35197438,-6.355697995,12446.3.60-C6-d12-1.353.I,27:34:44,27:34:44,42, Ringsend Road,20165.26,60-C6-d12-1,C6,d12
423,8220DB002244,"Belgrove Park, stop 2244",53.35088435,-6.351609074,12446.3.60-C6-d12-1.353.I,27:35:13,27:35:13,43, Ringsend Road,20462.36,60-C6-d12-1,C6,d12
424,8220DB002245,"Laurence Brook, stop 2245",53.3494632,-6.348284211,12446.3.60-C6-d12-1.353.I,27:35:39,27:35:39,44, Ringsend Road,20734.71,60-C6-d12-1,C6,d12
425,8220DB002246,"Chapelizod, stop 2246",53.34831131,-6.343642354,12446.3.60-C6-d12-1.353.I,27:36:19,27:36:19,45, Ringsend Road,21147.73,60-C6-d12-1,C6,d12
426,8220DB002247,"St Mary's Hospital, stop 2247",53.34675286,-6.336282916,12446.3.60-C6-d12-1.353.I,27:37:01,27:37:01,46, Ringsend Road,21684.2,60-C6-d12-1,C6,d12
427,8220DB002248,"Military Road, stop 2248",53.34632093,-6.327888637,12446.3.60-C6-d12-1.353.I,27:37:45,27:37:45,47, Ringsend Road,22242.73,60-C6-d12-1,C6,d12
428,8220DB002249,"Garda Boat Club, stop 2249",53.3465317,-6.321136449,12446.3.60-C6-d12-1.353.I,27:38:12,27:38:12,48, Ringsend Road,22693.91,60-C6-d12-1,C6,d12
429,8220DB002250,"Salmon Pool, stop 2250",53.34743859,-6.31533304,12446.3.60-C6-d12-1.353.I,27:38:36,27:38:36,49, Ringsend Road,23092.77,60-C6-d12-1,C6,d12
430,8220DB002251,"Islandbridge Gate, stop 2251",53.34813204,-6.310979792,12446.3.60-C6-d12-1.353.I,27:39:07,27:39:07,50, Ringsend Road,23391.19,60-C6-d12-1,C6,d12
431,8220DB001472,"Conyngham Road, stop 1472",53.34842947,-6.30596617,12446.3.60-C6-d12-1.353.I,27:39:42,27:39:42,51, Ringsend Road,23725.1,60-C6-d12-1,C6,d12
432,8220DB004408,"Phoenix House, stop 4408",53.34833336,-6.30110331,12446.3.60-C6-d12-1.353.I,27:40:04,27:40:04,52, Ringsend Road,24047.14,60-C6-d12-1,C6,d12
433,8220DB001473,"Phoenix Park Gate, stop 1473",53.34830598,-6.298550899,12446.3.60-C6-d12-1.353.I,27:40:16,27:40:16,53, Ringsend Road,24216.59,60-C6-d12-1,C6,d12
434,8220DB001474,"Parkgate Street, stop 1474",53.34794792,-6.292361705,12446.3.60-C6-d12-1.353.I,27:40:54,27:40:54,54, Ringsend Road,24628.98,60-C6-d12-1,C6,d12
435,8220DB001476,"Sarsfield Quay, stop 1476",53.34707369,-6.284676275,12446.3.60-C6-d12-1.353.I,27:41:42,27:41:42,55, Ringsend Road,25157.24,60-C6-d12-1,C6,d12
436,8220DB007854,"Arran Quay, stop 7854",53.34636761,-6.278711665,12446.3.60-C6-d12-1.353.I,27:42:50,27:42:50,56, Ringsend Road,25559.97,60-C6-d12-1,C6,d12
437,8220DB007856,"Four Courts, stop 7856",53.34562262,-6.273184391,12446.3.60-C6-d12-1.353.I,27:43:44,27:43:44,57, Ringsend Road,25939.4,60-C6-d12-1,C6,d12
438,8220DB007883,"Ormond Quay, stop 7883",53.346058,-6.268495617,12446.3.60-C6-d12-1.353.I,27:45:11,27:45:11,58, Ringsend Road,26258.63,60-C6-d12-1,C6,d12
439,8220DB000315,"Bachelors Walk, stop 315",53.34702829,-6.261667155,12446.3.60-C6-d12-1.353.I,27:47:18,27:47:18,59, Ringsend Road,26728.83,60-C6-d12-1,C6,d12
440,8220DB000340,"Townsend Street, stop 340",53.34597512,-6.256017478,12446.3.60-C6-d12-1.353.I,27:51:24,27:51:24,60, Ringsend Road,27219.55,60-C6-d12-1,C6,d12
441,8220DB007861,"Prince's St South, stop 7861",53.34561679,-6.249348317,12446.3.60-C6-d12-1.353.I,27:52:39,27:52:39,61, Ringsend Road,27663.65,60-C6-d12-1,C6,d12
442,8220DB000351,"Erne Street, stop 351",53.34341826,-6.245308174,12446.3.60-C6-d12-1.353.I,27:53:45,27:53:45,62, Ringsend Road,28030.22,60-C6-d12-1,C6,d12
443,8220DB000352,"Pearse Square, stop 352",53.34298915,-6.24241214,12446.3.60-C6-d12-1.353.I,27:54:20,27:54:20,63, Ringsend Road,28231.28,60-C6-d12-1,C6,d12
444,8220DB000353,"Grand Canal Quay, stop 353",53.34264501,-6.239798018,12446.3.60-C6-d12-1.353.I,27:54:51,27:54:51,64, Ringsend Road,28407.56,60-C6-d12-1,C6,d12
445,8220DB000354,"Ringsend Road, stop 354",53.34223583,-6.23643569,12446.3.60-C6-d12-1.353.I,27:55:19,27:55:19,65, Ringsend Road,28635.61,60-C6-d12-1,C6,d12
634,8230DB003943,"Dept of Agriculture, stop 3943",53.3470719,-6.494294919,12512.3.60-C6-b12-1.353.I,26:20:22,26:20:22,24, Ringsend Road,9688.69,60-C6-b12-1,C6,b12
635,8230DB003945,"Weston Aerodrome, stop 3945",53.35370171,-6.479865358,12512.3.60-C6-b12-1.353.I,26:21:36,26:21:36,25, Ringsend Road,10903.01,60-C6-b12-1,C6,b12
636,8230DB003946,"Weston Estate, stop 3946",53.35611534,-6.475317639,12512.3.60-C6-b12-1.353.I,26:22:14,26:22:14,26, Ringsend Road,11309.43,60-C6-b12-1,C6,b12
637,8230DB004001,"Liffey Valley Golf, stop 4001",53.35892285,-6.472062381,12512.3.60-C6-b12-1.353.I,26:23:10,26:23:10,28, Ringsend Road,11914.2,60-C6-b12-1,C6,b12
638,8230DB003949,"Leixlip Road, stop 3949",53.35551692,-6.460211074,12512.3.60-C6-b12-1.353.I,26:24:19,26:24:19,29, Ringsend Road,12795.89,60-C6-b12-1,C6,b12
639,8230DB003950,"Ball Alley House, stop 3950",53.35560249,-6.455010094,12512.3.60-C6-b12-1.353.I,26:24:56,26:24:56,30, Ringsend Road,13153.84,60-C6-b12-1,C6,b12
640,8230DB003372,"Lucan Village, stop 3372",53.35656433,-6.448094691,12512.3.60-C6-b12-1.353.I,26:25:44,26:25:44,31, Ringsend Road,13625.44,60-C6-b12-1,C6,b12
641,8230DB003373,"Lucan Heights, stop 3373",53.35808279,-6.441849744,12512.3.60-C6-b12-1.353.I,26:26:19,26:26:19,32, Ringsend Road,14099.03,60-C6-b12-1,C6,b12
642,8230DB003374,"St Mary's Church, stop 3374",53.35963427,-6.439524473,12512.3.60-C6-b12-1.353.I,26:26:42,26:26:42,33, Ringsend Road,14330.39,60-C6-b12-1,C6,b12
643,8230DB002233,"Chalet Gardens, stop 2233",53.3600895,-6.435165776,12512.3.60-C6-b12-1.353.I,26:27:11,26:27:11,34, Ringsend Road,14626.32,60-C6-b12-1,C6,b12
644,8230DB002232,"Ballydowd Grove, stop 2232",53.35973763,-6.430956834,12512.3.60-C6-b12-1.353.I,26:27:42,26:27:42,35, Ringsend Road,14911.83,60-C6-b12-1,C6,b12
645,8230DB002234,"Lucan Retail Park, stop 2234",53.35933655,-6.424390974,12512.3.60-C6-b12-1.353.I,26:28:31,26:28:31,36, Ringsend Road,15349.14,60-C6-b12-1,C6,b12
646,8230DB002236,"Hermitage Bridge, stop 2236",53.35886946,-6.410856513,12512.3.60-C6-b12-1.353.I,26:29:46,26:29:46,37, Ringsend Road,16268.89,60-C6-b12-1,C6,b12
647,8230DB005056,"Hermitage Clinic, stop 5056",53.35752149,-6.402793928,12512.3.60-C6-b12-1.353.I,26:30:32,26:30:32,38, Ringsend Road,16827.55,60-C6-b12-1,C6,b12
648,8230DB002239,"Liffey Valley SC, stop 2239",53.35616847,-6.3917274,12512.3.60-C6-b12-1.353.I,26:31:28,26:31:28,39, Ringsend Road,17646.8,60-C6-b12-1,C6,b12
649,8230DB002241,"Kennelsfort Road, stop 2241",53.35492926,-6.371268023,12512.3.60-C6-b12-1.353.I,26:33:04,26:33:04,40, Ringsend Road,19066.21,60-C6-b12-1,C6,b12
650,8230DB002242,"The Oval, stop 2242",53.35392732,-6.367009818,12512.3.60-C6-b12-1.353.I,26:33:26,26:33:26,41, Ringsend Road,19371.62,60-C6-b12-1,C6,b12
651,8220DB002243,"Glenaulin, stop 2243",53.35197438,-6.355697995,12512.3.60-C6-b12-1.353.I,26:34:44,26:34:44,42, Ringsend Road,20165.26,60-C6-b12-1,C6,b12
652,8220DB002244,"Belgrove Park, stop 2244",53.35088435,-6.351609074,12512.3.60-C6-b12-1.353.I,26:35:13,26:35:13,43, Ringsend Road,20462.36,60-C6-b12-1,C6,b12
653,8220DB002245,"Laurence Brook, stop 2245",53.3494632,-6.348284211,12512.3.60-C6-b12-1.353.I,26:35:39,26:35:39,44, Ringsend Road,20734.71,60-C6-b12-1,C6,b12
654,8220DB002246,"Chapelizod, stop 2246",53.34831131,-6.343642354,12512.3.60-C6-b12-1.353.I,26:36:19,26:36:19,45, Ringsend Road,21147.73,60-C6-b12-1,C6,b12
655,8220DB002247,"St Mary's Hospital, stop 2247",53.34675286,-6.336282916,12512.3.60-C6-b12-1.353.I,26:37:01,26:37:01,46, Ringsend Road,21684.2,60-C6-b12-1,C6,b12
656,8220DB002248,"Military Road, stop 2248",53.34632093,-6.327888637,12512.3.60-C6-b12-1.353.I,26:37:45,26:37:45,47, Ringsend Road,22242.73,60-C6-b12-1,C6,b12
657,8220DB002249,"Garda Boat Club, stop 2249",53.3465317,-6.321136449,12512.3.60-C6-b12-1.353.I,26:38:12,26:38:12,48, Ringsend Road,22693.91,60-C6-b12-1,C6,b12
658,8220DB002250,"Salmon Pool, stop 2250",53.34743859,-6.31533304,12512.3.60-C6-b12-1.353.I,26:38:36,26:38:36,49, Ringsend Road,23092.77,60-C6-b12-1,C6,b12
659,8220DB002251,"Islandbridge Gate, stop 2251",53.34813204,-6.310979792,12512.3.60-C6-b12-1.353.I,26:39:07,26:39:07,50, Ringsend Road,23391.19,60-C6-b12-1,C6,b12
660,8220DB001472,"Conyngham Road, stop 1472",53.34842947,-6.30596617,12512.3.60-C6-b12-1.353.I,26:39:42,26:39:42,51, Ringsend Road,23725.1,60-C6-b12-1,C6,b12
661,8220DB004408,"Phoenix House, stop 4408",53.34833336,-6.30110331,12512.3.60-C6-b12-1.353.I,26:40:04,26:40:04,52, Ringsend Road,24047.14,60-C6-b12-1,C6,b12
662,8220DB001473,"Phoenix Park Gate, stop 1473",53.34830598,-6.298550899,12512.3.60-C6-b12-1.353.I,26:40:16,26:40:16,53, Ringsend Road,24216.59,60-C6-b12-1,C6,b12
663,8220DB001474,"Parkgate Street, stop 1474",53.34794792,-6.292361705,12512.3.60-C6-b12-1.353.I,26:40:54,26:40:54,54, Ringsend Road,24628.98,60-C6-b12-1,C6,b12
664,8220DB001476,"Sarsfield Quay, stop 1476",53.34707369,-6.284676275,12512.3.60-C6-b12-1.353.I,26:41:42,26:41:42,55, Ringsend Road,25157.24,60-C6-b12-1,C6,b12
665,8220DB007854,"Arran Quay, stop 7854",53.34636761,-6.278711665,12512.3.60-C6-b12-1.353.I,26:42:50,26:42:50,56, Ringsend Road,25559.97,60-C6-b12-1,C6,b12
666,8220DB007856,"Four Courts, stop 7856",53.34562262,-6.273184391,12512.3.60-C6-b12-1.353.I,26:43:44,26:43:44,57, Ringsend Road,25939.4,60-C6-b12-1,C6,b12
667,8220DB007883,"Ormond Quay, stop 7883",53.346058,-6.268495617,12512.3.60-C6-b12-1.353.I,26:45:11,26:45:11,58, Ringsend Road,26258.63,60-C6-b12-1,C6,b12
668,8220DB000315,"Bachelors Walk, stop 315",53.34702829,-6.261667155,12512.3.60-C6-b12-1.353.I,26:47:18,26:47:18,59, Ringsend Road,26728.83,60-C6-b12-1,C6,b12
669,8220DB000340,"Townsend Street, stop 340",53.34597512,-6.256017478,12512.3.60-C6-b12-1.353.I,26:51:24,26:51:24,60, Ringsend Road,27219.55,60-C6-b12-1,C6,b12
670,8220DB007861,"Prince's St South, stop 7861",53.34561679,-6.249348317,12512.3.60-C6-b12-1.353.I,26:52:39,26:52:39,61, Ringsend Road,27663.65,60-C6-b12-1,C6,b12
671,8220DB000351,"Erne Street, stop 351",53.34341826,-6.245308174,12512.3.60-C6-b12-1.353.I,26:53:45,26:53:45,62, Ringsend Road,28030.22,60-C6-b12-1,C6,b12
672,8220DB000352,"Pearse Square, stop 352",53.34298915,-6.24241214,12512.3.60-C6-b12-1.353.I,26:54:20,26:54:20,63, Ringsend Road,28231.28,60-C6-b12-1,C6,b12
673,8220DB000353,"Grand Canal Quay, stop 353",53.34264501,-6.239798018,12512.3.60-C6-b12-1.353.I,26:54:51,26:54:51,64, Ringsend Road,28407.56,60-C6-b12-1,C6,b12
674,8220DB000354,"Ringsend Road, stop 354",53.34223583,-6.23643569,12512.3.60-C6-b12-1.353.I,26:55:19,26:55:19,65, Ringsend Road,28635.61,60-C6-b12-1,C6,b12
675,8230DB003943,"Dept of Agriculture, stop 3943",53.3470719,-6.494294919,12512.3.60-C6-d12-1.353.I,26:20:22,26:20:22,24, Ringsend Road,9688.69,60-C6-d12-1,C6,d12
676,8230DB003945,"Weston Aerodrome, stop 3945",53.35370171,-6.479865358,12512.3.60-C6-d12-1.353.I,26:21:36,26:21:36,25, Ringsend Road,10903.01,60-C6-d12-1,C6,d12
677,8230DB003946,"Weston Estate, stop 3946",53.35611534,-6.475317639,12512.3.60-C6-d12-1.353.I,26:22:14,26:22:14,26, Ringsend Road,11309.43,60-C6-d12-1,C6,d12
678,8230DB004001,"Liffey Valley Golf, stop 4001",53.35892285,-6.472062381,12512.3.60-C6-d12-1.353.I,26:23:10,26:23:10,28, Ringsend Road,11914.2,60-C6-d12-1,C6,d12
679,8230DB003949,"Leixlip Road, stop 3949",53.35551692,-6.460211074,12512.3.60-C6-d12-1.353.I,26:24:19,26:24:19,29, Ringsend Road,12795.89,60-C6-d12-1,C6,d12
680,8230DB003950,"Ball Alley House, stop 3950",53.35560249,-6.455010094,12512.3.60-C6-d12-1.353.I,26:24:56,26:24:56,30, Ringsend Road,13153.84,60-C6-d12-1,C6,d12
681,8230DB003372,"Lucan Village, stop 3372",53.35656433,-6.448094691,12512.3.60-C6-d12-1.353.I,26:25:44,26:25:44,31, Ringsend Road,13625.44,60-C6-d12-1,C6,d12
682,8230DB003373,"Lucan Heights, stop 3373",53.35808279,-6.441849744,12512.3.60-C6-d12-1.353.I,26:26:19,26:26:19,32, Ringsend Road,14099.03,60-C6-d12-1,C6,d12
683,8230DB003374,"St Mary's Church, stop 3374",53.35963427,-6.439524473,12512.3.60-C6-d12-1.353.I,26:26:42,26:26:42,33, Ringsend Road,14330.39,60-C6-d12-1,C6,d12
684,8230DB002233,"Chalet Gardens, stop 2233",53.3600895,-6.435165776,12512.3.60-C6-d12-1.353.I,26:27:11,26:27:11,34, Ringsend Road,14626.32,60-C6-d12-1,C6,d12
685,8230DB002232,"Ballydowd Grove, stop 2232",53.35973763,-6.430956834,12512.3.60-C6-d12-1.353.I,26:27:42,26:27:42,35, Ringsend Road,14911.83,60-C6-d12-1,C6,d12
686,8230DB002234,"Lucan Retail Park, stop 2234",53.35933655,-6.424390974,12512.3.60-C6-d12-1.353.I,26:28:31,26:28:31,36, Ringsend Road,15349.14,60-C6-d12-1,C6,d12
687,8230DB002236,"Hermitage Bridge, stop 2236",53.35886946,-6.410856513,12512.3.60-C6-d12-1.353.I,26:29:46,26:29:46,37, Ringsend Road,16268.89,60-C6-d12-1,C6,d12
688,8230DB005056,"Hermitage Clinic, stop 5056",53.35752149,-6.402793928,12512.3.60-C6-d12-1.353.I,26:30:32,26:30:32,38, Ringsend Road,16827.55,60-C6-d12-1,C6,d12
689,8230DB002239,"Liffey Valley SC, stop 2239",53.35616847,-6.3917274,12512.3.60-C6-d12-1.353.I,26:31:28,26:31:28,39, Ringsend Road,17646.8,60-C6-d12-1,C6,d12
690,8230DB002241,"Kennelsfort Road, stop 2241",53.35492926,-6.371268023,12512.3.60-C6-d12-1.353.I,26:33:04,26:33:04,40, Ringsend Road,19066.21,60-C6-d12-1,C6,d12
691,8230DB002242,"The Oval, stop 2242",53.35392732,-6.367009818,12512.3.60-C6-d12-1.353.I,26:33:26,26:33:26,41, Ringsend Road,19371.62,60-C6-d12-1,C6,d12
692,8220DB002243,"Glenaulin, stop 2243",53.35197438,-6.355697995,12512.3.60-C6-d12-1.353.I,26:34:44,26:34:44,42, Ringsend Road,20165.26,60-C6-d12-1,C6,d12
693,8220DB002244,"Belgrove Park, stop 2244",53.35088435,-6.351609074,12512.3.60-C6-d12-1.353.I,26:35:13,26:35:13,43, Ringsend Road,20462.36,60-C6-d12-1,C6,d12
694,8220DB002245,"Laurence Brook, stop 2245",53.3494632,-6.348284211,12512.3.60-C6-d12-1.353.I,26:35:39,26:35:39,44, Ringsend Road,20734.71,60-C6-d12-1,C6,d12
695,8220DB002246,"Chapelizod, stop 2246",53.34831131,-6.343642354,12512.3.60-C6-d12-1.353.I,26:36:19,26:36:19,45, Ringsend Road,21147.73,60-C6-d12-1,C6,d12
696,8220DB002247,"St Mary's Hospital, stop 2247",53.34675286,-6.336282916,12512.3.60-C6-d12-1.353.I,26:37:01,26:37:01,46, Ringsend Road,21684.2,60-C6-d12-1,C6,d12
697,8220DB002248,"Military Road, stop 2248",53.34632093,-6.327888637,12512.3.60-C6-d12-1.353.I,26:37:45,26:37:45,47, Ringsend Road,22242.73,60-C6-d12-1,C6,d12
698,8220DB002249,"Garda Boat Club, stop 2249",53.3465317,-6.321136449,12512.3.60-C6-d12-1.353.I,26:38:12,26:38:12,48, Ringsend Road,22693.91,60-C6-d12-1,C6,d12
699,8220DB002250,"Salmon Pool, stop 2250",53.34743859,-6.31533304,12512.3.60-C6-d12-1.353.I,26:38:36,26:38:36,49, Ringsend Road,23092.77,60-C6-d12-1,C6,d12
700,8220DB002251,"Islandbridge Gate, stop 2251",53.34813204,-6.310979792,12512.3.60-C6-d12-1.353.I,26:39:07,26:39:07,50, Ringsend Road,23391.19,60-C6-d12-1,C6,d12
701,8220DB001472,"Conyngham Road, stop 1472",53.34842947,-6.30596617,12512.3.60-C6-d12-1.353.I,26:39:42,26:39:42,51, Ringsend Road,23725.1,60-C6-d12-1,C6,d12
702,8220DB004408,"Phoenix House, stop 4408",53.34833336,-6.30110331,12512.3.60-C6-d12-1.353.I,26:40:04,26:40:04,52, Ringsend Road,24047.14,60-C6-d12-1,C6,d12
703,8220DB001473,"Phoenix Park Gate, stop 1473",53.34830598,-6.298550899,12512.3.60-C6-d12-1.353.I,26:40:16,26:40:16,53, Ringsend Road,24216.59,60-C6-d12-1,C6,d12
704,8220DB001474,"Parkgate Street, stop 1474",53.34794792,-6.292361705,12512.3.60-C6-d12-1.353.I,26:40:54,26:40:54,54, Ringsend Road,24628.98,60-C6-d12-1,C6,d12
705,8220DB001476,"Sarsfield Quay, stop 1476",53.34707369,-6.284676275,12512.3.60-C6-d12-1.353.I,26:41:42,26:41:42,55, Ringsend Road,25157.24,60-C6-d12-1,C6,d12
706,8220DB007854,"Arran Quay, stop 7854",53.34636761,-6.278711665,12512.3.60-C6-d12-1.353.I,26:42:50,26:42:50,56, Ringsend Road,25559.97,60-C6-d12-1,C6,d12
707,8220DB007856,"Four Courts, stop 7856",53.34562262,-6.273184391,12512.3.60-C6-d12-1.353.I,26:43:44,26:43:44,57, Ringsend Road,25939.4,60-C6-d12-1,C6,d12
708,8220DB007883,"Ormond Quay, stop 7883",53.346058,-6.268495617,12512.3.60-C6-d12-1.353.I,26:45:11,26:45:11,58, Ringsend Road,26258.63,60-C6-d12-1,C6,d12
709,8220DB000315,"Bachelors Walk, stop 315",53.34702829,-6.261667155,12512.3.60-C6-d12-1.353.I,26:47:18,26:47:18,59, Ringsend Road,26728.83,60-C6-d12-1,C6,d12
710,8220DB000340,"Townsend Street, stop 340",53.34597512,-6.256017478,12512.3.60-C6-d12-1.353.I,26:51:24,26:51:24,60, Ringsend Road,27219.55,60-C6-d12-1,C6,d12
711,8220DB007861,"Prince's St South, stop 7861",53.34561679,-6.249348317,12512.3.60-C6-d12-1.353.I,26:52:39,26:52:39,61, Ringsend Road,27663.65,60-C6-d12-1,C6,d12
712,8220DB000351,"Erne Street, stop 351",53.34341826,-6.245308174,12512.3.60-C6-d12-1.353.I,26:53:45,26:53:45,62, Ringsend Road,28030.22,60-C6-d12-1,C6,d12
713,8220DB000352,"Pearse Square, stop 352",53.34298915,-6.24241214,12512.3.60-C6-d12-1.353.I,26:54:20,26:54:20,63, Ringsend Road,28231.28,60-C6-d12-1,C6,d12
714,8220DB000353,"Grand Canal Quay, stop 353",53.34264501,-6.239798018,12512.3.60-C6-d12-1.353.I,26:54:51,26:54:51,64, Ringsend Road,28407.56,60-C6-d12-1,C6,d12
715,8220DB000354,"Ringsend Road, stop 354",53.34223583,-6.23643569,12512.3.60-C6-d12-1.353.I,26:55:19,26:55:19,65, Ringsend Road,28635.61,60-C6-d12-1,C6,d12
716,8230DB003943,"Dept of Agriculture, stop 3943",53.3470719,-6.494294919,12515.3.60-C6-b12-1.353.I,25:20:22,25:20:22,24, Ringsend Road,9688.69,60-C6-b12-1,C6,b12
717,8230DB003945,"Weston Aerodrome, stop 3945",53.35370171,-6.479865358,12515.3.60-C6-b12-1.353.I,25:21:36,25:21:36,25, Ringsend Road,10903.01,60-C6-b12-1,C6,b12
718,8230DB003946,"Weston Estate, stop 3946",53.35611534,-6.475317639,12515.3.60-C6-b12-1.353.I,25:22:14,25:22:14,26, Ringsend Road,11309.43,60-C6-b12-1,C6,b12
719,8230DB004001,"Liffey Valley Golf, stop 4001",53.35892285,-6.472062381,12515.3.60-C6-b12-1.353.I,25:23:10,25:23:10,28, Ringsend Road,11914.2,60-C6-b12-1,C6,b12
720,8230DB003949,"Leixlip Road, stop 3949",53.35551692,-6.460211074,12515.3.60-C6-b12-1.353.I,25:24:19,25:24:19,29, Ringsend Road,12795.89,60-C6-b12-1,C6,b12
721,8230DB003950,"Ball Alley House, stop 3950",53.35560249,-6.455010094,12515.3.60-C6-b12-1.353.I,25:24:56,25:24:56,30, Ringsend Road,13153.84,60-C6-b12-1,C6,b12
722,8230DB003372,"Lucan Village, stop 3372",53.35656433,-6.448094691,12515.3.60-C6-b12-1.353.I,25:25:44,25:25:44,31, Ringsend Road,13625.44,60-C6-b12-1,C6,b12
723,8230DB003373,"Lucan Heights, stop 3373",53.35808279,-6.441849744,12515.3.60-C6-b12-1.353.I,25:26:19,25:26:19,32, Ringsend Road,14099.03,60-C6-b12-1,C6,b12
724,8230DB003374,"St Mary's Church, stop 3374",53.35963427,-6.439524473,12515.3.60-C6-b12-1.353.I,25:26:42,25:26:42,33, Ringsend Road,14330.39,60-C6-b12-1,C6,b12
725,8230DB002233,"Chalet Gardens, stop 2233",53.3600895,-6.435165776,12515.3.60-C6-b12-1.353.I,25:27:11,25:27:11,34, Ringsend Road,14626.32,60-C6-b12-1,C6,b12
726,8230DB002232,"Ballydowd Grove, stop 2232",53.35973763,-6.430956834,12515.3.60-C6-b12-1.353.I,25:27:42,25:27:42,35, Ringsend Road,14911.83,60-C6-b12-1,C6,b12
727,8230DB002234,"Lucan Retail Park, stop 2234",53.35933655,-6.424390974,12515.3.60-C6-b12-1.353.I,25:28:31,25:28:31,36, Ringsend Road,15349.14,60-C6-b12-1,C6,b12
728,8230DB002236,"Hermitage Bridge, stop 2236",53.35886946,-6.410856513,12515.3.60-C6-b12-1.353.I,25:29:46,25:29:46,37, Ringsend Road,16268.89,60-C6-b12-1,C6,b12
729,8230DB005056,"Hermitage Clinic, stop 5056",53.35752149,-6.402793928,12515.3.60-C6-b12-1.353.I,25:30:32,25:30:32,38, Ringsend Road,16827.55,60-C6-b12-1,C6,b12
730,8230DB002239,"Liffey Valley SC, stop 2239",53.35616847,-6.3917274,12515.3.60-C6-b12-1.353.I,25:31:28,25:31:28,39, Ringsend Road,17646.8,60-C6-b12-1,C6,b12
731,8230DB002241,"Kennelsfort Road, stop 2241",53.35492926,-6.371268023,12515.3.60-C6-b12-1.353.I,25:33:04,25:33:04,40, Ringsend Road,19066.21,60-C6-b12-1,C6,b12
732,8230DB002242,"The Oval, stop 2242",53.35392732,-6.367009818,12515.3.60-C6-b12-1.353.I,25:33:26,25:33:26,41, Ringsend Road,19371.62,60-C6-b12-1,C6,b12
733,8220DB002243,"Glenaulin, stop 2243",53.35197438,-6.355697995,12515.3.60-C6-b12-1.353.I,25:34:44,25:34:44,42, Ringsend Road,20165.26,60-C6-b12-1,C6,b12
734,8220DB002244,"Belgrove Park, stop 2244",53.35088435,-6.351609074,12515.3.60-C6-b12-1.353.I,25:35:13,25:35:13,43, Ringsend Road,20462.36,60-C6-b12-1,C6,b12
735,8220DB002245,"Laurence Brook, stop 2245",53.3494632,-6.348284211,12515.3.60-C6-b12-1.353.I,25:35:39,25:35:39,44, Ringsend Road,20734.71,60-C6-b12-1,C6,b12
736,8220DB002246,"Chapelizod, stop 2246",53.34831131,-6.343642354,12515.3.60-C6-b12-1.353.I,25:36:19,25:36:19,45, Ringsend Road,21147.73,60-C6-b12-1,C6,b12
737,8220DB002247,"St Mary's Hospital, stop 2247",53.34675286,-6.336282916,12515.3.60-C6-b12-1.353.I,25:37:01,25:37:01,46, Ringsend Road,21684.2,60-C6-b12-1,C6,b12
738,8220DB002248,"Military Road, stop 2248",53.34632093,-6.327888637,12515.3.60-C6-b12-1.353.I,25:37:45,25:37:45,47, Ringsend Road,22242.73,60-C6-b12-1,C6,b12
739,8220DB002249,"Garda Boat Club, stop 2249",53.3465317,-6.321136449,12515.3.60-C6-b12-1.353.I,25:38:12,25:38:12,48, Ringsend Road,22693.91,60-C6-b12-1,C6,b12
740,8220DB002250,"Salmon Pool, stop 2250",53.34743859,-6.31533304,12515.3.60-C6-b12-1.353.I,25:38:36,25:38:36,49, Ringsend Road,23092.77,60-C6-b12-1,C6,b12
741,8220DB002251,"Islandbridge Gate, stop 2251",53.34813204,-6.310979792,12515.3.60-C6-b12-1.353.I,25:39:07,25:39:07,50, Ringsend Road,23391.19,60-C6-b12-1,C6,b12
742,8220DB001472,"Conyngham Road, stop 1472",53.34842947,-6.30596617,12515.3.60-C6-b12-1.353.I,25:39:42,25:39:42,51, Ringsend Road,23725.1,60-C6-b12-1,C6,b12
743,8220DB004408,"Phoenix House, stop 4408",53.34833336,-6.30110331,12515.3.60-C6-b12-1.353.I,25:40:04,25:40:04,52, Ringsend Road,24047.14,60-C6-b12-1,C6,b12
744,8220DB001473,"Phoenix Park Gate, stop 1473",53.34830598,-6.298550899,12515.3.60-C6-b12-1.353.I,25:40:16,25:40:16,53, Ringsend Road,24216.59,60-C6-b12-1,C6,b12
745,8220DB001474,"Parkgate Street, stop 1474",53.34794792,-6.292361705,12515.3.60-C6-b12-1.353.I,25:40:54,25:40:54,54, Ringsend Road,24628.98,60-C6-b12-1,C6,b12
746,8220DB001476,"Sarsfield Quay, stop 1476",53.34707369,-6.284676275,12515.3.60-C6-b12-1.353.I,25:41:42,25:41:42,55, Ringsend Road,25157.24,60-C6-b12-1,C6,b12
747,8220DB007854,"Arran Quay, stop 7854",53.34636761,-6.278711665,12515.3.60-C6-b12-1.353.I,25:42:50,25:42:50,56, Ringsend Road,25559.97,60-C6-b12-1,C6,b12
748,8220DB007856,"Four Courts, stop 7856",53.34562262,-6.273184391,12515.3.60-C6-b12-1.353.I,25:43:44,25:43:44,57, Ringsend Road,25939.4,60-C6-b12-1,C6,b12
749,8220DB007883,"Ormond Quay, stop 7883",53.346058,-6.268495617,12515.3.60-C6-b12-1.353.I,25:45:11,25:45:11,58, Ringsend Road,26258.63,60-C6-b12-1,C6,b12
750,8220DB000315,"Bachelors Walk, stop 315",53.34702829,-6.261667155,12515.3.60-C6-b12-1.353.I,25:47:18,25:47:18,59, Ringsend Road,26728.83,60-C6-b12-1,C6,b12
751,8220DB000340,"Townsend Street, stop 340",53.34597512,-6.256017478,12515.3.60-C6-b12-1.353.I,25:51:24,25:51:24,60, Ringsend Road,27219.55,60-C6-b12-1,C6,b12
752,8220DB007861,"Prince's St South, stop 7861",53.34561679,-6.249348317,12515.3.60-C6-b12-1.353.I,25:52:39,25:52:39,61, Ringsend Road,27663.65,60-C6-b12-1,C6,b12
753,8220DB000351,"Erne Street, stop 351",53.34341826,-6.245308174,12515.3.60-C6-b12-1.353.I,25:53:45,25:53:45,62, Ringsend Road,28030.22,60-C6-b12-1,C6,b12
754,8220DB000352,"Pearse Square, stop 352",53.34298915,-6.24241214,12515.3.60-C6-b12-1.353.I,25:54:20,25:54:20,63, Ringsend Road,28231.28,60-C6-b12-1,C6,b12
755,8220DB000353,"Grand Canal Quay, stop 353",53.34264501,-6.239798018,12515.3.60-C6-b12-1.353.I,25:54:51,25:54:51,64, Ringsend Road,28407.56,60-C6-b12-1,C6,b12
756,8220DB000354,"Ringsend Road, stop 354",53.34223583,-6.23643569,12515.3.60-C6-b12-1.353.I,25:55:19,25:55:19,65, Ringsend Road,28635.61,60-C6-b12-1,C6,b12
757,8230DB003943,"Dept of Agriculture, stop 3943",53.3470719,-6.494294919,12515.3.60-C6-d12-1.353.I,25:20:22,25:20:22,24, Ringsend Road,9688.69,60-C6-d12-1,C6,d12
758,8230DB003945,"Weston Aerodrome, stop 3945",53.35370171,-6.479865358,12515.3.60-C6-d12-1.353.I,25:21:36,25:21:36,25, Ringsend Road,10903.01,60-C6-d12-1,C6,d12
759,8230DB003946,"Weston Estate, stop 3946",53.35611534,-6.475317639,12515.3.60-C6-d12-1.353.I,25:22:14,25:22:14,26, Ringsend Road,11309.43,60-C6-d12-1,C6,d12
760,8230DB004001,"Liffey Valley Golf, stop 4001",53.35892285,-6.472062381,12515.3.60-C6-d12-1.353.I,25:23:10,25:23:10,28, Ringsend Road,11914.2,60-C6-d12-1,C6,d12
761,8230DB003949,"Leixlip Road, stop 3949",53.35551692,-6.460211074,12515.3.60-C6-d12-1.353.I,25:24:19,25:24:19,29, Ringsend Road,12795.89,60-C6-d12-1,C6,d12
762,8230DB003950,"Ball Alley House, stop 3950",53.35560249,-6.455010094,12515.3.60-C6-d12-1.353.I,25:24:56,25:24:56,30, Ringsend Road,13153.84,60-C6-d12-1,C6,d12
763,8230DB003372,"Lucan Village, stop 3372",53.35656433,-6.448094691,12515.3.60-C6-d12-1.353.I,25:25:44,25:25:44,31, Ringsend Road,13625.44,60-C6-d12-1,C6,d12
764,8230DB003373,"Lucan Heights, stop 3373",53.35808279,-6.441849744,12515.3.60-C6-d12-1.353.I,25:26:19,25:26:19,32, Ringsend Road,14099.03,60-C6-d12-1,C6,d12
765,8230DB003374,"St Mary's Church, stop 3374",53.35963427,-6.439524473,12515.3.60-C6-d12-1.353.I,25:26:42,25:26:42,33, Ringsend Road,14330.39,60-C6-d12-1,C6,d12
766,8230DB002233,"Chalet Gardens, stop 2233",53.3600895,-6.435165776,12515.3.60-C6-d12-1.353.I,25:27:11,25:27:11,34, Ringsend Road,14626.32,60-C6-d12-1,C6,d12
767,8230DB002232,"Ballydowd Grove, stop 2232",53.35973763,-6.430956834,12515.3.60-C6-d12-1.353.I,25:27:42,25:27:42,35, Ringsend Road,14911.83,60-C6-d12-1,C6,d12
768,8230DB002234,"Lucan Retail Park, stop 2234",53.35933655,-6.424390974,12515.3.60-C6-d12-1.353.I,25:28:31,25:28:31,36, Ringsend Road,15349.14,60-C6-d12-1,C6,d12
769,8230DB002236,"Hermitage Bridge, stop 2236",53.35886946,-6.410856513,12515.3.60-C6-d12-1.353.I,25:29:46,25:29:46,37, Ringsend Road,16268.89,60-C6-d12-1,C6,d12
770,8230DB005056,"Hermitage Clinic, stop 5056",53.35752149,-6.402793928,12515.3.60-C6-d12-1.353.I,25:30:32,25:30:32,38, Ringsend Road,16827.55,60-C6-d12-1,C6,d12
771,8230DB002239,"Liffey Valley SC, stop 2239",53.35616847,-6.3917274,12515.3.60-C6-d12-1.353.I,25:31:28,25:31:28,39, Ringsend Road,17646.8,60-C6-d12-1,C6,d12
772,8230DB002241,"Kennelsfort Road, stop 2241",53.35492926,-6.371268023,12515.3.60-C6-d12-1.353.I,25:33:04,25:33:04,40, Ringsend Road,19066.21,60-C6-d12-1,C6,d12
773,8230DB002242,"The Oval, stop 2242",53.35392732,-6.367009818,12515.3.60-C6-d12-1.353.I,25:33:26,25:33:26,41, Ringsend Road,19371.62,60-C6-d12-1,C6,d12
774,8220DB002243,"Glenaulin, stop 2243",53.35197438,-6.355697995,12515.3.60-C6-d12-1.353.I,25:34:44,25:34:44,42, Ringsend Road,20165.26,60-C6-d12-1,C6,d12
775,8220DB002244,"Belgrove Park, stop 2244",53.35088435,-6.351609074,12515.3.60-C6-d12-1.353.I,25:35:13,25:35:13,43, Ringsend Road,20462.36,60-C6-d12-1,C6,d12
776,8220DB002245,"Laurence Brook, stop 2245",53.3494632,-6.348284211,12515.3.60-C6-d12-1.353.I,25:35:39,25:35:39,44, Ringsend Road,20734.71,60-C6-d12-1,C6,d12
777,8220DB002246,"Chapelizod, stop 2246",53.34831131,-6.343642354,12515.3.60-C6-d12-1.353.I,25:36:19,25:36:19,45, Ringsend Road,21147.73,60-C6-d12-1,C6,d12
778,8220DB002247,"St Mary's Hospital, stop 2247",53.34675286,-6.336282916,12515.3.60-C6-d12-1.353.I,25:37:01,25:37:01,46, Ringsend Road,21684.2,60-C6-d12-1,C6,d12
779,8220DB002248,"Military Road, stop 2248",53.34632093,-6.327888637,12515.3.60-C6-d12-1.353.I,25:37:45,25:37:45,47, Ringsend Road,22242.73,60-C6-d12-1,C6,d12
780,8220DB002249,"Garda Boat Club, stop 2249",53.3465317,-6.321136449,12515.3.60-C6-d12-1.353.I,25:38:12,25:38:12,48, Ringsend Road,22693.91,60-C6-d12-1,C6,d12
781,8220DB002250,"Salmon Pool, stop 2250",53.34743859,-6.31533304,12515.3.60-C6-d12-1.353.I,25:38:36,25:38:36,49, Ringsend Road,23092.77,60-C6-d12-1,C6,d12
782,8220DB002251,"Islandbridge Gate, stop 2251",53.34813204,-6.310979792,12515.3.60-C6-d12-1.353.I,25:39:07,25:39:07,50, Ringsend Road,23391.19,60-C6-d12-1,C6,d12
783,8220DB001472,"Conyngham Road, stop 1472",53.34842947,-6.30596617,12515.3.60-C6-d12-1.353.I,25:39:42,25:39:42,51, Ringsend Road,23725.1,60-C6-d12-1,C6,d12
784,8220DB004408,"Phoenix House, stop 4408",53.34833336,-6.30110331,12515.3.60-C6-d12-1.353.I,25:40:04,25:40:04,52, Ringsend Road,24047.14,60-C6-d12-1,C6,d12
785,8220DB001473,"Phoenix Park Gate, stop 1473",53.34830598,-6.298550899,12515.3.60-C6-d12-1.353.I,25:40:16,25:40:16,53, Ringsend Road,24216.59,60-C6-d12-1,C6,d12
786,8220DB001474,"Parkgate Street, stop 1474",53.34794792,-6.292361705,12515.3.60-C6-d12-1.353.I,25:40:54,25:40:54,54, Ringsend Road,24628.98,60-C6-d12-1,C6,d12
787,8220DB001476,"Sarsfield Quay, stop 1476",53.34707369,-6.284676275,12515.3.60-C6-d12-1.353.I,25:41:42,25:41:42,55, Ringsend Road,25157.24,60-C6-d12-1,C6,d12
788,8220DB007854,"Arran Quay, stop 7854",53.34636761,-6.278711665,12515.3.60-C6-d12-1.353.I,25:42:50,25:42:50,56, Ringsend Road,25559.97,60-C6-d12-1,C6,d12
789,8220DB007856,"Four Courts, stop 7856",53.34562262,-6.273184391,12515.3.60-C6-d12-1.353.I,25:43:44,25:43:44,57, Ringsend Road,25939.4,60-C6-d12-1,C6,d12
790,8220DB007883,"Ormond Quay, stop 7883",53.346058,-6.268495617,12515.3.60-C6-d12-1.353.I,25:45:11,25:45:11,58, Ringsend Road,26258.63,60-C6-d12-1,C6,d12
791,8220DB000315,"Bachelors Walk, stop 315",53.34702829,-6.261667155,12515.3.60-C6-d12-1.353.I,25:47:18,25:47:18,59, Ringsend Road,26728.83,60-C6-d12-1,C6,d12
792,8220DB000340,"Townsend Street, stop 340",53.34597512,-6.256017478,12515.3.60-C6-d12-1.353.I,25:51:24,25:51:24,60, Ringsend Road,27219.55,60-C6-d12-1,C6,d12
793,8220DB007861,"Prince's St South, stop 7861",53.34561679,-6.249348317,12515.3.60-C6-d12-1.353.I,25:52:39,25:52:39,61, Ringsend Road,27663.65,60-C6-d12-1,C6,d12
794,8220DB000351,"Erne Street, stop 351",53.34341826,-6.245308174,12515.3.60-C6-d12-1.353.I,25:53:45,25:53:45,62, Ringsend Road,28030.22,60-C6-d12-1,C6,d12
795,8220DB000352,"Pearse Square, stop 352",53.34298915,-6.24241214,12515.3.60-C6-d12-1.353.I,25:54:20,25:54:20,63, Ringsend Road,28231.28,60-C6-d12-1,C6,d12
796,8220DB000353,"Grand Canal Quay, stop 353",53.34264501,-6.239798018,12515.3.60-C6-d12-1.353.I,25:54:51,25:54:51,64, Ringsend Road,28407.56,60-C6-d12-1,C6,d12
797,8220DB000354,"Ringsend Road, stop 354",53.34223583,-6.23643569,12515.3.60-C6-d12-1.353.I,25:55:19,25:55:19,65, Ringsend Road,28635.61,60-C6-d12-1,C6,d12
798,8230DB003943,"Dept of Agriculture, stop 3943",53.3470719,-6.494294919,12517.3.60-C6-b12-1.353.I,28:23:05,28:23:05,24, Ringsend Road,9688.69,60-C6-b12-1,C6,b12
799,8230DB003945,"Weston Aerodrome, stop 3945",53.35370171,-6.479865358,12517.3.60-C6-b12-1.353.I,28:24:23,28:24:23,25, Ringsend Road,10903.01,60-C6-b12-1,C6,b12
800,8230DB003946,"Weston Estate, stop 3946",53.35611534,-6.475317639,12517.3.60-C6-b12-1.353.I,28:25:00,28:25:00,26, Ringsend Road,11309.43,60-C6-b12-1,C6,b12
801,8230DB004001,"Liffey Valley Golf, stop 4001",53.35892285,-6.472062381,12517.3.60-C6-b12-1.353.I,28:25:54,28:25:54,28, Ringsend Road,11914.2,60-C6-b12-1,C6,b12
802,8230DB003949,"Leixlip Road, stop 3949",53.35551692,-6.460211074,12517.3.60-C6-b12-1.353.I,28:27:07,28:27:07,29, Ringsend Road,12795.89,60-C6-b12-1,C6,b12
803,8230DB003950,"Ball Alley House, stop 3950",53.35560249,-6.455010094,12517.3.60-C6-b12-1.353.I,28:27:36,28:27:36,30, Ringsend Road,13153.84,60-C6-b12-1,C6,b12
804,8230DB003372,"Lucan Village, stop 3372",53.35656433,-6.448094691,12517.3.60-C6-b12-1.353.I,28:28:13,28:28:13,31, Ringsend Road,13625.44,60-C6-b12-1,C6,b12
805,8230DB003373,"Lucan Heights, stop 3373",53.35808279,-6.441849744,12517.3.60-C6-b12-1.353.I,28:28:46,28:28:46,32, Ringsend Road,14099.03,60-C6-b12-1,C6,b12
806,8230DB003374,"St Mary's Church, stop 3374",53.35963427,-6.439524473,12517.3.60-C6-b12-1.353.I,28:29:11,28:29:11,33, Ringsend Road,14330.39,60-C6-b12-1,C6,b12
807,8230DB002233,"Chalet Gardens, stop 2233",53.3600895,-6.435165776,12517.3.60-C6-b12-1.353.I,28:29:43,28:29:43,34, Ringsend Road,14626.32,60-C6-b12-1,C6,b12
808,8230DB002232,"Ballydowd Grove, stop 2232",53.35973763,-6.430956834,12517.3.60-C6-b12-1.353.I,28:30:07,28:30:07,35, Ringsend Road,14911.83,60-C6-b12-1,C6,b12
809,8230DB002234,"Lucan Retail Park, stop 2234",53.35933655,-6.424390974,12517.3.60-C6-b12-1.353.I,28:30:45,28:30:45,36, Ringsend Road,15349.14,60-C6-b12-1,C6,b12
810,8230DB002236,"Hermitage Bridge, stop 2236",53.35886946,-6.410856513,12517.3.60-C6-b12-1.353.I,28:31:56,28:31:56,37, Ringsend Road,16268.89,60-C6-b12-1,C6,b12
811,8230DB005056,"Hermitage Clinic, stop 5056",53.35752149,-6.402793928,12517.3.60-C6-b12-1.353.I,28:32:39,28:32:39,38, Ringsend Road,16827.55,60-C6-b12-1,C6,b12
812,8230DB002239,"Liffey Valley SC, stop 2239",53.35616847,-6.3917274,12517.3.60-C6-b12-1.353.I,28:33:45,28:33:45,39, Ringsend Road,17646.8,60-C6-b12-1,C6,b12
813,8230DB002241,"Kennelsfort Road, stop 2241",53.35492926,-6.371268023,12517.3.60-C6-b12-1.353.I,28:35:14,28:35:14,40, Ringsend Road,19066.21,60-C6-b12-1,C6,b12
814,8230DB002242,"The Oval, stop 2242",53.35392732,-6.367009818,12517.3.60-C6-b12-1.353.I,28:35:31,28:35:31,41, Ringsend Road,19371.62,60-C6-b12-1,C6,b12
815,8220DB002243,"Glenaulin, stop 2243",53.35197438,-6.355697995,12517.3.60-C6-b12-1.353.I,28:36:50,28:36:50,42, Ringsend Road,20165.26,60-C6-b12-1,C6,b12
816,8220DB002244,"Belgrove Park, stop 2244",53.35088435,-6.351609074,12517.3.60-C6-b12-1.353.I,28:37:19,28:37:19,43, Ringsend Road,20462.36,60-C6-b12-1,C6,b12
817,8220DB002245,"Laurence Brook, stop 2245",53.3494632,-6.348284211,12517.3.60-C6-b12-1.353.I,28:37:45,28:37:45,44, Ringsend Road,20734.71,60-C6-b12-1,C6,b12
818,8220DB002246,"Chapelizod, stop 2246",53.34831131,-6.343642354,12517.3.60-C6-b12-1.353.I,28:38:23,28:38:23,45, Ringsend Road,21147.73,60-C6-b12-1,C6,b12
819,8220DB002247,"St Mary's Hospital, stop 2247",53.34675286,-6.336282916,12517.3.60-C6-b12-1.353.I,28:39:00,28:39:00,46, Ringsend Road,21684.2,60-C6-b12-1,C6,b12
820,8220DB002248,"Military Road, stop 2248",53.34632093,-6.327888637,12517.3.60-C6-b12-1.353.I,28:39:39,28:39:39,47, Ringsend Road,22242.73,60-C6-b12-1,C6,b12
821,8220DB002249,"Garda Boat Club, stop 2249",53.3465317,-6.321136449,12517.3.60-C6-b12-1.353.I,28:40:04,28:40:04,48, Ringsend Road,22693.91,60-C6-b12-1,C6,b12
822,8220DB002250,"Salmon Pool, stop 2250",53.34743859,-6.31533304,12517.3.60-C6-b12-1.353.I,28:40:27,28:40:27,49, Ringsend Road,23092.77,60-C6-b12-1,C6,b12
823,8220DB002251,"Islandbridge Gate, stop 2251",53.34813204,-6.310979792,12517.3.60-C6-b12-1.353.I,28:40:52,28:40:52,50, Ringsend Road,23391.19,60-C6-b12-1,C6,b12
824,8220DB001472,"Conyngham Road, stop 1472",53.34842947,-6.30596617,12517.3.60-C6-b12-1.353.I,28:41:19,28:41:19,51, Ringsend Road,23725.1,60-C6-b12-1,C6,b12
825,8220DB004408,"Phoenix House, stop 4408",53.34833336,-6.30110331,12517.3.60-C6-b12-1.353.I,28:41:39,28:41:39,52, Ringsend Road,24047.14,60-C6-b12-1,C6,b12
826,8220DB001473,"Phoenix Park Gate, stop 1473",53.34830598,-6.298550899,12517.3.60-C6-b12-1.353.I,28:41:50,28:41:50,53, Ringsend Road,24216.59,60-C6-b12-1,C6,b12
827,8220DB001474,"Parkgate Street, stop 1474",53.34794792,-6.292361705,12517.3.60-C6-b12-1.353.I,28:42:26,28:42:26,54, Ringsend Road,24628.98,60-C6-b12-1,C6,b12
828,8220DB001476,"Sarsfield Quay, stop 1476",53.34707369,-6.284676275,12517.3.60-C6-b12-1.353.I,28:43:12,28:43:12,55, Ringsend Road,25157.24,60-C6-b12-1,C6,b12
829,8220DB007854,"Arran Quay, stop 7854",53.34636761,-6.278711665,12517.3.60-C6-b12-1.353.I,28:44:03,28:44:03,56, Ringsend Road,25559.97,60-C6-b12-1,C6,b12
830,8220DB007856,"Four Courts, stop 7856",53.34562262,-6.273184391,12517.3.60-C6-b12-1.353.I,28:45:07,28:45:07,57, Ringsend Road,25939.4,60-C6-b12-1,C6,b12
831,8220DB007883,"Ormond Quay, stop 7883",53.346058,-6.268495617,12517.3.60-C6-b12-1.353.I,28:45:56,28:45:56,58, Ringsend Road,26258.63,60-C6-b12-1,C6,b12
832,8220DB000315,"Bachelors Walk, stop 315",53.34702829,-6.261667155,12517.3.60-C6-b12-1.353.I,28:47:08,28:47:08,59, Ringsend Road,26728.83,60-C6-b12-1,C6,b12
833,8220DB000340,"Townsend Street, stop 340",53.34597512,-6.256017478,12517.3.60-C6-b12-1.353.I,28:48:30,28:48:30,60, Ringsend Road,27219.55,60-C6-b12-1,C6,b12
834,8220DB007861,"Prince's St South, stop 7861",53.34561679,-6.249348317,12517.3.60-C6-b12-1.353.I,28:49:32,28:49:32,61, Ringsend Road,27663.65,60-C6-b12-1,C6,b12
835,8220DB000351,"Erne Street, stop 351",53.34341826,-6.245308174,12517.3.60-C6-b12-1.353.I,28:50:27,28:50:27,62, Ringsend Road,28030.22,60-C6-b12-1,C6,b12
836,8220DB000352,"Pearse Square, stop 352",53.34298915,-6.24241214,12517.3.60-C6-b12-1.353.I,28:50:45,28:50:45,63, Ringsend Road,28231.28,60-C6-b12-1,C6,b12
837,8220DB000353,"Grand Canal Quay, stop 353",53.34264501,-6.239798018,12517.3.60-C6-b12-1.353.I,28:51:01,28:51:01,64, Ringsend Road,28407.56,60-C6-b12-1,C6,b12
838,8220DB000354,"Ringsend Road, stop 354",53.34223583,-6.23643569,12517.3.60-C6-b12-1.353.I,28:51:21,28:51:21,65, Ringsend Road,28635.61,60-C6-b12-1,C6,b12
839,8230DB003943,"Dept of Agriculture, stop 3943",53.3470719,-6.494294919,12517.3.60-C6-d12-1.353.I,28:23:05,28:23:05,24, Ringsend Road,9688.69,60-C6-d12-1,C6,d12
840,8230DB003945,"Weston Aerodrome, stop 3945",53.35370171,-6.479865358,12517.3.60-C6-d12-1.353.I,28:24:23,28:24:23,25, Ringsend Road,10903.01,60-C6-d12-1,C6,d12
841,8230DB003946,"Weston Estate, stop 3946",53.35611534,-6.475317639,12517.3.60-C6-d12-1.353.I,28:25:00,28:25:00,26, Ringsend Road,11309.43,60-C6-d12-1,C6,d12
842,8230DB004001,"Liffey Valley Golf, stop 4001",53.35892285,-6.472062381,12517.3.60-C6-d12-1.353.I,28:25:54,28:25:54,28, Ringsend Road,11914.2,60-C6-d12-1,C6,d12
843,8230DB003949,"Leixlip Road, stop 3949",53.35551692,-6.460211074,12517.3.60-C6-d12-1.353.I,28:27:07,28:27:07,29, Ringsend Road,12795.89,60-C6-d12-1,C6,d12
844,8230DB003950,"Ball Alley House, stop 3950",53.35560249,-6.455010094,12517.3.60-C6-d12-1.353.I,28:27:36,28:27:36,30, Ringsend Road,13153.84,60-C6-d12-1,C6,d12
845,8230DB003372,"Lucan Village, stop 3372",53.35656433,-6.448094691,12517.3.60-C6-d12-1.353.I,28:28:13,28:28:13,31, Ringsend Road,13625.44,60-C6-d12-1,C6,d12
846,8230DB003373,"Lucan Heights, stop 3373",53.35808279,-6.441849744,12517.3.60-C6-d12-1.353.I,28:28:46,28:28:46,32, Ringsend Road,14099.03,60-C6-d12-1,C6,d12
847,8230DB003374,"St Mary's Church, stop 3374",53.35963427,-6.439524473,12517.3.60-C6-d12-1.353.I,28:29:11,28:29:11,33, Ringsend Road,14330.39,60-C6-d12-1,C6,d12
848,8230DB002233,"Chalet Gardens, stop 2233",53.3600895,-6.435165776,12517.3.60-C6-d12-1.353.I,28:29:43,28:29:43,34, Ringsend Road,14626.32,60-C6-d12-1,C6,d12
849,8230DB002232,"Ballydowd Grove, stop 2232",53.35973763,-6.430956834,12517.3.60-C6-d12-1.353.I,28:30:07,28:30:07,35, Ringsend Road,14911.83,60-C6-d12-1,C6,d12
850,8230DB002234,"Lucan Retail Park, stop 2234",53.35933655,-6.424390974,12517.3.60-C6-d12-1.353.I,28:30:45,28:30:45,36, Ringsend Road,15349.14,60-C6-d12-1,C6,d12
851,8230DB002236,"Hermitage Bridge, stop 2236",53.35886946,-6.410856513,12517.3.60-C6-d12-1.353.I,28:31:56,28:31:56,37, Ringsend Road,16268.89,60-C6-d12-1,C6,d12
852,8230DB005056,"Hermitage Clinic, stop 5056",53.35752149,-6.402793928,12517.3.60-C6-d12-1.353.I,28:32:39,28:32:39,38, Ringsend Road,16827.55,60-C6-d12-1,C6,d12
853,8230DB002239,"Liffey Valley SC, stop 2239",53.35616847,-6.3917274,12517.3.60-C6-d12-1.353.I,28:33:45,28:33:45,39, Ringsend Road,17646.8,60-C6-d12-1,C6,d12
854,8230DB002241,"Kennelsfort Road, stop 2241",53.35492926,-6.371268023,12517.3.60-C6-d12-1.353.I,28:35:14,28:35:14,40, Ringsend Road,19066.21,60-C6-d12-1,C6,d12
855,8230DB002242,"The Oval, stop 2242",53.35392732,-6.367009818,12517.3.60-C6-d12-1.353.I,28:35:31,28:35:31,41, Ringsend Road,19371.62,60-C6-d12-1,C6,d12
856,8220DB002243,"Glenaulin, stop 2243",53.35197438,-6.355697995,12517.3.60-C6-d12-1.353.I,28:36:50,28:36:50,42, Ringsend Road,20165.26,60-C6-d12-1,C6,d12
857,8220DB002244,"Belgrove Park, stop 2244",53.35088435,-6.351609074,12517.3.60-C6-d12-1.353.I,28:37:19,28:37:19,43, Ringsend Road,20462.36,60-C6-d12-1,C6,d12
858,8220DB002245,"Laurence Brook, stop 2245",53.3494632,-6.348284211,12517.3.60-C6-d12-1.353.I,28:37:45,28:37:45,44, Ringsend Road,20734.71,60-C6-d12-1,C6,d12
859,8220DB002246,"Chapelizod, stop 2246",53.34831131,-6.343642354,12517.3.60-C6-d12-1.353.I,28:38:23,28:38:23,45, Ringsend Road,21147.73,60-C6-d12-1,C6,d12
860,8220DB002247,"St Mary's Hospital, stop 2247",53.34675286,-6.336282916,12517.3.60-C6-d12-1.353.I,28:39:00,28:39:00,46, Ringsend Road,21684.2,60-C6-d12-1,C6,d12
861,8220DB002248,"Military Road, stop 2248",53.34632093,-6.327888637,12517.3.60-C6-d12-1.353.I,28:39:39,28:39:39,47, Ringsend Road,22242.73,60-C6-d12-1,C6,d12
862,8220DB002249,"Garda Boat Club, stop 2249",53.3465317,-6.321136449,12517.3.60-C6-d12-1.353.I,28:40:04,28:40:04,48, Ringsend Road,22693.91,60-C6-d12-1,C6,d12
863,8220DB002250,"Salmon Pool, stop 2250",53.34743859,-6.31533304,12517.3.60-C6-d12-1.353.I,28:40:27,28:40:27,49, Ringsend Road,23092.77,60-C6-d12-1,C6,d12
864,8220DB002251,"Islandbridge Gate, stop 2251",53.34813204,-6.310979792,12517.3.60-C6-d12-1.353.I,28:40:52,28:40:52,50, Ringsend Road,23391.19,60-C6-d12-1,C6,d12
865,8220DB001472,"Conyngham Road, stop 1472",53.34842947,-6.30596617,12517.3.60-C6-d12-1.353.I,28:41:19,28:41:19,51, Ringsend Road,23725.1,60-C6-d12-1,C6,d12
866,8220DB004408,"Phoenix House, stop 4408",53.34833336,-6.30110331,12517.3.60-C6-d12-1.353.I,28:41:39,28:41:39,52, Ringsend Road,24047.14,60-C6-d12-1,C6,d12
867,8220DB001473,"Phoenix Park Gate, stop 1473",53.34830598,-6.298550899,12517.3.60-C6-d12-1.353.I,28:41:50,28:41:50,53, Ringsend Road,24216.59,60-C6-d12-1,C6,d12
868,8220DB001474,"Parkgate Street, stop 1474",53.34794792,-6.292361705,12517.3.60-C6-d12-1.353.I,28:42:26,28:42:26,54, Ringsend Road,24628.98,60-C6-d12-1,C6,d12
869,8220DB001476,"Sarsfield Quay, stop 1476",53.34707369,-6.284676275,12517.3.60-C6-d12-1.353.I,28:43:12,28:43:12,55, Ringsend Road,25157.24,60-C6-d12-1,C6,d12
870,8220DB007854,"Arran Quay, stop 7854",53.34636761,-6.278711665,12517.3.60-C6-d12-1.353.I,28:44:03,28:44:03,56, Ringsend Road,25559.97,60-C6-d12-1,C6,d12
871,8220DB007856,"Four Courts, stop 7856",53.34562262,-6.273184391,12517.3.60-C6-d12-1.353.I,28:45:07,28:45:07,57, Ringsend Road,25939.4,60-C6-d12-1,C6,d12
872,8220DB007883,"Ormond Quay, stop 7883",53.346058,-6.268495617,12517.3.60-C6-d12-1.353.I,28:45:56,28:45:56,58, Ringsend Road,26258.63,60-C6-d12-1,C6,d12
873,8220DB000315,"Bachelors Walk, stop 315",53.34702829,-6.261667155,12517.3.60-C6-d12-1.353.I,28:47:08,28:47:08,59, Ringsend Road,26728.83,60-C6-d12-1,C6,d12
874,8220DB000340,"Townsend Street, stop 340",53.34597512,-6.256017478,12517.3.60-C6-d12-1.353.I,28:48:30,28:48:30,60, Ringsend Road,27219.55,60-C6-d12-1,C6,d12
875,8220DB007861,"Prince's St South, stop 7861",53.34561679,-6.249348317,12517.3.60-C6-d12-1.353.I,28:49:32,28:49:32,61, Ringsend Road,27663.65,60-C6-d12-1,C6,d12
876,8220DB000351,"Erne Street, stop 351",53.34341826,-6.245308174,12517.3.60-C6-d12-1.353.I,28:50:27,28:50:27,62, Ringsend Road,28030.22,60-C6-d12-1,C6,d12
877,8220DB000352,"Pearse Square, stop 352",53.34298915,-6.24241214,12517.3.60-C6-d12-1.353.I,28:50:45,28:50:45,63, Ringsend Road,28231.28,60-C6-d12-1,C6,d12
878,8220DB000353,"Grand Canal Quay, stop 353",53.34264501,-6.239798018,12517.3.60-C6-d12-1.353.I,28:51:01,28:51:01,64, Ringsend Road,28407.56,60-C6-d12-1,C6,d12
879,8220DB000354,"Ringsend Road, stop 354",53.34223583,-6.23643569,12517.3.60-C6-d12-1.353.I,28:51:21,28:51:21,65, Ringsend Road,28635.61,60-C6-d12-1,C6,d12
1068,8230DB003943,"Dept of Agriculture, stop 3943",53.3470719,-6.494294919,17447.2.60-C6-b12-1.353.I,26:20:10,26:20:10,24, Ringsend Road,9688.69,60-C6-b12-1,C6,b12
1069,8230DB003945,"Weston Aerodrome, stop 3945",53.35370171,-6.479865358,17447.2.60-C6-b12-1.353.I,26:21:30,26:21:30,25, Ringsend Road,10903.01,60-C6-b12-1,C6,b12
1070,8230DB003946,"Weston Estate, stop 3946",53.35611534,-6.475317639,17447.2.60-C6-b12-1.353.I,26:22:05,26:22:05,26, Ringsend Road,11309.43,60-C6-b12-1,C6,b12
1071,8230DB004001,"Liffey Valley Golf, stop 4001",53.35892285,-6.472062381,17447.2.60-C6-b12-1.353.I,26:22:56,26:22:56,28, Ringsend Road,11914.2,60-C6-b12-1,C6,b12
1072,8230DB003949,"Leixlip Road, stop 3949",53.35551692,-6.460211074,17447.2.60-C6-b12-1.353.I,26:24:05,26:24:05,29, Ringsend Road,12795.89,60-C6-b12-1,C6,b12
1073,8230DB003950,"Ball Alley House, stop 3950",53.35560249,-6.455010094,17447.2.60-C6-b12-1.353.I,26:24:35,26:24:35,30, Ringsend Road,13153.84,60-C6-b12-1,C6,b12
1074,8230DB003372,"Lucan Village, stop 3372",53.35656433,-6.448094691,17447.2.60-C6-b12-1.353.I,26:25:14,26:25:14,31, Ringsend Road,13625.44,60-C6-b12-1,C6,b12
1075,8230DB003373,"Lucan Heights, stop 3373",53.35808279,-6.441849744,17447.2.60-C6-b12-1.353.I,26:25:47,26:25:47,32, Ringsend Road,14099.03,60-C6-b12-1,C6,b12
1076,8230DB003374,"St Mary's Church, stop 3374",53.35963427,-6.439524473,17447.2.60-C6-b12-1.353.I,26:26:09,26:26:09,33, Ringsend Road,14330.39,60-C6-b12-1,C6,b12
1077,8230DB002233,"Chalet Gardens, stop 2233",53.3600895,-6.435165776,17447.2.60-C6-b12-1.353.I,26:26:36,26:26:36,34, Ringsend Road,14626.32,60-C6-b12-1,C6,b12
1078,8230DB002232,"Ballydowd Grove, stop 2232",53.35973763,-6.430956834,17447.2.60-C6-b12-1.353.I,26:27:06,26:27:06,35, Ringsend Road,14911.83,60-C6-b12-1,C6,b12
1079,8230DB002234,"Lucan Retail Park, stop 2234",53.35933655,-6.424390974,17447.2.60-C6-b12-1.353.I,26:27:53,26:27:53,36, Ringsend Road,15349.14,60-C6-b12-1,C6,b12
1080,8230DB002236,"Hermitage Bridge, stop 2236",53.35886946,-6.410856513,17447.2.60-C6-b12-1.353.I,26:29:04,26:29:04,37, Ringsend Road,16268.89,60-C6-b12-1,C6,b12
1081,8230DB005056,"Hermitage Clinic, stop 5056",53.35752149,-6.402793928,17447.2.60-C6-b12-1.353.I,26:29:48,26:29:48,38, Ringsend Road,16827.55,60-C6-b12-1,C6,b12
1082,8230DB002239,"Liffey Valley SC, stop 2239",53.35616847,-6.3917274,17447.2.60-C6-b12-1.353.I,26:30:49,26:30:49,39, Ringsend Road,17646.8,60-C6-b12-1,C6,b12
1083,8230DB002241,"Kennelsfort Road, stop 2241",53.35492926,-6.371268023,17447.2.60-C6-b12-1.353.I,26:32:28,26:32:28,40, Ringsend Road,19066.21,60-C6-b12-1,C6,b12
1084,8230DB002242,"The Oval, stop 2242",53.35392732,-6.367009818,17447.2.60-C6-b12-1.353.I,26:32:51,26:32:51,41, Ringsend Road,19371.62,60-C6-b12-1,C6,b12
1085,8220DB002243,"Glenaulin, stop 2243",53.35197438,-6.355697995,17447.2.60-C6-b12-1.353.I,26:34:18,26:34:18,42, Ringsend Road,20165.26,60-C6-b12-1,C6,b12
1086,8220DB002244,"Belgrove Park, stop 2244",53.35088435,-6.351609074,17447.2.60-C6-b12-1.353.I,26:34:50,26:34:50,43, Ringsend Road,20462.36,60-C6-b12-1,C6,b12
1087,8220DB002245,"Laurence Brook, stop 2245",53.3494632,-6.348284211,17447.2.60-C6-b12-1.353.I,26:35:16,26:35:16,44, Ringsend Road,20734.71,60-C6-b12-1,C6,b12
1088,8220DB002246,"Chapelizod, stop 2246",53.34831131,-6.343642354,17447.2.60-C6-b12-1.353.I,26:35:55,26:35:55,45, Ringsend Road,21147.73,60-C6-b12-1,C6,b12
1089,8220DB002247,"St Mary's Hospital, stop 2247",53.34675286,-6.336282916,17447.2.60-C6-b12-1.353.I,26:36:37,26:36:37,46, Ringsend Road,21684.2,60-C6-b12-1,C6,b12
1090,8220DB002248,"Military Road, stop 2248",53.34632093,-6.327888637,17447.2.60-C6-b12-1.353.I,26:37:22,26:37:22,47, Ringsend Road,22242.73,60-C6-b12-1,C6,b12
1091,8220DB002249,"Garda Boat Club, stop 2249",53.3465317,-6.321136449,17447.2.60-C6-b12-1.353.I,26:37:49,26:37:49,48, Ringsend Road,22693.91,60-C6-b12-1,C6,b12
1092,8220DB002250,"Salmon Pool, stop 2250",53.34743859,-6.31533304,17447.2.60-C6-b12-1.353.I,26:38:13,26:38:13,49, Ringsend Road,23092.77,60-C6-b12-1,C6,b12
1093,8220DB002251,"Islandbridge Gate, stop 2251",53.34813204,-6.310979792,17447.2.60-C6-b12-1.353.I,26:38:46,26:38:46,50, Ringsend Road,23391.19,60-C6-b12-1,C6,b12
1094,8220DB001472,"Conyngham Road, stop 1472",53.34842947,-6.30596617,17447.2.60-C6-b12-1.353.I,26:39:23,26:39:23,51, Ringsend Road,23725.1,60-C6-b12-1,C6,b12
1095,8220DB004408,"Phoenix House, stop 4408",53.34833336,-6.30110331,17447.2.60-C6-b12-1.353.I,26:39:48,26:39:48,52, Ringsend Road,24047.14,60-C6-b12-1,C6,b12
1096,8220DB001473,"Phoenix Park Gate, stop 1473",53.34830598,-6.298550899,17447.2.60-C6-b12-1.353.I,26:40:01,26:40:01,53, Ringsend Road,24216.59,60-C6-b12-1,C6,b12
1097,8220DB001474,"Parkgate Street, stop 1474",53.34794792,-6.292361705,17447.2.60-C6-b12-1.353.I,26:40:38,26:40:38,54, Ringsend Road,24628.98,60-C6-b12-1,C6,b12
1098,8220DB001476,"Sarsfield Quay, stop 1476",53.34707369,-6.284676275,17447.2.60-C6-b12-1.353.I,26:41:24,26:41:24,55, Ringsend Road,25157.24,60-C6-b12-1,C6,b12
1099,8220DB007854,"Arran Quay, stop 7854",53.34636761,-6.278711665,17447.2.60-C6-b12-1.353.I,26:42:19,26:42:19,56, Ringsend Road,25559.97,60-C6-b12-1,C6,b12
1100,8220DB007856,"Four Courts, stop 7856",53.34562262,-6.273184391,17447.2.60-C6-b12-1.353.I,26:43:13,26:43:13,57, Ringsend Road,25939.4,60-C6-b12-1,C6,b12
1101,8220DB007883,"Ormond Quay, stop 7883",53.346058,-6.268495617,17447.2.60-C6-b12-1.353.I,26:44:04,26:44:04,58, Ringsend Road,26258.63,60-C6-b12-1,C6,b12
1102,8220DB000315,"Bachelors Walk, stop 315",53.34702829,-6.261667155,17447.2.60-C6-b12-1.353.I,26:45:19,26:45:19,59, Ringsend Road,26728.83,60-C6-b12-1,C6,b12
1103,8220DB000340,"Townsend Street, stop 340",53.34597512,-6.256017478,17447.2.60-C6-b12-1.353.I,26:48:05,26:48:05,60, Ringsend Road,27219.55,60-C6-b12-1,C6,b12
1104,8220DB007861,"Prince's St South, stop 7861",53.34561679,-6.249348317,17447.2.60-C6-b12-1.353.I,26:49:15,26:49:15,61, Ringsend Road,27663.65,60-C6-b12-1,C6,b12
1105,8220DB000351,"Erne Street, stop 351",53.34341826,-6.245308174,17447.2.60-C6-b12-1.353.I,26:50:16,26:50:16,62, Ringsend Road,28030.22,60-C6-b12-1,C6,b12
1106,8220DB000352,"Pearse Square, stop 352",53.34298915,-6.24241214,17447.2.60-C6-b12-1.353.I,26:50:38,26:50:38,63, Ringsend Road,28231.28,60-C6-b12-1,C6,b12
1107,8220DB000353,"Grand Canal Quay, stop 353",53.34264501,-6.239798018,17447.2.60-C6-b12-1.353.I,26:50:58,26:50:58,64, Ringsend Road,28407.56,60-C6-b12-1,C6,b12
1108,8220DB000354,"Ringsend Road, stop 354",53.34223583,-6.23643569,17447.2.60-C6-b12-1.353.I,26:51:22,26:51:22,65, Ringsend Road,28635.61,60-C6-b12-1,C6,b12
1109,8230DB003943,"Dept of Agriculture, stop 3943",53.3470719,-6.494294919,17447.2.60-C6-d12-1.353.I,26:20:10,26:20:10,24, Ringsend Road,9688.69,60-C6-d12-1,C6,d12
1110,8230DB003945,"Weston Aerodrome, stop 3945",53.35370171,-6.479865358,17447.2.60-C6-d12-1.353.I,26:21:30,26:21:30,25, Ringsend Road,10903.01,60-C6-d12-1,C6,d12
1111,8230DB003946,"Weston Estate, stop 3946",53.35611534,-6.475317639,17447.2.60-C6-d12-1.353.I,26:22:05,26:22:05,26, Ringsend Road,11309.43,60-C6-d12-1,C6,d12
1112,8230DB004001,"Liffey Valley Golf, stop 4001",53.35892285,-6.472062381,17447.2.60-C6-d12-1.353.I,26:22:56,26:22:56,28, Ringsend Road,11914.2,60-C6-d12-1,C6,d12
1113,8230DB003949,"Leixlip Road, stop 3949",53.35551692,-6.460211074,17447.2.60-C6-d12-1.353.I,26:24:05,26:24:05,29, Ringsend Road,12795.89,60-C6-d12-1,C6,d12
1114,8230DB003950,"Ball Alley House, stop 3950",53.35560249,-6.455010094,17447.2.60-C6-d12-1.353.I,26:24:35,26:24:35,30, Ringsend Road,13153.84,60-C6-d12-1,C6,d12
1115,8230DB003372,"Lucan Village, stop 3372",53.35656433,-6.448094691,17447.2.60-C6-d12-1.353.I,26:25:14,26:25:14,31, Ringsend Road,13625.44,60-C6-d12-1,C6,d12
1116,8230DB003373,"Lucan Heights, stop 3373",53.35808279,-6.441849744,17447.2.60-C6-d12-1.353.I,26:25:47,26:25:47,32, Ringsend Road,14099.03,60-C6-d12-1,C6,d12
1117,8230DB003374,"St Mary's Church, stop 3374",53.35963427,-6.439524473,17447.2.60-C6-d12-1.353.I,26:26:09,26:26:09,33, Ringsend Road,14330.39,60-C6-d12-1,C6,d12
1118,8230DB002233,"Chalet Gardens, stop 2233",53.3600895,-6.435165776,17447.2.60-C6-d12-1.353.I,26:26:36,26:26:36,34, Ringsend Road,14626.32,60-C6-d12-1,C6,d12
1119,8230DB002232,"Ballydowd Grove, stop 2232",53.35973763,-6.430956834,17447.2.60-C6-d12-1.353.I,26:27:06,26:27:06,35, Ringsend Road,14911.83,60-C6-d12-1,C6,d12
1120,8230DB002234,"Lucan Retail Park, stop 2234",53.35933655,-6.424390974,17447.2.60-C6-d12-1.353.I,26:27:53,26:27:53,36, Ringsend Road,15349.14,60-C6-d12-1,C6,d12
1121,8230DB002236,"Hermitage Bridge, stop 2236",53.35886946,-6.410856513,17447.2.60-C6-d12-1.353.I,26:29:04,26:29:04,37, Ringsend Road,16268.89,60-C6-d12-1,C6,d12
1122,8230DB005056,"Hermitage Clinic, stop 5056",53.35752149,-6.402793928,17447.2.60-C6-d12-1.353.I,26:29:48,26:29:48,38, Ringsend Road,16827.55,60-C6-d12-1,C6,d12
1123,8230DB002239,"Liffey Valley SC, stop 2239",53.35616847,-6.3917274,17447.2.60-C6-d12-1.353.I,26:30:49,26:30:49,39, Ringsend Road,17646.8,60-C6-d12-1,C6,d12
1124,8230DB002241,"Kennelsfort Road, stop 2241",53.35492926,-6.371268023,17447.2.60-C6-d12-1.353.I,26:32:28,26:32:28,40, Ringsend Road,19066.21,60-C6-d12-1,C6,d12
1125,8230DB002242,"The Oval, stop 2242",53.35392732,-6.367009818,17447.2.60-C6-d12-1.353.I,26:32:51,26:32:51,41, Ringsend Road,19371.62,60-C6-d12-1,C6,d12
1126,8220DB002243,"Glenaulin, stop 2243",53.35197438,-6.355697995,17447.2.60-C6-d12-1.353.I,26:34:18,26:34:18,42, Ringsend Road,20165.26,60-C6-d12-1,C6,d12
1127,8220DB002244,"Belgrove Park, stop 2244",53.35088435,-6.351609074,17447.2.60-C6-d12-1.353.I,26:34:50,26:34:50,43, Ringsend Road,20462.36,60-C6-d12-1,C6,d12
1128,8220DB002245,"Laurence Brook, stop 2245",53.3494632,-6.348284211,17447.2.60-C6-d12-1.353.I,26:35:16,26:35:16,44, Ringsend Road,20734.71,60-C6-d12-1,C6,d12
1129,8220DB002246,"Chapelizod, stop 2246",53.34831131,-6.343642354,17447.2.60-C6-d12-1.353.I,26:35:55,26:35:55,45, Ringsend Road,21147.73,60-C6-d12-1,C6,d12
1130,8220DB002247,"St Mary's Hospital, stop 2247",53.34675286,-6.336282916,17447.2.60-C6-d12-1.353.I,26:36:37,26:36:37,46, Ringsend Road,21684.2,60-C6-d12-1,C6,d12
1131,8220DB002248,"Military Road, stop 2248",53.34632093,-6.327888637,17447.2.60-C6-d12-1.353.I,26:37:22,26:37:22,47, Ringsend Road,22242.73,60-C6-d12-1,C6,d12
1132,8220DB002249,"Garda Boat Club, stop 2249",53.3465317,-6.321136449,17447.2.60-C6-d12-1.353.I,26:37:49,26:37:49,48, Ringsend Road,22693.91,60-C6-d12-1,C6,d12
1133,8220DB002250,"Salmon Pool, stop 2250",53.34743859,-6.31533304,17447.2.60-C6-d12-1.353.I,26:38:13,26:38:13,49, Ringsend Road,23092.77,60-C6-d12-1,C6,d12
1134,8220DB002251,"Islandbridge Gate, stop 2251",53.34813204,-6.310979792,17447.2.60-C6-d12-1.353.I,26:38:46,26:38:46,50, Ringsend Road,23391.19,60-C6-d12-1,C6,d12
1135,8220DB001472,"Conyngham Road, stop 1472",53.34842947,-6.30596617,17447.2.60-C6-d12-1.353.I,26:39:23,26:39:23,51, Ringsend Road,23725.1,60-C6-d12-1,C6,d12
1136,8220DB004408,"Phoenix House, stop 4408",53.34833336,-6.30110331,17447.2.60-C6-d12-1.353.I,26:39:48,26:39:48,52, Ringsend Road,24047.14,60-C6-d12-1,C6,d12
1137,8220DB001473,"Phoenix Park Gate, stop 1473",53.34830598,-6.298550899,17447.2.60-C6-d12-1.353.I,26:40:01,26:40:01,53, Ringsend Road,24216.59,60-C6-d12-1,C6,d12
1138,8220DB001474,"Parkgate Street, stop 1474",53.34794792,-6.292361705,17447.2.60-C6-d12-1.353.I,26:40:38,26:40:38,54, Ringsend Road,24628.98,60-C6-d12-1,C6,d12
1139,8220DB001476,"Sarsfield Quay, stop 1476",53.34707369,-6.284676275,17447.2.60-C6-d12-1.353.I,26:41:24,26:41:24,55, Ringsend Road,25157.24,60-C6-d12-1,C6,d12
1140,8220DB007854,"Arran Quay, stop 7854",53.34636761,-6.278711665,17447.2.60-C6-d12-1.353.I,26:42:19,26:42:19,56, Ringsend Road,25559.97,60-C6-d12-1,C6,d12
1141,8220DB007856,"Four Courts, stop 7856",53.34562262,-6.273184391,17447.2.60-C6-d12-1.353.I,26:43:13,26:43:13,57, Ringsend Road,25939.4,60-C6-d12-1,C6,d12
1142,8220DB007883,"Ormond Quay, stop 7883",53.346058,-6.268495617,17447.2.60-C6-d12-1.353.I,26:44:04,26:44:04,58, Ringsend Road,26258.63,60-C6-d12-1,C6,d12
1143,8220DB000315,"Bachelors Walk, stop 315",53.34702829,-6.261667155,17447.2.60-C6-d12-1.353.I,26:45:19,26:45:19,59, Ringsend Road,26728.83,60-C6-d12-1,C6,d12
1144,8220DB000340,"Townsend Street, stop 340",53.34597512,-6.256017478,17447.2.60-C6-d12-1.353.I,26:48:05,26:48:05,60, Ringsend Road,27219.55,60-C6-d12-1,C6,d12
1145,8220DB007861,"Prince's St South, stop 7861",53.34561679,-6.249348317,17447.2.60-C6-d12-1.353.I,26:49:15,26:49:15,61, Ringsend Road,27663.65,60-C6-d12-1,C6,d12
1146,8220DB000351,"Erne Street, stop 351",53.34341826,-6.245308174,17447.2.60-C6-d12-1.353.I,26:50:16,26:50:16,62, Ringsend Road,28030.22,60-C6-d12-1,C6,d12
1147,8220DB000352,"Pearse Square, stop 352",53.34298915,-6.24241214,17447.2.60-C6-d12-1.353.I,26:50:38,26:50:38,63, Ringsend Road,28231.28,60-C6-d12-1,C6,d12
1148,8220DB000353,"Grand Canal Quay, stop 353",53.34264501,-6.239798018,17447.2.60-C6-d12-1.353.I,26:50:58,26:50:58,64, Ringsend Road,28407.56,60-C6-d12-1,C6,d12
1149,8220DB000354,"Ringsend Road, stop 354",53.34223583,-6.23643569,17447.2.60-C6-d12-1.353.I,26:51:22,26:51:22,65, Ringsend Road,28635.61,60-C6-d12-1,C6,d12
1150,8230DB003943,"Dept of Agriculture, stop 3943",53.3470719,-6.494294919,17450.2.60-C6-b12-1.353.I,27:20:10,27:20:10,24, Ringsend Road,9688.69,60-C6-b12-1,C6,b12
1151,8230DB003945,"Weston Aerodrome, stop 3945",53.35370171,-6.479865358,17450.2.60-C6-b12-1.353.I,27:21:30,27:21:30,25, Ringsend Road,10903.01,60-C6-b12-1,C6,b12
1152,8230DB003946,"Weston Estate, stop 3946",53.35611534,-6.475317639,17450.2.60-C6-b12-1.353.I,27:22:05,27:22:05,26, Ringsend Road,11309.43,60-C6-b12-1,C6,b12
1153,8230DB004001,"Liffey Valley Golf, stop 4001",53.35892285,-6.472062381,17450.2.60-C6-b12-1.353.I,27:22:56,27:22:56,28, Ringsend Road,11914.2,60-C6-b12-1,C6,b12
1154,8230DB003949,"Leixlip Road, stop 3949",53.35551692,-6.460211074,17450.2.60-C6-b12-1.353.I,27:24:05,27:24:05,29, Ringsend Road,12795.89,60-C6-b12-1,C6,b12
1155,8230DB003950,"Ball Alley House, stop 3950",53.35560249,-6.455010094,17450.2.60-C6-b12-1.353.I,27:24:35,27:24:35,30, Ringsend Road,13153.84,60-C6-b12-1,C6,b12
1156,8230DB003372,"Lucan Village, stop 3372",53.35656433,-6.448094691,17450.2.60-C6-b12-1.353.I,27:25:14,27:25:14,31, Ringsend Road,13625.44,60-C6-b12-1,C6,b12
1157,8230DB003373,"Lucan Heights, stop 3373",53.35808279,-6.441849744,17450.2.60-C6-b12-1.353.I,27:25:47,27:25:47,32, Ringsend Road,14099.03,60-C6-b12-1,C6,b12
1158,8230DB003374,"St Mary's Church, stop 3374",53.35963427,-6.439524473,17450.2.60-C6-b12-1.353.I,27:26:09,27:26:09,33, Ringsend Road,14330.39,60-C6-b12-1,C6,b12
1159,8230DB002233,"Chalet Gardens, stop 2233",53.3600895,-6.435165776,17450.2.60-C6-b12-1.353.I,27:26:36,27:26:36,34, Ringsend Road,14626.32,60-C6-b12-1,C6,b12
1160,8230DB002232,"Ballydowd Grove, stop 2232",53.35973763,-6.430956834,17450.2.60-C6-b12-1.353.I,27:27:06,27:27:06,35, Ringsend Road,14911.83,60-C6-b12-1,C6,b12
1161,8230DB002234,"Lucan Retail Park, stop 2234",53.35933655,-6.424390974,17450.2.60-C6-b12-1.353.I,27:27:53,27:27:53,36, Ringsend Road,15349.14,60-C6-b12-1,C6,b12
1162,8230DB002236,"Hermitage Bridge, stop 2236",53.35886946,-6.410856513,17450.2.60-C6-b12-1.353.I,27:29:04,27:29:04,37, Ringsend Road,16268.89,60-C6-b12-1,C6,b12
1163,8230DB005056,"Hermitage Clinic, stop 5056",53.35752149,-6.402793928,17450.2.60-C6-b12-1.353.I,27:29:48,27:29:48,38, Ringsend Road,16827.55,60-C6-b12-1,C6,b12
1164,8230DB002239,"Liffey Valley SC, stop 2239",53.35616847,-6.3917274,17450.2.60-C6-b12-1.353.I,27:30:49,27:30:49,39, Ringsend Road,17646.8,60-C6-b12-1,C6,b12
1165,8230DB002241,"Kennelsfort Road, stop 2241",53.35492926,-6.371268023,17450.2.60-C6-b12-1.353.I,27:32:28,27:32:28,40, Ringsend Road,19066.21,60-C6-b12-1,C6,b12
1166,8230DB002242,"The Oval, stop 2242",53.35392732,-6.367009818,17450.2.60-C6-b12-1.353.I,27:32:51,27:32:51,41, Ringsend Road,19371.62,60-C6-b12-1,C6,b12
1167,8220DB002243,"Glenaulin, stop 2243",53.35197438,-6.355697995,17450.2.60-C6-b12-1.353.I,27:34:18,27:34:18,42, Ringsend Road,20165.26,60-C6-b12-1,C6,b12
1168,8220DB002244,"Belgrove Park, stop 2244",53.35088435,-6.351609074,17450.2.60-C6-b12-1.353.I,27:34:50,27:34:50,43, Ringsend Road,20462.36,60-C6-b12-1,C6,b12
1169,8220DB002245,"Laurence Brook, stop 2245",53.3494632,-6.348284211,17450.2.60-C6-b12-1.353.I,27:35:16,27:35:16,44, Ringsend Road,20734.71,60-C6-b12-1,C6,b12
1170,8220DB002246,"Chapelizod, stop 2246",53.34831131,-6.343642354,17450.2.60-C6-b12-1.353.I,27:35:55,27:35:55,45, Ringsend Road,21147.73,60-C6-b12-1,C6,b12
1171,8220DB002247,"St Mary's Hospital, stop 2247",53.34675286,-6.336282916,17450.2.60-C6-b12-1.353.I,27:36:37,27:36:37,46, Ringsend Road,21684.2,60-C6-b12-1,C6,b12
1172,8220DB002248,"Military Road, stop 2248",53.34632093,-6.327888637,17450.2.60-C6-b12-1.353.I,27:37:22,27:37:22,47, Ringsend Road,22242.73,60-C6-b12-1,C6,b12
1173,8220DB002249,"Garda Boat Club, stop 2249",53.3465317,-6.321136449,17450.2.60-C6-b12-1.353.I,27:37:49,27:37:49,48, Ringsend Road,22693.91,60-C6-b12-1,C6,b12
1174,8220DB002250,"Salmon Pool, stop 2250",53.34743859,-6.31533304,17450.2.60-C6-b12-1.353.I,27:38:13,27:38:13,49, Ringsend Road,23092.77,60-C6-b12-1,C6,b12
1175,8220DB002251,"Islandbridge Gate, stop 2251",53.34813204,-6.310979792,17450.2.60-C6-b12-1.353.I,27:38:46,27:38:46,50, Ringsend Road,23391.19,60-C6-b12-1,C6,b12
1176,8220DB001472,"Conyngham Road, stop 1472",53.34842947,-6.30596617,17450.2.60-C6-b12-1.353.I,27:39:23,27:39:23,51, Ringsend Road,23725.1,60-C6-b12-1,C6,b12
1177,8220DB004408,"Phoenix House, stop 4408",53.34833336,-6.30110331,17450.2.60-C6-b12-1.353.I,27:39:48,27:39:48,52, Ringsend Road,24047.14,60-C6-b12-1,C6,b12
1178,8220DB001473,"Phoenix Park Gate, stop 1473",53.34830598,-6.298550899,17450.2.60-C6-b12-1.353.I,27:40:01,27:40:01,53, Ringsend Road,24216.59,60-C6-b12-1,C6,b12
1179,8220DB001474,"Parkgate Street, stop 1474",53.34794792,-6.292361705,17450.2.60-C6-b12-1.353.I,27:40:38,27:40:38,54, Ringsend Road,24628.98,60-C6-b12-1,C6,b12
1180,8220DB001476,"Sarsfield Quay, stop 1476",53.34707369,-6.284676275,17450.2.60-C6-b12-1.353.I,27:41:24,27:41:24,55, Ringsend Road,25157.24,60-C6-b12-1,C6,b12
1181,8220DB007854,"Arran Quay, stop 7854",53.34636761,-6.278711665,17450.2.60-C6-b12-1.353.I,27:42:19,27:42:19,56, Ringsend Road,25559.97,60-C6-b12-1,C6,b12
1182,8220DB007856,"Four Courts, stop 7856",53.34562262,-6.273184391,17450.2.60-C6-b12-1.353.I,27:43:13,27:43:13,57, Ringsend Road,25939.4,60-C6-b12-1,C6,b12
1183,8220DB007883,"Ormond Quay, stop 7883",53.346058,-6.268495617,17450.2.60-C6-b12-1.353.I,27:44:04,27:44:04,58, Ringsend Road,26258.63,60-C6-b12-1,C6,b12
1184,8220DB000315,"Bachelors Walk, stop 315",53.34702829,-6.261667155,17450.2.60-C6-b12-1.353.I,27:45:19,27:45:19,59, Ringsend Road,26728.83,60-C6-b12-1,C6,b12
1185,8220DB000340,"Townsend Street, stop 340",53.34597512,-6.256017478,17450.2.60-C6-b12-1.353.I,27:48:05,27:48:05,60, Ringsend Road,27219.55,60-C6-b12-1,C6,b12
1186,8220DB007861,"Prince's St South, stop 7861",53.34561679,-6.249348317,17450.2.60-C6-b12-1.353.I,27:49:15,27:49:15,61, Ringsend Road,27663.65,60-C6-b12-1,C6,b12
1187,8220DB000351,"Erne Street, stop 351",53.34341826,-6.245308174,17450.2.60-C6-b12-1.353.I,27:50:16,27:50:16,62, Ringsend Road,28030.22,60-C6-b12-1,C6,b12
1188,8220DB000352,"Pearse Square, stop 352",53.34298915,-6.24241214,17450.2.60-C6-b12-1.353.I,27:50:38,27:50:38,63, Ringsend Road,28231.28,60-C6-b12-1,C6,b12
1189,8220DB000353,"Grand Canal Quay, stop 353",53.34264501,-6.239798018,17450.2.60-C6-b12-1.353.I,27:50:58,27:50:58,64, Ringsend Road,28407.56,60-C6-b12-1,C6,b12
1190,8220DB000354,"Ringsend Road, stop 354",53.34223583,-6.23643569,17450.2.60-C6-b12-1.353.I,27:51:22,27:51:22,65, Ringsend Road,28635.61,60-C6-b12-1,C6,b12
1191,8230DB003943,"Dept of Agriculture, stop 3943",53.3470719,-6.494294919,17450.2.60-C6-d12-1.353.I,27:20:10,27:20:10,24, Ringsend Road,9688.69,60-C6-d12-1,C6,d12
1192,8230DB003945,"Weston Aerodrome, stop 3945",53.35370171,-6.479865358,17450.2.60-C6-d12-1.353.I,27:21:30,27:21:30,25, Ringsend Road,10903.01,60-C6-d12-1,C6,d12
1193,8230DB003946,"Weston Estate, stop 3946",53.35611534,-6.475317639,17450.2.60-C6-d12-1.353.I,27:22:05,27:22:05,26, Ringsend Road,11309.43,60-C6-d12-1,C6,d12
1194,8230DB004001,"Liffey Valley Golf, stop 4001",53.35892285,-6.472062381,17450.2.60-C6-d12-1.353.I,27:22:56,27:22:56,28, Ringsend Road,11914.2,60-C6-d12-1,C6,d12
1195,8230DB003949,"Leixlip Road, stop 3949",53.35551692,-6.460211074,17450.2.60-C6-d12-1.353.I,27:24:05,27:24:05,29, Ringsend Road,12795.89,60-C6-d12-1,C6,d12
1196,8230DB003950,"Ball Alley House, stop 3950",53.35560249,-6.455010094,17450.2.60-C6-d12-1.353.I,27:24:35,27:24:35,30, Ringsend Road,13153.84,60-C6-d12-1,C6,d12
1197,8230DB003372,"Lucan Village, stop 3372",53.35656433,-6.448094691,17450.2.60-C6-d12-1.353.I,27:25:14,27:25:14,31, Ringsend Road,13625.44,60-C6-d12-1,C6,d12
1198,8230DB003373,"Lucan Heights, stop 3373",53.35808279,-6.441849744,17450.2.60-C6-d12-1.353.I,27:25:47,27:25:47,32, Ringsend Road,14099.03,60-C6-d12-1,C6,d12
1199,8230DB003374,"St Mary's Church, stop 3374",53.35963427,-6.439524473,17450.2.60-C6-d12-1.353.I,27:26:09,27:26:09,33, Ringsend Road,14330.39,60-C6-d12-1,C6,d12
1200,8230DB002233,"Chalet Gardens, stop 2233",53.3600895,-6.435165776,17450.2.60-C6-d12-1.353.I,27:26:36,27:26:36,34, Ringsend Road,14626.32,60-C6-d12-1,C6,d12
1201,8230DB002232,"Ballydowd Grove, stop 2232",53.35973763,-6.430956834,17450.2.60-C6-d12-1.353.I,27:27:06,27:27:06,35, Ringsend Road,14911.83,60-C6-d12-1,C6,d12
1202,8230DB002234,"Lucan Retail Park, stop 2234",53.35933655,-6.424390974,17450.2.60-C6-d12-1.353.I,27:27:53,27:27:53,36, Ringsend Road,15349.14,60-C6-d12-1,C6,d12
1203,8230DB002236,"Hermitage Bridge, stop 2236",53.35886946,-6.410856513,17450.2.60-C6-d12-1.353.I,27:29:04,27:29:04,37, Ringsend Road,16268.89,60-C6-d12-1,C6,d12
1204,8230DB005056,"Hermitage Clinic, stop 5056",53.35752149,-6.402793928,17450.2.60-C6-d12-1.353.I,27:29:48,27:29:48,38, Ringsend Road,16827.55,60-C6-d12-1,C6,d12
1205,8230DB002239,"Liffey Valley SC, stop 2239",53.35616847,-6.3917274,17450.2.60-C6-d12-1.353.I,27:30:49,27:30:49,39, Ringsend Road,17646.8,60-C6-d12-1,C6,d12
1206,8230DB002241,"Kennelsfort Road, stop 2241",53.35492926,-6.371268023,17450.2.60-C6-d12-1.353.I,27:32:28,27:32:28,40, Ringsend Road,19066.21,60-C6-d12-1,C6,d12
1207,8230DB002242,"The Oval, stop 2242",53.35392732,-6.367009818,17450.2.60-C6-d12-1.353.I,27:32:51,27:32:51,41, Ringsend Road,19371.62,60-C6-d12-1,C6,d12
1208,8220DB002243,"Glenaulin, stop 2243",53.35197438,-6.355697995,17450.2.60-C6-d12-1.353.I,27:34:18,27:34:18,42, Ringsend Road,20165.26,60-C6-d12-1,C6,d12
1209,8220DB002244,"Belgrove Park, stop 2244",53.35088435,-6.351609074,17450.2.60-C6-d12-1.353.I,27:34:50,27:34:50,43, Ringsend Road,20462.36,60-C6-d12-1,C6,d12
1210,8220DB002245,"Laurence Brook, stop 2245",53.3494632,-6.348284211,17450.2.60-C6-d12-1.353.I,27:35:16,27:35:16,44, Ringsend Road,20734.71,60-C6-d12-1,C6,d12
1211,8220DB002246,"Chapelizod, stop 2246",53.34831131,-6.343642354,17450.2.60-C6-d12-1.353.I,27:35:55,27:35:55,45, Ringsend Road,21147.73,60-C6-d12-1,C6,d12
1212,8220DB002247,"St Mary's Hospital, stop 2247",53.34675286,-6.336282916,17450.2.60-C6-d12-1.353.I,27:36:37,27:36:37,46, Ringsend Road,21684.2,60-C6-d12-1,C6,d12
1213,8220DB002248,"Military Road, stop 2248",53.34632093,-6.327888637,17450.2.60-C6-d12-1.353.I,27:37:22,27:37:22,47, Ringsend Road,22242.73,60-C6-d12-1,C6,d12
1214,8220DB002249,"Garda Boat Club, stop 2249",53.3465317,-6.321136449,17450.2.60-C6-d12-1.353.I,27:37:49,27:37:49,48, Ringsend Road,22693.91,60-C6-d12-1,C6,d12
1215,8220DB002250,"Salmon Pool, stop 2250",53.34743859,-6.31533304,17450.2.60-C6-d12-1.353.I,27:38:13,27:38:13,49, Ringsend Road,23092.77,60-C6-d12-1,C6,d12
1216,8220DB002251,"Islandbridge Gate, stop 2251",53.34813204,-6.310979792,17450.2.60-C6-d12-1.353.I,27:38:46,27:38:46,50, Ringsend Road,23391.19,60-C6-d12-1,C6,d12
1217,8220DB001472,"Conyngham Road, stop 1472",53.34842947,-6.30596617,17450.2.60-C6-d12-1.353.I,27:39:23,27:39:23,51, Ringsend Road,23725.1,60-C6-d12-1,C6,d12
1218,8220DB004408,"Phoenix House, stop 4408",53.34833336,-6.30110331,17450.2.60-C6-d12-1.353.I,27:39:48,27:39:48,52, Ringsend Road,24047.14,60-C6-d12-1,C6,d12
1219,8220DB001473,"Phoenix Park Gate, stop 1473",53.34830598,-6.298550899,17450.2.60-C6-d12-1.353.I,27:40:01,27:40:01,53, Ringsend Road,24216.59,60-C6-d12-1,C6,d12
1220,8220DB001474,"Parkgate Street, stop 1474",53.34794792,-6.292361705,17450.2.60-C6-d12-1.353.I,27:40:38,27:40:38,54, Ringsend Road,24628.98,60-C6-d12-1,C6,d12
1221,8220DB001476,"Sarsfield Quay, stop 1476",53.34707369,-6.284676275,17450.2.60-C6-d12-1.353.I,27:41:24,27:41:24,55, Ringsend Road,25157.24,60-C6-d12-1,C6,d12
1222,8220DB007854,"Arran Quay, stop 7854",53.34636761,-6.278711665,17450.2.60-C6-d12-1.353.I,27:42:19,27:42:19,56, Ringsend Road,25559.97,60-C6-d12-1,C6,d12
1223,8220DB007856,"Four Courts, stop 7856",53.34562262,-6.273184391,17450.2.60-C6-d12-1.353.I,27:43:13,27:43:13,57, Ringsend Road,25939.4,60-C6-d12-1,C6,d12
1224,8220DB007883,"Ormond Quay, stop 7883",53.346058,-6.268495617,17450.2.60-C6-d12-1.353.I,27:44:04,27:44:04,58, Ringsend Road,26258.63,60-C6-d12-1,C6,d12
1225,8220DB000315,"Bachelors Walk, stop 315",53.34702829,-6.261667155,17450.2.60-C6-d12-1.353.I,27:45:19,27:45:19,59, Ringsend Road,26728.83,60-C6-d12-1,C6,d12
1226,8220DB000340,"Townsend Street, stop 340",53.34597512,-6.256017478,17450.2.60-C6-d12-1.353.I,27:48:05,27:48:05,60, Ringsend Road,27219.55,60-C6-d12-1,C6,d12
1227,8220DB007861,"Prince's St South, stop 7861",53.34561679,-6.249348317,17450.2.60-C6-d12-1.353.I,27:49:15,27:49:15,61, Ringsend Road,27663.65,60-C6-d12-1,C6,d12
1228,8220DB000351,"Erne Street, stop 351",53.34341826,-6.245308174,17450.2.60-C6-d12-1.353.I,27:50:16,27:50:16,62, Ringsend Road,28030.22,60-C6-d12-1,C6,d12
1229,8220DB000352,"Pearse Square, stop 352",53.34298915,-6.24241214,17450.2.60-C6-d12-1.353.I,27:50:38,27:50:38,63, Ringsend Road,28231.28,60-C6-d12-1,C6,d12
1230,8220DB000353,"Grand Canal Quay, stop 353",53.34264501,-6.239798018,17450.2.60-C6-d12-1.353.I,27:50:58,27:50:58,64, Ringsend Road,28407.56,60-C6-d12-1,C6,d12
1231,8220DB000354,"Ringsend Road, stop 354",53.34223583,-6.23643569,17450.2.60-C6-d12-1.353.I,27:51:22,27:51:22,65, Ringsend Road,28635.61,60-C6-d12-1,C6,d12
1232,8230DB003943,"Dept of Agriculture, stop 3943",53.3470719,-6.494294919,17452.2.60-C6-b12-1.353.I,25:20:10,25:20:10,24, Ringsend Road,9688.69,60-C6-b12-1,C6,b12
1233,8230DB003945,"Weston Aerodrome, stop 3945",53.35370171,-6.479865358,17452.2.60-C6-b12-1.353.I,25:21:30,25:21:30,25, Ringsend Road,10903.01,60-C6-b12-1,C6,b12
1234,8230DB003946,"Weston Estate, stop 3946",53.35611534,-6.475317639,17452.2.60-C6-b12-1.353.I,25:22:05,25:22:05,26, Ringsend Road,11309.43,60-C6-b12-1,C6,b12
1235,8230DB004001,"Liffey Valley Golf, stop 4001",53.35892285,-6.472062381,17452.2.60-C6-b12-1.353.I,25:22:56,25:22:56,28, Ringsend Road,11914.2,60-C6-b12-1,C6,b12
1236,8230DB003949,"Leixlip Road, stop 3949",53.35551692,-6.460211074,17452.2.60-C6-b12-1.353.I,25:24:05,25:24:05,29, Ringsend Road,12795.89,60-C6-b12-1,C6,b12
1237,8230DB003950,"Ball Alley House, stop 3950",53.35560249,-6.455010094,17452.2.60-C6-b12-1.353.I,25:24:35,25:24:35,30, Ringsend Road,13153.84,60-C6-b12-1,C6,b12
1238,8230DB003372,"Lucan Village, stop 3372",53.35656433,-6.448094691,17452.2.60-C6-b12-1.353.I,25:25:14,25:25:14,31, Ringsend Road,13625.44,60-C6-b12-1,C6,b12
1239,8230DB003373,"Lucan Heights, stop 3373",53.35808279,-6.441849744,17452.2.60-C6-b12-1.353.I,25:25:47,25:25:47,32, Ringsend Road,14099.03,60-C6-b12-1,C6,b12
1240,8230DB003374,"St Mary's Church, stop 3374",53.35963427,-6.439524473,17452.2.60-C6-b12-1.353.I,25:26:09,25:26:09,33, Ringsend Road,14330.39,60-C6-b12-1,C6,b12
1241,8230DB002233,"Chalet Gardens, stop 2233",53.3600895,-6.435165776,17452.2.60-C6-b12-1.353.I,25:26:36,25:26:36,34, Ringsend Road,14626.32,60-C6-b12-1,C6,b12
1242,8230DB002232,"Ballydowd Grove, stop 2232",53.35973763,-6.430956834,17452.2.60-C6-b12-1.353.I,25:27:06,25:27:06,35, Ringsend Road,14911.83,60-C6-b12-1,C6,b12
1243,8230DB002234,"Lucan Retail Park, stop 2234",53.35933655,-6.424390974,17452.2.60-C6-b12-1.353.I,25:27:53,25:27:53,36, Ringsend Road,15349.14,60-C6-b12-1,C6,b12
1244,8230DB002236,"Hermitage Bridge, stop 2236",53.35886946,-6.410856513,17452.2.60-C6-b12-1.353.I,25:29:04,25:29:04,37, Ringsend Road,16268.89,60-C6-b12-1,C6,b12
1245,8230DB005056,"Hermitage Clinic, stop 5056",53.35752149,-6.402793928,17452.2.60-C6-b12-1.353.I,25:29:48,25:29:48,38, Ringsend Road,16827.55,60-C6-b12-1,C6,b12
1246,8230DB002239,"Liffey Valley SC, stop 2239",53.35616847,-6.3917274,17452.2.60-C6-b12-1.353.I,25:30:49,25:30:49,39, Ringsend Road,17646.8,60-C6-b12-1,C6,b12
1247,8230DB002241,"Kennelsfort Road, stop 2241",53.35492926,-6.371268023,17452.2.60-C6-b12-1.353.I,25:32:28,25:32:28,40, Ringsend Road,19066.21,60-C6-b12-1,C6,b12
1248,8230DB002242,"The Oval, stop 2242",53.35392732,-6.367009818,17452.2.60-C6-b12-1.353.I,25:32:51,25:32:51,41, Ringsend Road,19371.62,60-C6-b12-1,C6,b12
1249,8220DB002243,"Glenaulin, stop 2243",53.35197438,-6.355697995,17452.2.60-C6-b12-1.353.I,25:34:18,25:34:18,42, Ringsend Road,20165.26,60-C6-b12-1,C6,b12
1250,8220DB002244,"Belgrove Park, stop 2244",53.35088435,-6.351609074,17452.2.60-C6-b12-1.353.I,25:34:50,25:34:50,43, Ringsend Road,20462.36,60-C6-b12-1,C6,b12
1251,8220DB002245,"Laurence Brook, stop 2245",53.3494632,-6.348284211,17452.2.60-C6-b12-1.353.I,25:35:16,25:35:16,44, Ringsend Road,20734.71,60-C6-b12-1,C6,b12
1252,8220DB002246,"Chapelizod, stop 2246",53.34831131,-6.343642354,17452.2.60-C6-b12-1.353.I,25:35:55,25:35:55,45, Ringsend Road,21147.73,60-C6-b12-1,C6,b12
1253,8220DB002247,"St Mary's Hospital, stop 2247",53.34675286,-6.336282916,17452.2.60-C6-b12-1.353.I,25:36:37,25:36:37,46, Ringsend Road,21684.2,60-C6-b12-1,C6,b12
1254,8220DB002248,"Military Road, stop 2248",53.34632093,-6.327888637,17452.2.60-C6-b12-1.353.I,25:37:22,25:37:22,47, Ringsend Road,22242.73,60-C6-b12-1,C6,b12
1255,8220DB002249,"Garda Boat Club, stop 2249",53.3465317,-6.321136449,17452.2.60-C6-b12-1.353.I,25:37:49,25:37:49,48, Ringsend Road,22693.91,60-C6-b12-1,C6,b12
1256,8220DB002250,"Salmon Pool, stop 2250",53.34743859,-6.31533304,17452.2.60-C6-b12-1.353.I,25:38:13,25:38:13,49, Ringsend Road,23092.77,60-C6-b12-1,C6,b12
1257,8220DB002251,"Islandbridge Gate, stop 2251",53.34813204,-6.310979792,17452.2.60-C6-b12-1.353.I,25:38:46,25:38:46,50, Ringsend Road,23391.19,60-C6-b12-1,C6,b12
1258,8220DB001472,"Conyngham Road, stop 1472",53.34842947,-6.30596617,17452.2.60-C6-b12-1.353.I,25:39:23,25:39:23,51, Ringsend Road,23725.1,60-C6-b12-1,C6,b12
1259,8220DB004408,"Phoenix House, stop 4408",53.34833336,-6.30110331,17452.2.60-C6-b12-1.353.I,25:39:48,25:39:48,52, Ringsend Road,24047.14,60-C6-b12-1,C6,b12
1260,8220DB001473,"Phoenix Park Gate, stop 1473",53.34830598,-6.298550899,17452.2.60-C6-b12-1.353.I,25:40:01,25:40:01,53, Ringsend Road,24216.59,60-C6-b12-1,C6,b12
1261,8220DB001474,"Parkgate Street, stop 1474",53.34794792,-6.292361705,17452.2.60-C6-b12-1.353.I,25:40:38,25:40:38,54, Ringsend Road,24628.98,60-C6-b12-1,C6,b12
1262,8220DB001476,"Sarsfield Quay, stop 1476",53.34707369,-6.284676275,17452.2.60-C6-b12-1.353.I,25:41:24,25:41:24,55, Ringsend Road,25157.24,60-C6-b12-1,C6,b12
1263,8220DB007854,"Arran Quay, stop 7854",53.34636761,-6.278711665,17452.2.60-C6-b12-1.353.I,25:42:19,25:42:19,56, Ringsend Road,25559.97,60-C6-b12-1,C6,b12
1264,8220DB007856,"Four Courts, stop 7856",53.34562262,-6.273184391,17452.2.60-C6-b12-1.353.I,25:43:13,25:43:13,57, Ringsend Road,25939.4,60-C6-b12-1,C6,b12
1265,8220DB007883,"Ormond Quay, stop 7883",53.346058,-6.268495617,17452.2.60-C6-b12-1.353.I,25:44:04,25:44:04,58, Ringsend Road,26258.63,60-C6-b12-1,C6,b12
1266,8220DB000315,"Bachelors Walk, stop 315",53.34702829,-6.261667155,17452.2.60-C6-b12-1.353.I,25:45:19,25:45:19,59, Ringsend Road,26728.83,60-C6-b12-1,C6,b12
1267,8220DB000340,"Townsend Street, stop 340",53.34597512,-6.256017478,17452.2.60-C6-b12-1.353.I,25:48:05,25:48:05,60, Ringsend Road,27219.55,60-C6-b12-1,C6,b12
1268,8220DB007861,"Prince's St South, stop 7861",53.34561679,-6.249348317,17452.2.60-C6-b12-1.353.I,25:49:15,25:49:15,61, Ringsend Road,27663.65,60-C6-b12-1,C6,b12
1269,8220DB000351,"Erne Street, stop 351",53.34341826,-6.245308174,17452.2.60-C6-b12-1.353.I,25:50:16,25:50:16,62, Ringsend Road,28030.22,60-C6-b12-1,C6,b12
1270,8220DB000352,"Pearse Square, stop 352",53.34298915,-6.24241214,17452.2.60-C6-b12-1.353.I,25:50:38,25:50:38,63, Ringsend Road,28231.28,60-C6-b12-1,C6,b12
1271,8220DB000353,"Grand Canal Quay, stop 353",53.34264501,-6.239798018,17452.2.60-C6-b12-1.353.I,25:50:58,25:50:58,64, Ringsend Road,28407.56,60-C6-b12-1,C6,b12
1272,8220DB000354,"Ringsend Road, stop 354",53.34223583,-6.23643569,17452.2.60-C6-b12-1.353.I,25:51:22,25:51:22,65, Ringsend Road,28635.61,60-C6-b12-1,C6,b12
1273,8230DB003943,"Dept of Agriculture, stop 3943",53.3470719,-6.494294919,17452.2.60-C6-d12-1.353.I,25:20:10,25:20:10,24, Ringsend Road,9688.69,60-C6-d12-1,C6,d12
1274,8230DB003945,"Weston Aerodrome, stop 3945",53.35370171,-6.479865358,17452.2.60-C6-d12-1.353.I,25:21:30,25:21:30,25, Ringsend Road,10903.01,60-C6-d12-1,C6,d12
1275,8230DB003946,"Weston Estate, stop 3946",53.35611534,-6.475317639,17452.2.60-C6-d12-1.353.I,25:22:05,25:22:05,26, Ringsend Road,11309.43,60-C6-d12-1,C6,d12
1276,8230DB004001,"Liffey Valley Golf, stop 4001",53.35892285,-6.472062381,17452.2.60-C6-d12-1.353.I,25:22:56,25:22:56,28, Ringsend Road,11914.2,60-C6-d12-1,C6,d12
1277,8230DB003949,"Leixlip Road, stop 3949",53.35551692,-6.460211074,17452.2.60-C6-d12-1.353.I,25:24:05,25:24:05,29, Ringsend Road,12795.89,60-C6-d12-1,C6,d12
1278,8230DB003950,"Ball Alley House, stop 3950",53.35560249,-6.455010094,17452.2.60-C6-d12-1.353.I,25:24:35,25:24:35,30, Ringsend Road,13153.84,60-C6-d12-1,C6,d12
1279,8230DB003372,"Lucan Village, stop 3372",53.35656433,-6.448094691,17452.2.60-C6-d12-1.353.I,25:25:14,25:25:14,31, Ringsend Road,13625.44,60-C6-d12-1,C6,d12
1280,8230DB003373,"Lucan Heights, stop 3373",53.35808279,-6.441849744,17452.2.60-C6-d12-1.353.I,25:25:47,25:25:47,32, Ringsend Road,14099.03,60-C6-d12-1,C6,d12
1281,8230DB003374,"St Mary's Church, stop 3374",53.35963427,-6.439524473,17452.2.60-C6-d12-1.353.I,25:26:09,25:26:09,33, Ringsend Road,14330.39,60-C6-d12-1,C6,d12
1282,8230DB002233,"Chalet Gardens, stop 2233",53.3600895,-6.435165776,17452.2.60-C6-d12-1.353.I,25:26:36,25:26:36,34, Ringsend Road,14626.32,60-C6-d12-1,C6,d12
1283,8230DB002232,"Ballydowd Grove, stop 2232",53.35973763,-6.430956834,17452.2.60-C6-d12-1.353.I,25:27:06,25:27:06,35, Ringsend Road,14911.83,60-C6-d12-1,C6,d12
1284,8230DB002234,"Lucan Retail Park, stop 2234",53.35933655,-6.424390974,17452.2.60-C6-d12-1.353.I,25:27:53,25:27:53,36, Ringsend Road,15349.14,60-C6-d12-1,C6,d12
1285,8230DB002236,"Hermitage Bridge, stop 2236",53.35886946,-6.410856513,17452.2.60-C6-d12-1.353.I,25:29:04,25:29:04,37, Ringsend Road,16268.89,60-C6-d12-1,C6,d12
1286,8230DB005056,"Hermitage Clinic, stop 5056",53.35752149,-6.402793928,17452.2.60-C6-d12-1.353.I,25:29:48,25:29:48,38, Ringsend Road,16827.55,60-C6-d12-1,C6,d12
1287,8230DB002239,"Liffey Valley SC, stop 2239",53.35616847,-6.3917274,17452.2.60-C6-d12-1.353.I,25:30:49,25:30:49,39, Ringsend Road,17646.8,60-C6-d12-1,C6,d12
1288,8230DB002241,"Kennelsfort Road, stop 2241",53.35492926,-6.371268023,17452.2.60-C6-d12-1.353.I,25:32:28,25:32:28,40, Ringsend Road,19066.21,60-C6-d12-1,C6,d12
1289,8230DB002242,"The Oval, stop 2242",53.35392732,-6.367009818,17452.2.60-C6-d12-1.353.I,25:32:51,25:32:51,41, Ringsend Road,19371.62,60-C6-d12-1,C6,d12
1290,8220DB002243,"Glenaulin, stop 2243",53.35197438,-6.355697995,17452.2.60-C6-d12-1.353.I,25:34:18,25:34:18,42, Ringsend Road,20165.26,60-C6-d12-1,C6,d12
1291,8220DB002244,"Belgrove Park, stop 2244",53.35088435,-6.351609074,17452.2.60-C6-d12-1.353.I,25:34:50,25:34:50,43, Ringsend Road,20462.36,60-C6-d12-1,C6,d12
1292,8220DB002245,"Laurence Brook, stop 2245",53.3494632,-6.348284211,17452.2.60-C6-d12-1.353.I,25:35:16,25:35:16,44, Ringsend Road,20734.71,60-C6-d12-1,C6,d12
1293,8220DB002246,"Chapelizod, stop 2246",53.34831131,-6.343642354,17452.2.60-C6-d12-1.353.I,25:35:55,25:35:55,45, Ringsend Road,21147.73,60-C6-d12-1,C6,d12
1294,8220DB002247,"St Mary's Hospital, stop 2247",53.34675286,-6.336282916,17452.2.60-C6-d12-1.353.I,25:36:37,25:36:37,46, Ringsend Road,21684.2,60-C6-d12-1,C6,d12
1295,8220DB002248,"Military Road, stop 2248",53.34632093,-6.327888637,17452.2.60-C6-d12-1.353.I,25:37:22,25:37:22,47, Ringsend Road,22242.73,60-C6-d12-1,C6,d12
1296,8220DB002249,"Garda Boat Club, stop 2249",53.3465317,-6.321136449,17452.2.60-C6-d12-1.353.I,25:37:49,25:37:49,48, Ringsend Road,22693.91,60-C6-d12-1,C6,d12
1297,8220DB002250,"Salmon Pool, stop 2250",53.34743859,-6.31533304,17452.2.60-C6-d12-1.353.I,25:38:13,25:38:13,49, Ringsend Road,23092.77,60-C6-d12-1,C6,d12
1298,8220DB002251,"Islandbridge Gate, stop 2251",53.34813204,-6.310979792,17452.2.60-C6-d12-1.353.I,25:38:46,25:38:46,50, Ringsend Road,23391.19,60-C6-d12-1,C6,d12
1299,8220DB001472,"Conyngham Road, stop 1472",53.34842947,-6.30596617,17452.2.60-C6-d12-1.353.I,25:39:23,25:39:23,51, Ringsend Road,23725.1,60-C6-d12-1,C6,d12
1300,8220DB004408,"Phoenix House, stop 4408",53.34833336,-6.30110331,17452.2.60-C6-d12-1.353.I,25:39:48,25:39:48,52, Ringsend Road,24047.14,60-C6-d12-1,C6,d12
1301,8220DB001473,"Phoenix Park Gate, stop 1473",53.34830598,-6.298550899,17452.2.60-C6-d12-1.353.I,25:40:01,25:40:01,53, Ringsend Road,24216.59,60-C6-d12-1,C6,d12
1302,8220DB001474,"Parkgate Street, stop 1474",53.34794792,-6.292361705,17452.2.60-C6-d12-1.353.I,25:40:38,25:40:38,54, Ringsend Road,24628.98,60-C6-d12-1,C6,d12
1303,8220DB001476,"Sarsfield Quay, stop 1476",53.34707369,-6.284676275,17452.2.60-C6-d12-1.353.I,25:41:24,25:41:24,55, Ringsend Road,25157.24,60-C6-d12-1,C6,d12
1304,8220DB007854,"Arran Quay, stop 7854",53.34636761,-6.278711665,17452.2.60-C6-d12-1.353.I,25:42:19,25:42:19,56, Ringsend Road,25559.97,60-C6-d12-1,C6,d12
1305,8220DB007856,"Four Courts, stop 7856",53.34562262,-6.273184391,17452.2.60-C6-d12-1.353.I,25:43:13,25:43:13,57, Ringsend Road,25939.4,60-C6-d12-1,C6,d12
1306,8220DB007883,"Ormond Quay, stop 7883",53.346058,-6.268495617,17452.2.60-C6-d12-1.353.I,25:44:04,25:44:04,58, Ringsend Road,26258.63,60-C6-d12-1,C6,d12
1307,8220DB000315,"Bachelors Walk, stop 315",53.34702829,-6.261667155,17452.2.60-C6-d12-1.353.I,25:45:19,25:45:19,59, Ringsend Road,26728.83,60-C6-d12-1,C6,d12
1308,8220DB000340,"Townsend Street, stop 340",53.34597512,-6.256017478,17452.2.60-C6-d12-1.353.I,25:48:05,25:48:05,60, Ringsend Road,27219.55,60-C6-d12-1,C6,d12
1309,8220DB007861,"Prince's St South, stop 7861",53.34561679,-6.249348317,17452.2.60-C6-d12-1.353.I,25:49:15,25:49:15,61, Ringsend Road,27663.65,60-C6-d12-1,C6,d12
1310,8220DB000351,"Erne Street, stop 351",53.34341826,-6.245308174,17452.2.60-C6-d12-1.353.I,25:50:16,25:50:16,62, Ringsend Road,28030.22,60-C6-d12-1,C6,d12
1311,8220DB000352,"Pearse Square, stop 352",53.34298915,-6.24241214,17452.2.60-C6-d12-1.353.I,25:50:38,25:50:38,63, Ringsend Road,28231.28,60-C6-d12-1,C6,d12
1312,8220DB000353,"Grand Canal Quay, stop 353",53.34264501,-6.239798018,17452.2.60-C6-d12-1.353.I,25:50:58,25:50:58,64, Ringsend Road,28407.56,60-C6-d12-1,C6,d12
1313,8220DB000354,"Ringsend Road, stop 354",53.34223583,-6.23643569,17452.2.60-C6-d12-1.353.I,25:51:22,25:51:22,65, Ringsend Road,28635.61,60-C6-d12-1,C6,d12
1314,8230DB003943,"Dept of Agriculture, stop 3943",53.3470719,-6.494294919,17454.2.60-C6-b12-1.353.I,28:21:45,28:21:45,24, Ringsend Road,9688.69,60-C6-b12-1,C6,b12
1315,8230DB003945,"Weston Aerodrome, stop 3945",53.35370171,-6.479865358,17454.2.60-C6-b12-1.353.I,28:23:05,28:23:05,25, Ringsend Road,10903.01,60-C6-b12-1,C6,b12
1316,8230DB003946,"Weston Estate, stop 3946",53.35611534,-6.475317639,17454.2.60-C6-b12-1.353.I,28:23:42,28:23:42,26, Ringsend Road,11309.43,60-C6-b12-1,C6,b12
1317,8230DB004001,"Liffey Valley Golf, stop 4001",53.35892285,-6.472062381,17454.2.60-C6-b12-1.353.I,28:24:37,28:24:37,28, Ringsend Road,11914.2,60-C6-b12-1,C6,b12
1318,8230DB003949,"Leixlip Road, stop 3949",53.35551692,-6.460211074,17454.2.60-C6-b12-1.353.I,28:25:53,28:25:53,29, Ringsend Road,12795.89,60-C6-b12-1,C6,b12
1319,8230DB003950,"Ball Alley House, stop 3950",53.35560249,-6.455010094,17454.2.60-C6-b12-1.353.I,28:26:29,28:26:29,30, Ringsend Road,13153.84,60-C6-b12-1,C6,b12
1320,8230DB003372,"Lucan Village, stop 3372",53.35656433,-6.448094691,17454.2.60-C6-b12-1.353.I,28:27:17,28:27:17,31, Ringsend Road,13625.44,60-C6-b12-1,C6,b12
1321,8230DB003373,"Lucan Heights, stop 3373",53.35808279,-6.441849744,17454.2.60-C6-b12-1.353.I,28:27:56,28:27:56,32, Ringsend Road,14099.03,60-C6-b12-1,C6,b12
1322,8230DB003374,"St Mary's Church, stop 3374",53.35963427,-6.439524473,17454.2.60-C6-b12-1.353.I,28:28:21,28:28:21,33, Ringsend Road,14330.39,60-C6-b12-1,C6,b12
1323,8230DB002233,"Chalet Gardens, stop 2233",53.3600895,-6.435165776,17454.2.60-C6-b12-1.353.I,28:28:54,28:28:54,34, Ringsend Road,14626.32,60-C6-b12-1,C6,b12
1324,8230DB002232,"Ballydowd Grove, stop 2232",53.35973763,-6.430956834,17454.2.60-C6-b12-1.353.I,28:29:16,28:29:16,35, Ringsend Road,14911.83,60-C6-b12-1,C6,b12
1325,8230DB002234,"Lucan Retail Park, stop 2234",53.35933655,-6.424390974,17454.2.60-C6-b12-1.353.I,28:29:50,28:29:50,36, Ringsend Road,15349.14,60-C6-b12-1,C6,b12
1326,8230DB002236,"Hermitage Bridge, stop 2236",53.35886946,-6.410856513,17454.2.60-C6-b12-1.353.I,28:30:55,28:30:55,37, Ringsend Road,16268.89,60-C6-b12-1,C6,b12
1327,8230DB005056,"Hermitage Clinic, stop 5056",53.35752149,-6.402793928,17454.2.60-C6-b12-1.353.I,28:31:35,28:31:35,38, Ringsend Road,16827.55,60-C6-b12-1,C6,b12
1328,8230DB002239,"Liffey Valley SC, stop 2239",53.35616847,-6.3917274,17454.2.60-C6-b12-1.353.I,28:32:38,28:32:38,39, Ringsend Road,17646.8,60-C6-b12-1,C6,b12
1329,8230DB002241,"Kennelsfort Road, stop 2241",53.35492926,-6.371268023,17454.2.60-C6-b12-1.353.I,28:34:14,28:34:14,40, Ringsend Road,19066.21,60-C6-b12-1,C6,b12
1330,8230DB002242,"The Oval, stop 2242",53.35392732,-6.367009818,17454.2.60-C6-b12-1.353.I,28:34:37,28:34:37,41, Ringsend Road,19371.62,60-C6-b12-1,C6,b12
1331,8220DB002243,"Glenaulin, stop 2243",53.35197438,-6.355697995,17454.2.60-C6-b12-1.353.I,28:35:53,28:35:53,42, Ringsend Road,20165.26,60-C6-b12-1,C6,b12
1332,8220DB002244,"Belgrove Park, stop 2244",53.35088435,-6.351609074,17454.2.60-C6-b12-1.353.I,28:36:21,28:36:21,43, Ringsend Road,20462.36,60-C6-b12-1,C6,b12
1333,8220DB002245,"Laurence Brook, stop 2245",53.3494632,-6.348284211,17454.2.60-C6-b12-1.353.I,28:36:59,28:36:59,44, Ringsend Road,20734.71,60-C6-b12-1,C6,b12
1334,8220DB002246,"Chapelizod, stop 2246",53.34831131,-6.343642354,17454.2.60-C6-b12-1.353.I,28:37:56,28:37:56,45, Ringsend Road,21147.73,60-C6-b12-1,C6,b12
1335,8220DB002247,"St Mary's Hospital, stop 2247",53.34675286,-6.336282916,17454.2.60-C6-b12-1.353.I,28:38:45,28:38:45,46, Ringsend Road,21684.2,60-C6-b12-1,C6,b12
1336,8220DB002248,"Military Road, stop 2248",53.34632093,-6.327888637,17454.2.60-C6-b12-1.353.I,28:39:36,28:39:36,47, Ringsend Road,22242.73,60-C6-b12-1,C6,b12
1337,8220DB002249,"Garda Boat Club, stop 2249",53.3465317,-6.321136449,17454.2.60-C6-b12-1.353.I,28:40:04,28:40:04,48, Ringsend Road,22693.91,60-C6-b12-1,C6,b12
1338,8220DB002250,"Salmon Pool, stop 2250",53.34743859,-6.31533304,17454.2.60-C6-b12-1.353.I,28:40:29,28:40:29,49, Ringsend Road,23092.77,60-C6-b12-1,C6,b12
1339,8220DB002251,"Islandbridge Gate, stop 2251",53.34813204,-6.310979792,17454.2.60-C6-b12-1.353.I,28:40:59,28:40:59,50, Ringsend Road,23391.19,60-C6-b12-1,C6,b12
1340,8220DB001472,"Conyngham Road, stop 1472",53.34842947,-6.30596617,17454.2.60-C6-b12-1.353.I,28:41:33,28:41:33,51, Ringsend Road,23725.1,60-C6-b12-1,C6,b12
1341,8220DB004408,"Phoenix House, stop 4408",53.34833336,-6.30110331,17454.2.60-C6-b12-1.353.I,28:41:57,28:41:57,52, Ringsend Road,24047.14,60-C6-b12-1,C6,b12
1342,8220DB001473,"Phoenix Park Gate, stop 1473",53.34830598,-6.298550899,17454.2.60-C6-b12-1.353.I,28:42:10,28:42:10,53, Ringsend Road,24216.59,60-C6-b12-1,C6,b12
1343,8220DB001474,"Parkgate Street, stop 1474",53.34794792,-6.292361705,17454.2.60-C6-b12-1.353.I,28:43:01,28:43:01,54, Ringsend Road,24628.98,60-C6-b12-1,C6,b12
1344,8220DB001476,"Sarsfield Quay, stop 1476",53.34707369,-6.284676275,17454.2.60-C6-b12-1.353.I,28:44:06,28:44:06,55, Ringsend Road,25157.24,60-C6-b12-1,C6,b12
1345,8220DB007854,"Arran Quay, stop 7854",53.34636761,-6.278711665,17454.2.60-C6-b12-1.353.I,28:44:42,28:44:42,56, Ringsend Road,25559.97,60-C6-b12-1,C6,b12
1346,8220DB007856,"Four Courts, stop 7856",53.34562262,-6.273184391,17454.2.60-C6-b12-1.353.I,28:45:07,28:45:07,57, Ringsend Road,25939.4,60-C6-b12-1,C6,b12
1347,8220DB007883,"Ormond Quay, stop 7883",53.346058,-6.268495617,17454.2.60-C6-b12-1.353.I,28:45:54,28:45:54,58, Ringsend Road,26258.63,60-C6-b12-1,C6,b12
1348,8220DB000315,"Bachelors Walk, stop 315",53.34702829,-6.261667155,17454.2.60-C6-b12-1.353.I,28:47:03,28:47:03,59, Ringsend Road,26728.83,60-C6-b12-1,C6,b12
1349,8220DB000340,"Townsend Street, stop 340",53.34597512,-6.256017478,17454.2.60-C6-b12-1.353.I,28:49:20,28:49:20,60, Ringsend Road,27219.55,60-C6-b12-1,C6,b12
1350,8220DB007861,"Prince's St South, stop 7861",53.34561679,-6.249348317,17454.2.60-C6-b12-1.353.I,28:50:17,28:50:17,61, Ringsend Road,27663.65,60-C6-b12-1,C6,b12
1351,8220DB000351,"Erne Street, stop 351",53.34341826,-6.245308174,17454.2.60-C6-b12-1.353.I,28:51:06,28:51:06,62, Ringsend Road,28030.22,60-C6-b12-1,C6,b12
1352,8220DB000352,"Pearse Square, stop 352",53.34298915,-6.24241214,17454.2.60-C6-b12-1.353.I,28:51:24,28:51:24,63, Ringsend Road,28231.28,60-C6-b12-1,C6,b12
1353,8220DB000353,"Grand Canal Quay, stop 353",53.34264501,-6.239798018,17454.2.60-C6-b12-1.353.I,28:51:41,28:51:41,64, Ringsend Road,28407.56,60-C6-b12-1,C6,b12
1354,8220DB000354,"Ringsend Road, stop 354",53.34223583,-6.23643569,17454.2.60-C6-b12-1.353.I,28:52:00,28:52:00,65, Ringsend Road,28635.61,60-C6-b12-1,C6,b12
1355,8230DB003943,"Dept of Agriculture, stop 3943",53.3470719,-6.494294919,17454.2.60-C6-d12-1.353.I,28:21:45,28:21:45,24, Ringsend Road,9688.69,60-C6-d12-1,C6,d12
1356,8230DB003945,"Weston Aerodrome, stop 3945",53.35370171,-6.479865358,17454.2.60-C6-d12-1.353.I,28:23:05,28:23:05,25, Ringsend Road,10903.01,60-C6-d12-1,C6,d12
1357,8230DB003946,"Weston Estate, stop 3946",53.35611534,-6.475317639,17454.2.60-C6-d12-1.353.I,28:23:42,28:23:42,26, Ringsend Road,11309.43,60-C6-d12-1,C6,d12
1358,8230DB004001,"Liffey Valley Golf, stop 4001",53.35892285,-6.472062381,17454.2.60-C6-d12-1.353.I,28:24:37,28:24:37,28, Ringsend Road,11914.2,60-C6-d12-1,C6,d12
1359,8230DB003949,"Leixlip Road, stop 3949",53.35551692,-6.460211074,17454.2.60-C6-d12-1.353.I,28:25:53,28:25:53,29, Ringsend Road,12795.89,60-C6-d12-1,C6,d12
1360,8230DB003950,"Ball Alley House, stop 3950",53.35560249,-6.455010094,17454.2.60-C6-d12-1.353.I,28:26:29,28:26:29,30, Ringsend Road,13153.84,60-C6-d12-1,C6,d12
1361,8230DB003372,"Lucan Village, stop 3372",53.35656433,-6.448094691,17454.2.60-C6-d12-1.353.I,28:27:17,28:27:17,31, Ringsend Road,13625.44,60-C6-d12-1,C6,d12
1362,8230DB003373,"Lucan Heights, stop 3373",53.35808279,-6.441849744,17454.2.60-C6-d12-1.353.I,28:27:56,28:27:56,32, Ringsend Road,14099.03,60-C6-d12-1,C6,d12
1363,8230DB003374,"St Mary's Church, stop 3374",53.35963427,-6.439524473,17454.2.60-C6-d12-1.353.I,28:28:21,28:28:21,33, Ringsend Road,14330.39,60-C6-d12-1,C6,d12
1364,8230DB002233,"Chalet Gardens, stop 2233",53.3600895,-6.435165776,17454.2.60-C6-d12-1.353.I,28:28:54,28:28:54,34, Ringsend Road,14626.32,60-C6-d12-1,C6,d12
1365,8230DB002232,"Ballydowd Grove, stop 2232",53.35973763,-6.430956834,17454.2.60-C6-d12-1.353.I,28:29:16,28:29:16,35, Ringsend Road,14911.83,60-C6-d12-1,C6,d12
1366,8230DB002234,"Lucan Retail Park, stop 2234",53.35933655,-6.424390974,17454.2.60-C6-d12-1.353.I,28:29:50,28:29:50,36, Ringsend Road,15349.14,60-C6-d12-1,C6,d12
1367,8230DB002236,"Hermitage Bridge, stop 2236",53.35886946,-6.410856513,17454.2.60-C6-d12-1.353.I,28:30:55,28:30:55,37, Ringsend Road,16268.89,60-C6-d12-1,C6,d12
1368,8230DB005056,"Hermitage Clinic, stop 5056",53.35752149,-6.402793928,17454.2.60-C6-d12-1.353.I,28:31:35,28:31:35,38, Ringsend Road,16827.55,60-C6-d12-1,C6,d12
1369,8230DB002239,"Liffey Valley SC, stop 2239",53.35616847,-6.3917274,17454.2.60-C6-d12-1.353.I,28:32:38,28:32:38,39, Ringsend Road,17646.8,60-C6-d12-1,C6,d12
1370,8230DB002241,"Kennelsfort Road, stop 2241",53.35492926,-6.371268023,17454.2.60-C6-d12-1.353.I,28:34:14,28:34:14,40, Ringsend Road,19066.21,60-C6-d12-1,C6,d12
1371,8230DB002242,"The Oval, stop 2242",53.35392732,-6.367009818,17454.2.60-C6-d12-1.353.I,28:34:37,28:34:37,41, Ringsend Road,19371.62,60-C6-d12-1,C6,d12
1372,8220DB002243,"Glenaulin, stop 2243",53.35197438,-6.355697995,17454.2.60-C6-d12-1.353.I,28:35:53,28:35:53,42, Ringsend Road,20165.26,60-C6-d12-1,C6,d12
1373,8220DB002244,"Belgrove Park, stop 2244",53.35088435,-6.351609074,17454.2.60-C6-d12-1.353.I,28:36:21,28:36:21,43, Ringsend Road,20462.36,60-C6-d12-1,C6,d12
1374,8220DB002245,"Laurence Brook, stop 2245",53.3494632,-6.348284211,17454.2.60-C6-d12-1.353.I,28:36:59,28:36:59,44, Ringsend Road,20734.71,60-C6-d12-1,C6,d12
1375,8220DB002246,"Chapelizod, stop 2246",53.34831131,-6.343642354,17454.2.60-C6-d12-1.353.I,28:37:56,28:37:56,45, Ringsend Road,21147.73,60-C6-d12-1,C6,d12
1376,8220DB002247,"St Mary's Hospital, stop 2247",53.34675286,-6.336282916,17454.2.60-C6-d12-1.353.I,28:38:45,28:38:45,46, Ringsend Road,21684.2,60-C6-d12-1,C6,d12
1377,8220DB002248,"Military Road, stop 2248",53.34632093,-6.327888637,17454.2.60-C6-d12-1.353.I,28:39:36,28:39:36,47, Ringsend Road,22242.73,60-C6-d12-1,C6,d12
1378,8220DB002249,"Garda Boat Club, stop 2249",53.3465317,-6.321136449,17454.2.60-C6-d12-1.353.I,28:40:04,28:40:04,48, Ringsend Road,22693.91,60-C6-d12-1,C6,d12
1379,8220DB002250,"Salmon Pool, stop 2250",53.34743859,-6.31533304,17454.2.60-C6-d12-1.353.I,28:40:29,28:40:29,49, Ringsend Road,23092.77,60-C6-d12-1,C6,d12
1380,8220DB002251,"Islandbridge Gate, stop 2251",53.34813204,-6.310979792,17454.2.60-C6-d12-1.353.I,28:40:59,28:40:59,50, Ringsend Road,23391.19,60-C6-d12-1,C6,d12
1381,8220DB001472,"Conyngham Road, stop 1472",53.34842947,-6.30596617,17454.2.60-C6-d12-1.353.I,28:41:33,28:41:33,51, Ringsend Road,23725.1,60-C6-d12-1,C6,d12
1382,8220DB004408,"Phoenix House, stop 4408",53.34833336,-6.30110331,17454.2.60-C6-d12-1.353.I,28:41:57,28:41:57,52, Ringsend Road,24047.14,60-C6-d12-1,C6,d12
1383,8220DB001473,"Phoenix Park Gate, stop 1473",53.34830598,-6.298550899,17454.2.60-C6-d12-1.353.I,28:42:10,28:42:10,53, Ringsend Road,24216.59,60-C6-d12-1,C6,d12
1384,8220DB001474,"Parkgate Street, stop 1474",53.34794792,-6.292361705,17454.2.60-C6-d12-1.353.I,28:43:01,28:43:01,54, Ringsend Road,24628.98,60-C6-d12-1,C6,d12
1385,8220DB001476,"Sarsfield Quay, stop 1476",53.34707369,-6.284676275,17454.2.60-C6-d12-1.353.I,28:44:06,28:44:06,55, Ringsend Road,25157.24,60-C6-d12-1,C6,d12
1386,8220DB007854,"Arran Quay, stop 7854",53.34636761,-6.278711665,17454.2.60-C6-d12-1.353.I,28:44:42,28:44:42,56, Ringsend Road,25559.97,60-C6-d12-1,C6,d12
1387,8220DB007856,"Four Courts, stop 7856",53.34562262,-6.273184391,17454.2.60-C6-d12-1.353.I,28:45:07,28:45:07,57, Ringsend Road,25939.4,60-C6-d12-1,C6,d12
1388,8220DB007883,"Ormond Quay, stop 7883",53.346058,-6.268495617,17454.2.60-C6-d12-1.353.I,28:45:54,28:45:54,58, Ringsend Road,26258.63,60-C6-d12-1,C6,d12
1389,8220DB000315,"Bachelors Walk, stop 315",53.34702829,-6.261667155,17454.2.60-C6-d12-1.353.I,28:47:03,28:47:03,59, Ringsend Road,26728.83,60-C6-d12-1,C6,d12
1390,8220DB000340,"Townsend Street, stop 340",53.34597512,-6.256017478,17454.2.60-C6-d12-1.353.I,28:49:20,28:49:20,60, Ringsend Road,27219.55,60-C6-d12-1,C6,d12
1391,8220DB007861,"Prince's St South, stop 7861",53.34561679,-6.249348317,17454.2.60-C6-d12-1.353.I,28:50:17,28:50:17,61, Ringsend Road,27663.65,60-C6-d12-1,C6,d12
1392,8220DB000351,"Erne Street, stop 351",53.34341826,-6.245308174,17454.2.60-C6-d12-1.353.I,28:51:06,28:51:06,62, Ringsend Road,28030.22,60-C6-d12-1,C6,d12
1393,8220DB000352,"Pearse Square, stop 352",53.34298915,-6.24241214,17454.2.60-C6-d12-1.353.I,28:51:24,28:51:24,63, Ringsend Road,28231.28,60-C6-d12-1,C6,d12
1394,8220DB000353,"Grand Canal Quay, stop 353",53.34264501,-6.239798018,17454.2.60-C6-d12-1.353.I,28:51:41,28:51:41,64, Ringsend Road,28407.56,60-C6-d12-1,C6,d12
1395,8220DB000354,"Ringsend Road, stop 354",53.34223583,-6.23643569,17454.2.60-C6-d12-1.353.I,28:52:00,28:52:00,65, Ringsend Road,28635.61,60-C6-d12-1,C6,d12
1396,8230DB003943,"Dept of Agriculture, stop 3943",53.3470719,-6.494294919,17490.2.60-C6-b12-1.353.I,24:22:59,24:22:59,24, Ringsend Road,9688.69,60-C6-b12-1,C6,b12
1397,8230DB003945,"Weston Aerodrome, stop 3945",53.35370171,-6.479865358,17490.2.60-C6-b12-1.353.I,24:24:20,24:24:20,25, Ringsend Road,10903.01,60-C6-b12-1,C6,b12
1398,8230DB003946,"Weston Estate, stop 3946",53.35611534,-6.475317639,17490.2.60-C6-b12-1.353.I,24:24:56,24:24:56,26, Ringsend Road,11309.43,60-C6-b12-1,C6,b12
1399,8230DB004001,"Liffey Valley Golf, stop 4001",53.35892285,-6.472062381,17490.2.60-C6-b12-1.353.I,24:25:49,24:25:49,28, Ringsend Road,11914.2,60-C6-b12-1,C6,b12
1400,8230DB003949,"Leixlip Road, stop 3949",53.35551692,-6.460211074,17490.2.60-C6-b12-1.353.I,24:27:06,24:27:06,29, Ringsend Road,12795.89,60-C6-b12-1,C6,b12
1401,8230DB003950,"Ball Alley House, stop 3950",53.35560249,-6.455010094,17490.2.60-C6-b12-1.353.I,24:27:45,24:27:45,30, Ringsend Road,13153.84,60-C6-b12-1,C6,b12
1402,8230DB003372,"Lucan Village, stop 3372",53.35656433,-6.448094691,17490.2.60-C6-b12-1.353.I,24:28:36,24:28:36,31, Ringsend Road,13625.44,60-C6-b12-1,C6,b12
1403,8230DB003373,"Lucan Heights, stop 3373",53.35808279,-6.441849744,17490.2.60-C6-b12-1.353.I,24:29:11,24:29:11,32, Ringsend Road,14099.03,60-C6-b12-1,C6,b12
1404,8230DB003374,"St Mary's Church, stop 3374",53.35963427,-6.439524473,17490.2.60-C6-b12-1.353.I,24:29:33,24:29:33,33, Ringsend Road,14330.39,60-C6-b12-1,C6,b12
1405,8230DB002233,"Chalet Gardens, stop 2233",53.3600895,-6.435165776,17490.2.60-C6-b12-1.353.I,24:30:00,24:30:00,34, Ringsend Road,14626.32,60-C6-b12-1,C6,b12
1406,8230DB002232,"Ballydowd Grove, stop 2232",53.35973763,-6.430956834,17490.2.60-C6-b12-1.353.I,24:30:31,24:30:31,35, Ringsend Road,14911.83,60-C6-b12-1,C6,b12
1407,8230DB002234,"Lucan Retail Park, stop 2234",53.35933655,-6.424390974,17490.2.60-C6-b12-1.353.I,24:31:19,24:31:19,36, Ringsend Road,15349.14,60-C6-b12-1,C6,b12
1408,8230DB002236,"Hermitage Bridge, stop 2236",53.35886946,-6.410856513,17490.2.60-C6-b12-1.353.I,24:32:27,24:32:27,37, Ringsend Road,16268.89,60-C6-b12-1,C6,b12
1409,8230DB005056,"Hermitage Clinic, stop 5056",53.35752149,-6.402793928,17490.2.60-C6-b12-1.353.I,24:33:08,24:33:08,38, Ringsend Road,16827.55,60-C6-b12-1,C6,b12
1410,8230DB002239,"Liffey Valley SC, stop 2239",53.35616847,-6.3917274,17490.2.60-C6-b12-1.353.I,24:34:12,24:34:12,39, Ringsend Road,17646.8,60-C6-b12-1,C6,b12
1411,8230DB002241,"Kennelsfort Road, stop 2241",53.35492926,-6.371268023,17490.2.60-C6-b12-1.353.I,24:35:52,24:35:52,40, Ringsend Road,19066.21,60-C6-b12-1,C6,b12
1412,8230DB002242,"The Oval, stop 2242",53.35392732,-6.367009818,17490.2.60-C6-b12-1.353.I,24:36:29,24:36:29,41, Ringsend Road,19371.62,60-C6-b12-1,C6,b12
1413,8220DB002243,"Glenaulin, stop 2243",53.35197438,-6.355697995,17490.2.60-C6-b12-1.353.I,24:38:01,24:38:01,42, Ringsend Road,20165.26,60-C6-b12-1,C6,b12
1414,8220DB002244,"Belgrove Park, stop 2244",53.35088435,-6.351609074,17490.2.60-C6-b12-1.353.I,24:38:35,24:38:35,43, Ringsend Road,20462.36,60-C6-b12-1,C6,b12
1415,8220DB002245,"Laurence Brook, stop 2245",53.3494632,-6.348284211,17490.2.60-C6-b12-1.353.I,24:39:01,24:39:01,44, Ringsend Road,20734.71,60-C6-b12-1,C6,b12
1416,8220DB002246,"Chapelizod, stop 2246",53.34831131,-6.343642354,17490.2.60-C6-b12-1.353.I,24:39:39,24:39:39,45, Ringsend Road,21147.73,60-C6-b12-1,C6,b12
1417,8220DB002247,"St Mary's Hospital, stop 2247",53.34675286,-6.336282916,17490.2.60-C6-b12-1.353.I,24:40:23,24:40:23,46, Ringsend Road,21684.2,60-C6-b12-1,C6,b12
1418,8220DB002248,"Military Road, stop 2248",53.34632093,-6.327888637,17490.2.60-C6-b12-1.353.I,24:41:09,24:41:09,47, Ringsend Road,22242.73,60-C6-b12-1,C6,b12
1419,8220DB002249,"Garda Boat Club, stop 2249",53.3465317,-6.321136449,17490.2.60-C6-b12-1.353.I,24:41:40,24:41:40,48, Ringsend Road,22693.91,60-C6-b12-1,C6,b12
1420,8220DB002250,"Salmon Pool, stop 2250",53.34743859,-6.31533304,17490.2.60-C6-b12-1.353.I,24:42:07,24:42:07,49, Ringsend Road,23092.77,60-C6-b12-1,C6,b12
1421,8220DB002251,"Islandbridge Gate, stop 2251",53.34813204,-6.310979792,17490.2.60-C6-b12-1.353.I,24:42:40,24:42:40,50, Ringsend Road,23391.19,60-C6-b12-1,C6,b12
1422,8220DB001472,"Conyngham Road, stop 1472",53.34842947,-6.30596617,17490.2.60-C6-b12-1.353.I,24:43:16,24:43:16,51, Ringsend Road,23725.1,60-C6-b12-1,C6,b12
1423,8220DB004408,"Phoenix House, stop 4408",53.34833336,-6.30110331,17490.2.60-C6-b12-1.353.I,24:43:40,24:43:40,52, Ringsend Road,24047.14,60-C6-b12-1,C6,b12
1424,8220DB001473,"Phoenix Park Gate, stop 1473",53.34830598,-6.298550899,17490.2.60-C6-b12-1.353.I,24:43:52,24:43:52,53, Ringsend Road,24216.59,60-C6-b12-1,C6,b12
1425,8220DB001474,"Parkgate Street, stop 1474",53.34794792,-6.292361705,17490.2.60-C6-b12-1.353.I,24:44:38,24:44:38,54, Ringsend Road,24628.98,60-C6-b12-1,C6,b12
1426,8220DB001476,"Sarsfield Quay, stop 1476",53.34707369,-6.284676275,17490.2.60-C6-b12-1.353.I,24:45:37,24:45:37,55, Ringsend Road,25157.24,60-C6-b12-1,C6,b12
1427,8220DB007854,"Arran Quay, stop 7854",53.34636761,-6.278711665,17490.2.60-C6-b12-1.353.I,24:46:40,24:46:40,56, Ringsend Road,25559.97,60-C6-b12-1,C6,b12
1428,8220DB007856,"Four Courts, stop 7856",53.34562262,-6.273184391,17490.2.60-C6-b12-1.353.I,24:48:00,24:48:00,57, Ringsend Road,25939.4,60-C6-b12-1,C6,b12
1429,8220DB007883,"Ormond Quay, stop 7883",53.346058,-6.268495617,17490.2.60-C6-b12-1.353.I,24:48:59,24:48:59,58, Ringsend Road,26258.63,60-C6-b12-1,C6,b12
1430,8220DB000315,"Bachelors Walk, stop 315",53.34702829,-6.261667155,17490.2.60-C6-b12-1.353.I,24:50:25,24:50:25,59, Ringsend Road,26728.83,60-C6-b12-1,C6,b12
1431,8220DB000340,"Townsend Street, stop 340",53.34597512,-6.256017478,17490.2.60-C6-b12-1.353.I,24:52:43,24:52:43,60, Ringsend Road,27219.55,60-C6-b12-1,C6,b12
1432,8220DB007861,"Prince's St South, stop 7861",53.34561679,-6.249348317,17490.2.60-C6-b12-1.353.I,24:53:41,24:53:41,61, Ringsend Road,27663.65,60-C6-b12-1,C6,b12
1433,8220DB000351,"Erne Street, stop 351",53.34341826,-6.245308174,17490.2.60-C6-b12-1.353.I,24:54:31,24:54:31,62, Ringsend Road,28030.22,60-C6-b12-1,C6,b12
1434,8220DB000352,"Pearse Square, stop 352",53.34298915,-6.24241214,17490.2.60-C6-b12-1.353.I,24:54:58,24:54:58,63, Ringsend Road,28231.28,60-C6-b12-1,C6,b12
1435,8220DB000353,"Grand Canal Quay, stop 353",53.34264501,-6.239798018,17490.2.60-C6-b12-1.353.I,24:55:22,24:55:22,64, Ringsend Road,28407.56,60-C6-b12-1,C6,b12
1436,8220DB000354,"Ringsend Road, stop 354",53.34223583,-6.23643569,17490.2.60-C6-b12-1.353.I,24:55:50,24:55:50,65, Ringsend Road,28635.61,60-C6-b12-1,C6,b12
1437,8230DB003943,"Dept of Agriculture, stop 3943",53.3470719,-6.494294919,17490.2.60-C6-d12-1.353.I,24:22:59,24:22:59,24, Ringsend Road,9688.69,60-C6-d12-1,C6,d12
1438,8230DB003945,"Weston Aerodrome, stop 3945",53.35370171,-6.479865358,17490.2.60-C6-d12-1.353.I,24:24:20,24:24:20,25, Ringsend Road,10903.01,60-C6-d12-1,C6,d12
1439,8230DB003946,"Weston Estate, stop 3946",53.35611534,-6.475317639,17490.2.60-C6-d12-1.353.I,24:24:56,24:24:56,26, Ringsend Road,11309.43,60-C6-d12-1,C6,d12
1440,8230DB004001,"Liffey Valley Golf, stop 4001",53.35892285,-6.472062381,17490.2.60-C6-d12-1.353.I,24:25:49,24:25:49,28, Ringsend Road,11914.2,60-C6-d12-1,C6,d12
1441,8230DB003949,"Leixlip Road, stop 3949",53.35551692,-6.460211074,17490.2.60-C6-d12-1.353.I,24:27:06,24:27:06,29, Ringsend Road,12795.89,60-C6-d12-1,C6,d12
1442,8230DB003950,"Ball Alley House, stop 3950",53.35560249,-6.455010094,17490.2.60-C6-d12-1.353.I,24:27:45,24:27:45,30, Ringsend Road,13153.84,60-C6-d12-1,C6,d12
1443,8230DB003372,"Lucan Village, stop 3372",53.35656433,-6.448094691,17490.2.60-C6-d12-1.353.I,24:28:36,24:28:36,31, Ringsend Road,13625.44,60-C6-d12-1,C6,d12
1444,8230DB003373,"Lucan Heights, stop 3373",53.35808279,-6.441849744,17490.2.60-C6-d12-1.353.I,24:29:11,24:29:11,32, Ringsend Road,14099.03,60-C6-d12-1,C6,d12
1445,8230DB003374,"St Mary's Church, stop 3374",53.35963427,-6.439524473,17490.2.60-C6-d12-1.353.I,24:29:33,24:29:33,33, Ringsend Road,14330.39,60-C6-d12-1,C6,d12
1446,8230DB002233,"Chalet Gardens, stop 2233",53.3600895,-6.435165776,17490.2.60-C6-d12-1.353.I,24:30:00,24:30:00,34, Ringsend Road,14626.32,60-C6-d12-1,C6,d12
1447,8230DB002232,"Ballydowd Grove, stop 2232",53.35973763,-6.430956834,17490.2.60-C6-d12-1.353.I,24:30:31,24:30:31,35, Ringsend Road,14911.83,60-C6-d12-1,C6,d12
1448,8230DB002234,"Lucan Retail Park, stop 2234",53.35933655,-6.424390974,17490.2.60-C6-d12-1.353.I,24:31:19,24:31:19,36, Ringsend Road,15349.14,60-C6-d12-1,C6,d12
1449,8230DB002236,"Hermitage Bridge, stop 2236",53.35886946,-6.410856513,17490.2.60-C6-d12-1.353.I,24:32:27,24:32:27,37, Ringsend Road,16268.89,60-C6-d12-1,C6,d12
1450,8230DB005056,"Hermitage Clinic, stop 5056",53.35752149,-6.402793928,17490.2.60-C6-d12-1.353.I,24:33:08,24:33:08,38, Ringsend Road,16827.55,60-C6-d12-1,C6,d12
1451,8230DB002239,"Liffey Valley SC, stop 2239",53.35616847,-6.3917274,17490.2.60-C6-d12-1.353.I,24:34:12,24:34:12,39, Ringsend Road,17646.8,60-C6-d12-1,C6,d12
1452,8230DB002241,"Kennelsfort Road, stop 2241",53.35492926,-6.371268023,17490.2.60-C6-d12-1.353.I,24:35:52,24:35:52,40, Ringsend Road,19066.21,60-C6-d12-1,C6,d12
1453,8230DB002242,"The Oval, stop 2242",53.35392732,-6.367009818,17490.2.60-C6-d12-1.353.I,24:36:29,24:36:29,41, Ringsend Road,19371.62,60-C6-d12-1,C6,d12
1454,8220DB002243,"Glenaulin, stop 2243",53.35197438,-6.355697995,17490.2.60-C6-d12-1.353.I,24:38:01,24:38:01,42, Ringsend Road,20165.26,60-C6-d12-1,C6,d12
1455,8220DB002244,"Belgrove Park, stop 2244",53.35088435,-6.351609074,17490.2.60-C6-d12-1.353.I,24:38:35,24:38:35,43, Ringsend Road,20462.36,60-C6-d12-1,C6,d12
1456,8220DB002245,"Laurence Brook, stop 2245",53.3494632,-6.348284211,17490.2.60-C6-d12-1.353.I,24:39:01,24:39:01,44, Ringsend Road,20734.71,60-C6-d12-1,C6,d12
1457,8220DB002246,"Chapelizod, stop 2246",53.34831131,-6.343642354,17490.2.60-C6-d12-1.353.I,24:39:39,24:39:39,45, Ringsend Road,21147.73,60-C6-d12-1,C6,d12
1458,8220DB002247,"St Mary's Hospital, stop 2247",53.34675286,-6.336282916,17490.2.60-C6-d12-1.353.I,24:40:23,24:40:23,46, Ringsend Road,21684.2,60-C6-d12-1,C6,d12
1459,8220DB002248,"Military Road, stop 2248",53.34632093,-6.327888637,17490.2.60-C6-d12-1.353.I,24:41:09,24:41:09,47, Ringsend Road,22242.73,60-C6-d12-1,C6,d12
1460,8220DB002249,"Garda Boat Club, stop 2249",53.3465317,-6.321136449,17490.2.60-C6-d12-1.353.I,24:41:40,24:41:40,48, Ringsend Road,22693.91,60-C6-d12-1,C6,d12
1461,8220DB002250,"Salmon Pool, stop 2250",53.34743859,-6.31533304,17490.2.60-C6-d12-1.353.I,24:42:07,24:42:07,49, Ringsend Road,23092.77,60-C6-d12-1,C6,d12
1462,8220DB002251,"Islandbridge Gate, stop 2251",53.34813204,-6.310979792,17490.2.60-C6-d12-1.353.I,24:42:40,24:42:40,50, Ringsend Road,23391.19,60-C6-d12-1,C6,d12
1463,8220DB001472,"Conyngham Road, stop 1472",53.34842947,-6.30596617,17490.2.60-C6-d12-1.353.I,24:43:16,24:43:16,51, Ringsend Road,23725.1,60-C6-d12-1,C6,d12
1464,8220DB004408,"Phoenix House, stop 4408",53.34833336,-6.30110331,17490.2.60-C6-d12-1.353.I,24:43:40,24:43:40,52, Ringsend Road,24047.14,60-C6-d12-1,C6,d12
1465,8220DB001473,"Phoenix Park Gate, stop 1473",53.34830598,-6.298550899,17490.2.60-C6-d12-1.353.I,24:43:52,24:43:52,53, Ringsend Road,24216.59,60-C6-d12-1,C6,d12
1466,8220DB001474,"Parkgate Street, stop 1474",53.34794792,-6.292361705,17490.2.60-C6-d12-1.353.I,24:44:38,24:44:38,54, Ringsend Road,24628.98,60-C6-d12-1,C6,d12
1467,8220DB001476,"Sarsfield Quay, stop 1476",53.34707369,-6.284676275,17490.2.60-C6-d12-1.353.I,24:45:37,24:45:37,55, Ringsend Road,25157.24,60-C6-d12-1,C6,d12
1468,8220DB007854,"Arran Quay, stop 7854",53.34636761,-6.278711665,17490.2.60-C6-d12-1.353.I,24:46:40,24:46:40,56, Ringsend Road,25559.97,60-C6-d12-1,C6,d12
1469,8220DB007856,"Four Courts, stop 7856",53.34562262,-6.273184391,17490.2.60-C6-d12-1.353.I,24:48:00,24:48:00,57, Ringsend Road,25939.4,60-C6-d12-1,C6,d12
1470,8220DB007883,"Ormond Quay, stop 7883",53.346058,-6.268495617,17490.2.60-C6-d12-1.353.I,24:48:59,24:48:59,58, Ringsend Road,26258.63,60-C6-d12-1,C6,d12
1471,8220DB000315,"Bachelors Walk, stop 315",53.34702829,-6.261667155,17490.2.60-C6-d12-1.353.I,24:50:25,24:50:25,59, Ringsend Road,26728.83,60-C6-d12-1,C6,d12
1472,8220DB000340,"Townsend Street, stop 340",53.34597512,-6.256017478,17490.2.60-C6-d12-1.353.I,24:52:43,24:52:43,60, Ringsend Road,27219.55,60-C6-d12-1,C6,d12
1473,8220DB007861,"Prince's St South, stop 7861",53.34561679,-6.249348317,17490.2.60-C6-d12-1.353.I,24:53:41,24:53:41,61, Ringsend Road,27663.65,60-C6-d12-1,C6,d12
1474,8220DB000351,"Erne Street, stop 351",53.34341826,-6.245308174,17490.2.60-C6-d12-1.353.I,24:54:31,24:54:31,62, Ringsend Road,28030.22,60-C6-d12-1,C6,d12
1475,8220DB000352,"Pearse Square, stop 352",53.34298915,-6.24241214,17490.2.60-C6-d12-1.353.I,24:54:58,24:54:58,63, Ringsend Road,28231.28,60-C6-d12-1,C6,d12
1476,8220DB000353,"Grand Canal Quay, stop 353",53.34264501,-6.239798018,17490.2.60-C6-d12-1.353.I,24:55:22,24:55:22,64, Ringsend Road,28407.56,60-C6-d12-1,C6,d12
1477,8220DB000354,"Ringsend Road, stop 354",53.34223583,-6.23643569,17490.2.60-C6-d12-1.353.I,24:55:50,24:55:50,65, Ringsend Road,28635.61,60-C6-d12-1,C6,d12
1854,8230DB003943,"Dept of Agriculture, stop 3943",53.3470719,-6.494294919,5940.1.60-C6-b12-1.353.I,27:17:13,27:17:13,24, Ringsend Road,9688.69,60-C6-b12-1,C6,b12
1855,8230DB003945,"Weston Aerodrome, stop 3945",53.35370171,-6.479865358,5940.1.60-C6-b12-1.353.I,27:18:28,27:18:28,25, Ringsend Road,10903.01,60-C6-b12-1,C6,b12
1856,8230DB003946,"Weston Estate, stop 3946",53.35611534,-6.475317639,5940.1.60-C6-b12-1.353.I,27:19:02,27:19:02,26, Ringsend Road,11309.43,60-C6-b12-1,C6,b12
1857,8230DB004001,"Liffey Valley Golf, stop 4001",53.35892285,-6.472062381,5940.1.60-C6-b12-1.353.I,27:19:53,27:19:53,28, Ringsend Road,11914.2,60-C6-b12-1,C6,b12
1858,8230DB003949,"Leixlip Road, stop 3949",53.35551692,-6.460211074,5940.1.60-C6-b12-1.353.I,27:21:00,27:21:00,29, Ringsend Road,12795.89,60-C6-b12-1,C6,b12
1859,8230DB003950,"Ball Alley House, stop 3950",53.35560249,-6.455010094,5940.1.60-C6-b12-1.353.I,27:21:29,27:21:29,30, Ringsend Road,13153.84,60-C6-b12-1,C6,b12
1860,8230DB003372,"Lucan Village, stop 3372",53.35656433,-6.448094691,5940.1.60-C6-b12-1.353.I,27:22:07,27:22:07,31, Ringsend Road,13625.44,60-C6-b12-1,C6,b12
1861,8230DB003373,"Lucan Heights, stop 3373",53.35808279,-6.441849744,5940.1.60-C6-b12-1.353.I,27:22:42,27:22:42,32, Ringsend Road,14099.03,60-C6-b12-1,C6,b12
1862,8230DB003374,"St Mary's Church, stop 3374",53.35963427,-6.439524473,5940.1.60-C6-b12-1.353.I,27:23:03,27:23:03,33, Ringsend Road,14330.39,60-C6-b12-1,C6,b12
1863,8230DB002233,"Chalet Gardens, stop 2233",53.3600895,-6.435165776,5940.1.60-C6-b12-1.353.I,27:23:30,27:23:30,34, Ringsend Road,14626.32,60-C6-b12-1,C6,b12
1864,8230DB002232,"Ballydowd Grove, stop 2232",53.35973763,-6.430956834,5940.1.60-C6-b12-1.353.I,27:23:56,27:23:56,35, Ringsend Road,14911.83,60-C6-b12-1,C6,b12
1865,8230DB002234,"Lucan Retail Park, stop 2234",53.35933655,-6.424390974,5940.1.60-C6-b12-1.353.I,27:24:37,27:24:37,36, Ringsend Road,15349.14,60-C6-b12-1,C6,b12
1866,8230DB002236,"Hermitage Bridge, stop 2236",53.35886946,-6.410856513,5940.1.60-C6-b12-1.353.I,27:25:44,27:25:44,37, Ringsend Road,16268.89,60-C6-b12-1,C6,b12
1867,8230DB005056,"Hermitage Clinic, stop 5056",53.35752149,-6.402793928,5940.1.60-C6-b12-1.353.I,27:26:25,27:26:25,38, Ringsend Road,16827.55,60-C6-b12-1,C6,b12
1868,8230DB002239,"Liffey Valley SC, stop 2239",53.35616847,-6.3917274,5940.1.60-C6-b12-1.353.I,27:27:25,27:27:25,39, Ringsend Road,17646.8,60-C6-b12-1,C6,b12
1869,8230DB002241,"Kennelsfort Road, stop 2241",53.35492926,-6.371268023,5940.1.60-C6-b12-1.353.I,27:28:57,27:28:57,40, Ringsend Road,19066.21,60-C6-b12-1,C6,b12
1870,8230DB002242,"The Oval, stop 2242",53.35392732,-6.367009818,5940.1.60-C6-b12-1.353.I,27:29:18,27:29:18,41, Ringsend Road,19371.62,60-C6-b12-1,C6,b12
1871,8220DB002243,"Glenaulin, stop 2243",53.35197438,-6.355697995,5940.1.60-C6-b12-1.353.I,27:30:37,27:30:37,42, Ringsend Road,20165.26,60-C6-b12-1,C6,b12
1872,8220DB002244,"Belgrove Park, stop 2244",53.35088435,-6.351609074,5940.1.60-C6-b12-1.353.I,27:31:06,27:31:06,43, Ringsend Road,20462.36,60-C6-b12-1,C6,b12
1873,8220DB002245,"Laurence Brook, stop 2245",53.3494632,-6.348284211,5940.1.60-C6-b12-1.353.I,27:31:30,27:31:30,44, Ringsend Road,20734.71,60-C6-b12-1,C6,b12
1874,8220DB002246,"Chapelizod, stop 2246",53.34831131,-6.343642354,5940.1.60-C6-b12-1.353.I,27:32:07,27:32:07,45, Ringsend Road,21147.73,60-C6-b12-1,C6,b12
1875,8220DB002247,"St Mary's Hospital, stop 2247",53.34675286,-6.336282916,5940.1.60-C6-b12-1.353.I,27:32:48,27:32:48,46, Ringsend Road,21684.2,60-C6-b12-1,C6,b12
1876,8220DB002248,"Military Road, stop 2248",53.34632093,-6.327888637,5940.1.60-C6-b12-1.353.I,27:33:31,27:33:31,47, Ringsend Road,22242.73,60-C6-b12-1,C6,b12
1877,8220DB002249,"Garda Boat Club, stop 2249",53.3465317,-6.321136449,5940.1.60-C6-b12-1.353.I,27:33:58,27:33:58,48, Ringsend Road,22693.91,60-C6-b12-1,C6,b12
1878,8220DB002250,"Salmon Pool, stop 2250",53.34743859,-6.31533304,5940.1.60-C6-b12-1.353.I,27:34:22,27:34:22,49, Ringsend Road,23092.77,60-C6-b12-1,C6,b12
1879,8220DB002251,"Islandbridge Gate, stop 2251",53.34813204,-6.310979792,5940.1.60-C6-b12-1.353.I,27:34:51,27:34:51,50, Ringsend Road,23391.19,60-C6-b12-1,C6,b12
1880,8220DB001472,"Conyngham Road, stop 1472",53.34842947,-6.30596617,5940.1.60-C6-b12-1.353.I,27:35:24,27:35:24,51, Ringsend Road,23725.1,60-C6-b12-1,C6,b12
1881,8220DB004408,"Phoenix House, stop 4408",53.34833336,-6.30110331,5940.1.60-C6-b12-1.353.I,27:35:46,27:35:46,52, Ringsend Road,24047.14,60-C6-b12-1,C6,b12
1882,8220DB001473,"Phoenix Park Gate, stop 1473",53.34830598,-6.298550899,5940.1.60-C6-b12-1.353.I,27:35:58,27:35:58,53, Ringsend Road,24216.59,60-C6-b12-1,C6,b12
1883,8220DB001474,"Parkgate Street, stop 1474",53.34794792,-6.292361705,5940.1.60-C6-b12-1.353.I,27:36:38,27:36:38,54, Ringsend Road,24628.98,60-C6-b12-1,C6,b12
1884,8220DB001476,"Sarsfield Quay, stop 1476",53.34707369,-6.284676275,5940.1.60-C6-b12-1.353.I,27:37:29,27:37:29,55, Ringsend Road,25157.24,60-C6-b12-1,C6,b12
1885,8220DB007854,"Arran Quay, stop 7854",53.34636761,-6.278711665,5940.1.60-C6-b12-1.353.I,27:38:27,27:38:27,56, Ringsend Road,25559.97,60-C6-b12-1,C6,b12
1886,8220DB007856,"Four Courts, stop 7856",53.34562262,-6.273184391,5940.1.60-C6-b12-1.353.I,27:39:28,27:39:28,57, Ringsend Road,25939.4,60-C6-b12-1,C6,b12
1887,8220DB007883,"Ormond Quay, stop 7883",53.346058,-6.268495617,5940.1.60-C6-b12-1.353.I,27:40:24,27:40:24,58, Ringsend Road,26258.63,60-C6-b12-1,C6,b12
1888,8220DB000315,"Bachelors Walk, stop 315",53.34702829,-6.261667155,5940.1.60-C6-b12-1.353.I,27:41:46,27:41:46,59, Ringsend Road,26728.83,60-C6-b12-1,C6,b12
1889,8220DB000340,"Townsend Street, stop 340",53.34597512,-6.256017478,5940.1.60-C6-b12-1.353.I,27:44:43,27:44:43,60, Ringsend Road,27219.55,60-C6-b12-1,C6,b12
1890,8220DB007861,"Prince's St South, stop 7861",53.34561679,-6.249348317,5940.1.60-C6-b12-1.353.I,27:45:51,27:45:51,61, Ringsend Road,27663.65,60-C6-b12-1,C6,b12
1891,8220DB000351,"Erne Street, stop 351",53.34341826,-6.245308174,5940.1.60-C6-b12-1.353.I,27:46:51,27:46:51,62, Ringsend Road,28030.22,60-C6-b12-1,C6,b12
1892,8220DB000352,"Pearse Square, stop 352",53.34298915,-6.24241214,5940.1.60-C6-b12-1.353.I,27:47:14,27:47:14,63, Ringsend Road,28231.28,60-C6-b12-1,C6,b12
1893,8220DB000353,"Grand Canal Quay, stop 353",53.34264501,-6.239798018,5940.1.60-C6-b12-1.353.I,27:47:35,27:47:35,64, Ringsend Road,28407.56,60-C6-b12-1,C6,b12
1894,8220DB000354,"Ringsend Road, stop 354",53.34223583,-6.23643569,5940.1.60-C6-b12-1.353.I,27:47:58,27:47:58,65, Ringsend Road,28635.61,60-C6-b12-1,C6,b12
1895,8230DB003943,"Dept of Agriculture, stop 3943",53.3470719,-6.494294919,5940.1.60-C6-d12-1.353.I,27:17:13,27:17:13,24, Ringsend Road,9688.69,60-C6-d12-1,C6,d12
1896,8230DB003945,"Weston Aerodrome, stop 3945",53.35370171,-6.479865358,5940.1.60-C6-d12-1.353.I,27:18:28,27:18:28,25, Ringsend Road,10903.01,60-C6-d12-1,C6,d12
1897,8230DB003946,"Weston Estate, stop 3946",53.35611534,-6.475317639,5940.1.60-C6-d12-1.353.I,27:19:02,27:19:02,26, Ringsend Road,11309.43,60-C6-d12-1,C6,d12
1898,8230DB004001,"Liffey Valley Golf, stop 4001",53.35892285,-6.472062381,5940.1.60-C6-d12-1.353.I,27:19:53,27:19:53,28, Ringsend Road,11914.2,60-C6-d12-1,C6,d12
1899,8230DB003949,"Leixlip Road, stop 3949",53.35551692,-6.460211074,5940.1.60-C6-d12-1.353.I,27:21:00,27:21:00,29, Ringsend Road,12795.89,60-C6-d12-1,C6,d12
1900,8230DB003950,"Ball Alley House, stop 3950",53.35560249,-6.455010094,5940.1.60-C6-d12-1.353.I,27:21:29,27:21:29,30, Ringsend Road,13153.84,60-C6-d12-1,C6,d12
1901,8230DB003372,"Lucan Village, stop 3372",53.35656433,-6.448094691,5940.1.60-C6-d12-1.353.I,27:22:07,27:22:07,31, Ringsend Road,13625.44,60-C6-d12-1,C6,d12
1902,8230DB003373,"Lucan Heights, stop 3373",53.35808279,-6.441849744,5940.1.60-C6-d12-1.353.I,27:22:42,27:22:42,32, Ringsend Road,14099.03,60-C6-d12-1,C6,d12
1903,8230DB003374,"St Mary's Church, stop 3374",53.35963427,-6.439524473,5940.1.60-C6-d12-1.353.I,27:23:03,27:23:03,33, Ringsend Road,14330.39,60-C6-d12-1,C6,d12
1904,8230DB002233,"Chalet Gardens, stop 2233",53.3600895,-6.435165776,5940.1.60-C6-d12-1.353.I,27:23:30,27:23:30,34, Ringsend Road,14626.32,60-C6-d12-1,C6,d12
1905,8230DB002232,"Ballydowd Grove, stop 2232",53.35973763,-6.430956834,5940.1.60-C6-d12-1.353.I,27:23:56,27:23:56,35, Ringsend Road,14911.83,60-C6-d12-1,C6,d12
1906,8230DB002234,"Lucan Retail Park, stop 2234",53.35933655,-6.424390974,5940.1.60-C6-d12-1.353.I,27:24:37,27:24:37,36, Ringsend Road,15349.14,60-C6-d12-1,C6,d12
1907,8230DB002236,"Hermitage Bridge, stop 2236",53.35886946,-6.410856513,5940.1.60-C6-d12-1.353.I,27:25:44,27:25:44,37, Ringsend Road,16268.89,60-C6-d12-1,C6,d12
1908,8230DB005056,"Hermitage Clinic, stop 5056",53.35752149,-6.402793928,5940.1.60-C6-d12-1.353.I,27:26:25,27:26:25,38, Ringsend Road,16827.55,60-C6-d12-1,C6,d12
1909,8230DB002239,"Liffey Valley SC, stop 2239",53.35616847,-6.3917274,5940.1.60-C6-d12-1.353.I,27:27:25,27:27:25,39, Ringsend Road,17646.8,60-C6-d12-1,C6,d12
1910,8230DB002241,"Kennelsfort Road, stop 2241",53.35492926,-6.371268023,5940.1.60-C6-d12-1.353.I,27:28:57,27:28:57,40, Ringsend Road,19066.21,60-C6-d12-1,C6,d12
1911,8230DB002242,"The Oval, stop 2242",53.35392732,-6.367009818,5940.1.60-C6-d12-1.353.I,27:29:18,27:29:18,41, Ringsend Road,19371.62,60-C6-d12-1,C6,d12
1912,8220DB002243,"Glenaulin, stop 2243",53.35197438,-6.355697995,5940.1.60-C6-d12-1.353.I,27:30:37,27:30:37,42, Ringsend Road,20165.26,60-C6-d12-1,C6,d12
1913,8220DB002244,"Belgrove Park, stop 2244",53.35088435,-6.351609074,5940.1.60-C6-d12-1.353.I,27:31:06,27:31:06,43, Ringsend Road,20462.36,60-C6-d12-1,C6,d12
1914,8220DB002245,"Laurence Brook, stop 2245",53.3494632,-6.348284211,5940.1.60-C6-d12-1.353.I,27:31:30,27:31:30,44, Ringsend Road,20734.71,60-C6-d12-1,C6,d12
1915,8220DB002246,"Chapelizod, stop 2246",53.34831131,-6.343642354,5940.1.60-C6-d12-1.353.I,27:32:07,27:32:07,45, Ringsend Road,21147.73,60-C6-d12-1,C6,d12
1916,8220DB002247,"St Mary's Hospital, stop 2247",53.34675286,-6.336282916,5940.1.60-C6-d12-1.353.I,27:32:48,27:32:48,46, Ringsend Road,21684.2,60-C6-d12-1,C6,d12
1917,8220DB002248,"Military Road, stop 2248",53.34632093,-6.327888637,5940.1.60-C6-d12-1.353.I,27:33:31,27:33:31,47, Ringsend Road,22242.73,60-C6-d12-1,C6,d12
1918,8220DB002249,"Garda Boat Club, stop 2249",53.3465317,-6.321136449,5940.1.60-C6-d12-1.353.I,27:33:58,27:33:58,48, Ringsend Road,22693.91,60-C6-d12-1,C6,d12
1919,8220DB002250,"Salmon Pool, stop 2250",53.34743859,-6.31533304,5940.1.60-C6-d12-1.353.I,27:34:22,27:34:22,49, Ringsend Road,23092.77,60-C6-d12-1,C6,d12
1920,8220DB002251,"Islandbridge Gate, stop 2251",53.34813204,-6.310979792,5940.1.60-C6-d12-1.353.I,27:34:51,27:34:51,50, Ringsend Road,23391.19,60-C6-d12-1,C6,d12
1921,8220DB001472,"Conyngham Road, stop 1472",53.34842947,-6.30596617,5940.1.60-C6-d12-1.353.I,27:35:24,27:35:24,51, Ringsend Road,23725.1,60-C6-d12-1,C6,d12
1922,8220DB004408,"Phoenix House, stop 4408",53.34833336,-6.30110331,5940.1.60-C6-d12-1.353.I,27:35:46,27:35:46,52, Ringsend Road,24047.14,60-C6-d12-1,C6,d12
1923,8220DB001473,"Phoenix Park Gate, stop 1473",53.34830598,-6.298550899,5940.1.60-C6-d12-1.353.I,27:35:58,27:35:58,53, Ringsend Road,24216.59,60-C6-d12-1,C6,d12
1924,8220DB001474,"Parkgate Street, stop 1474",53.34794792,-6.292361705,5940.1.60-C6-d12-1.353.I,27:36:38,27:36:38,54, Ringsend Road,24628.98,60-C6-d12-1,C6,d12
1925,8220DB001476,"Sarsfield Quay, stop 1476",53.34707369,-6.284676275,5940.1.60-C6-d12-1.353.I,27:37:29,27:37:29,55, Ringsend Road,25157.24,60-C6-d12-1,C6,d12
1926,8220DB007854,"Arran Quay, stop 7854",53.34636761,-6.278711665,5940.1.60-C6-d12-1.353.I,27:38:27,27:38:27,56, Ringsend Road,25559.97,60-C6-d12-1,C6,d12
1927,8220DB007856,"Four Courts, stop 7856",53.34562262,-6.273184391,5940.1.60-C6-d12-1.353.I,27:39:28,27:39:28,57, Ringsend Road,25939.4,60-C6-d12-1,C6,d12
1928,8220DB007883,"Ormond Quay, stop 7883",53.346058,-6.268495617,5940.1.60-C6-d12-1.353.I,27:40:24,27:40:24,58, Ringsend Road,26258.63,60-C6-d12-1,C6,d12
1929,8220DB000315,"Bachelors Walk, stop 315",53.34702829,-6.261667155,5940.1.60-C6-d12-1.353.I,27:41:46,27:41:46,59, Ringsend Road,26728.83,60-C6-d12-1,C6,d12
1930,8220DB000340,"Townsend Street, stop 340",53.34597512,-6.256017478,5940.1.60-C6-d12-1.353.I,27:44:43,27:44:43,60, Ringsend Road,27219.55,60-C6-d12-1,C6,d12
1931,8220DB007861,"Prince's St South, stop 7861",53.34561679,-6.249348317,5940.1.60-C6-d12-1.353.I,27:45:51,27:45:51,61, Ringsend Road,27663.65,60-C6-d12-1,C6,d12
1932,8220DB000351,"Erne Street, stop 351",53.34341826,-6.245308174,5940.1.60-C6-d12-1.353.I,27:46:51,27:46:51,62, Ringsend Road,28030.22,60-C6-d12-1,C6,d12
1933,8220DB000352,"Pearse Square, stop 352",53.34298915,-6.24241214,5940.1.60-C6-d12-1.353.I,27:47:14,27:47:14,63, Ringsend Road,28231.28,60-C6-d12-1,C6,d12
1934,8220DB000353,"Grand Canal Quay, stop 353",53.34264501,-6.239798018,5940.1.60-C6-d12-1.353.I,27:47:35,27:47:35,64, Ringsend Road,28407.56,60-C6-d12-1,C6,d12
1935,8220DB000354,"Ringsend Road, stop 354",53.34223583,-6.23643569,5940.1.60-C6-d12-1.353.I,27:47:58,27:47:58,65, Ringsend Road,28635.61,60-C6-d12-1,C6,d12
2124,8230DB003943,"Dept of Agriculture, stop 3943",53.3470719,-6.494294919,5969.1.60-C6-b12-1.353.I,25:17:13,25:17:13,24, Ringsend Road,9688.69,60-C6-b12-1,C6,b12
2125,8230DB003945,"Weston Aerodrome, stop 3945",53.35370171,-6.479865358,5969.1.60-C6-b12-1.353.I,25:18:28,25:18:28,25, Ringsend Road,10903.01,60-C6-b12-1,C6,b12
2126,8230DB003946,"Weston Estate, stop 3946",53.35611534,-6.475317639,5969.1.60-C6-b12-1.353.I,25:19:02,25:19:02,26, Ringsend Road,11309.43,60-C6-b12-1,C6,b12
2127,8230DB004001,"Liffey Valley Golf, stop 4001",53.35892285,-6.472062381,5969.1.60-C6-b12-1.353.I,25:19:53,25:19:53,28, Ringsend Road,11914.2,60-C6-b12-1,C6,b12
2128,8230DB003949,"Leixlip Road, stop 3949",53.35551692,-6.460211074,5969.1.60-C6-b12-1.353.I,25:21:00,25:21:00,29, Ringsend Road,12795.89,60-C6-b12-1,C6,b12
2129,8230DB003950,"Ball Alley House, stop 3950",53.35560249,-6.455010094,5969.1.60-C6-b12-1.353.I,25:21:29,25:21:29,30, Ringsend Road,13153.84,60-C6-b12-1,C6,b12
2130,8230DB003372,"Lucan Village, stop 3372",53.35656433,-6.448094691,5969.1.60-C6-b12-1.353.I,25:22:07,25:22:07,31, Ringsend Road,13625.44,60-C6-b12-1,C6,b12
2131,8230DB003373,"Lucan Heights, stop 3373",53.35808279,-6.441849744,5969.1.60-C6-b12-1.353.I,25:22:42,25:22:42,32, Ringsend Road,14099.03,60-C6-b12-1,C6,b12
2132,8230DB003374,"St Mary's Church, stop 3374",53.35963427,-6.439524473,5969.1.60-C6-b12-1.353.I,25:23:03,25:23:03,33, Ringsend Road,14330.39,60-C6-b12-1,C6,b12
2133,8230DB002233,"Chalet Gardens, stop 2233",53.3600895,-6.435165776,5969.1.60-C6-b12-1.353.I,25:23:30,25:23:30,34, Ringsend Road,14626.32,60-C6-b12-1,C6,b12
2134,8230DB002232,"Ballydowd Grove, stop 2232",53.35973763,-6.430956834,5969.1.60-C6-b12-1.353.I,25:23:56,25:23:56,35, Ringsend Road,14911.83,60-C6-b12-1,C6,b12
2135,8230DB002234,"Lucan Retail Park, stop 2234",53.35933655,-6.424390974,5969.1.60-C6-b12-1.353.I,25:24:37,25:24:37,36, Ringsend Road,15349.14,60-C6-b12-1,C6,b12
2136,8230DB002236,"Hermitage Bridge, stop 2236",53.35886946,-6.410856513,5969.1.60-C6-b12-1.353.I,25:25:44,25:25:44,37, Ringsend Road,16268.89,60-C6-b12-1,C6,b12
2137,8230DB005056,"Hermitage Clinic, stop 5056",53.35752149,-6.402793928,5969.1.60-C6-b12-1.353.I,25:26:25,25:26:25,38, Ringsend Road,16827.55,60-C6-b12-1,C6,b12
2138,8230DB002239,"Liffey Valley SC, stop 2239",53.35616847,-6.3917274,5969.1.60-C6-b12-1.353.I,25:27:25,25:27:25,39, Ringsend Road,17646.8,60-C6-b12-1,C6,b12
2139,8230DB002241,"Kennelsfort Road, stop 2241",53.35492926,-6.371268023,5969.1.60-C6-b12-1.353.I,25:28:57,25:28:57,40, Ringsend Road,19066.21,60-C6-b12-1,C6,b12
2140,8230DB002242,"The Oval, stop 2242",53.35392732,-6.367009818,5969.1.60-C6-b12-1.353.I,25:29:18,25:29:18,41, Ringsend Road,19371.62,60-C6-b12-1,C6,b12
2141,8220DB002243,"Glenaulin, stop 2243",53.35197438,-6.355697995,5969.1.60-C6-b12-1.353.I,25:30:37,25:30:37,42, Ringsend Road,20165.26,60-C6-b12-1,C6,b12
2142,8220DB002244,"Belgrove Park, stop 2244",53.35088435,-6.351609074,5969.1.60-C6-b12-1.353.I,25:31:06,25:31:06,43, Ringsend Road,20462.36,60-C6-b12-1,C6,b12
2143,8220DB002245,"Laurence Brook, stop 2245",53.3494632,-6.348284211,5969.1.60-C6-b12-1.353.I,25:31:30,25:31:30,44, Ringsend Road,20734.71,60-C6-b12-1,C6,b12
2144,8220DB002246,"Chapelizod, stop 2246",53.34831131,-6.343642354,5969.1.60-C6-b12-1.353.I,25:32:07,25:32:07,45, Ringsend Road,21147.73,60-C6-b12-1,C6,b12
2145,8220DB002247,"St Mary's Hospital, stop 2247",53.34675286,-6.336282916,5969.1.60-C6-b12-1.353.I,25:32:48,25:32:48,46, Ringsend Road,21684.2,60-C6-b12-1,C6,b12
2146,8220DB002248,"Military Road, stop 2248",53.34632093,-6.327888637,5969.1.60-C6-b12-1.353.I,25:33:31,25:33:31,47, Ringsend Road,22242.73,60-C6-b12-1,C6,b12
2147,8220DB002249,"Garda Boat Club, stop 2249",53.3465317,-6.321136449,5969.1.60-C6-b12-1.353.I,25:33:58,25:33:58,48, Ringsend Road,22693.91,60-C6-b12-1,C6,b12
2148,8220DB002250,"Salmon Pool, stop 2250",53.34743859,-6.31533304,5969.1.60-C6-b12-1.353.I,25:34:22,25:34:22,49, Ringsend Road,23092.77,60-C6-b12-1,C6,b12
2149,8220DB002251,"Islandbridge Gate, stop 2251",53.34813204,-6.310979792,5969.1.60-C6-b12-1.353.I,25:34:51,25:34:51,50, Ringsend Road,23391.19,60-C6-b12-1,C6,b12
2150,8220DB001472,"Conyngham Road, stop 1472",53.34842947,-6.30596617,5969.1.60-C6-b12-1.353.I,25:35:24,25:35:24,51, Ringsend Road,23725.1,60-C6-b12-1,C6,b12
2151,8220DB004408,"Phoenix House, stop 4408",53.34833336,-6.30110331,5969.1.60-C6-b12-1.353.I,25:35:46,25:35:46,52, Ringsend Road,24047.14,60-C6-b12-1,C6,b12
2152,8220DB001473,"Phoenix Park Gate, stop 1473",53.34830598,-6.298550899,5969.1.60-C6-b12-1.353.I,25:35:58,25:35:58,53, Ringsend Road,24216.59,60-C6-b12-1,C6,b12
2153,8220DB001474,"Parkgate Street, stop 1474",53.34794792,-6.292361705,5969.1.60-C6-b12-1.353.I,25:36:38,25:36:38,54, Ringsend Road,24628.98,60-C6-b12-1,C6,b12
2154,8220DB001476,"Sarsfield Quay, stop 1476",53.34707369,-6.284676275,5969.1.60-C6-b12-1.353.I,25:37:29,25:37:29,55, Ringsend Road,25157.24,60-C6-b12-1,C6,b12
2155,8220DB007854,"Arran Quay, stop 7854",53.34636761,-6.278711665,5969.1.60-C6-b12-1.353.I,25:38:27,25:38:27,56, Ringsend Road,25559.97,60-C6-b12-1,C6,b12
2156,8220DB007856,"Four Courts, stop 7856",53.34562262,-6.273184391,5969.1.60-C6-b12-1.353.I,25:39:28,25:39:28,57, Ringsend Road,25939.4,60-C6-b12-1,C6,b12
2157,8220DB007883,"Ormond Quay, stop 7883",53.346058,-6.268495617,5969.1.60-C6-b12-1.353.I,25:40:24,25:40:24,58, Ringsend Road,26258.63,60-C6-b12-1,C6,b12
2158,8220DB000315,"Bachelors Walk, stop 315",53.34702829,-6.261667155,5969.1.60-C6-b12-1.353.I,25:41:46,25:41:46,59, Ringsend Road,26728.83,60-C6-b12-1,C6,b12
2159,8220DB000340,"Townsend Street, stop 340",53.34597512,-6.256017478,5969.1.60-C6-b12-1.353.I,25:44:43,25:44:43,60, Ringsend Road,27219.55,60-C6-b12-1,C6,b12
2160,8220DB007861,"Prince's St South, stop 7861",53.34561679,-6.249348317,5969.1.60-C6-b12-1.353.I,25:45:51,25:45:51,61, Ringsend Road,27663.65,60-C6-b12-1,C6,b12
2161,8220DB000351,"Erne Street, stop 351",53.34341826,-6.245308174,5969.1.60-C6-b12-1.353.I,25:46:51,25:46:51,62, Ringsend Road,28030.22,60-C6-b12-1,C6,b12
2162,8220DB000352,"Pearse Square, stop 352",53.34298915,-6.24241214,5969.1.60-C6-b12-1.353.I,25:47:14,25:47:14,63, Ringsend Road,28231.28,60-C6-b12-1,C6,b12
2163,8220DB000353,"Grand Canal Quay, stop 353",53.34264501,-6.239798018,5969.1.60-C6-b12-1.353.I,25:47:35,25:47:35,64, Ringsend Road,28407.56,60-C6-b12-1,C6,b12
2164,8220DB000354,"Ringsend Road, stop 354",53.34223583,-6.23643569,5969.1.60-C6-b12-1.353.I,25:47:58,25:47:58,65, Ringsend Road,28635.61,60-C6-b12-1,C6,b12
2165,8230DB003943,"Dept of Agriculture, stop 3943",53.3470719,-6.494294919,5969.1.60-C6-d12-1.353.I,25:17:13,25:17:13,24, Ringsend Road,9688.69,60-C6-d12-1,C6,d12
2166,8230DB003945,"Weston Aerodrome, stop 3945",53.35370171,-6.479865358,5969.1.60-C6-d12-1.353.I,25:18:28,25:18:28,25, Ringsend Road,10903.01,60-C6-d12-1,C6,d12
2167,8230DB003946,"Weston Estate, stop 3946",53.35611534,-6.475317639,5969.1.60-C6-d12-1.353.I,25:19:02,25:19:02,26, Ringsend Road,11309.43,60-C6-d12-1,C6,d12
2168,8230DB004001,"Liffey Valley Golf, stop 4001",53.35892285,-6.472062381,5969.1.60-C6-d12-1.353.I,25:19:53,25:19:53,28, Ringsend Road,11914.2,60-C6-d12-1,C6,d12
2169,8230DB003949,"Leixlip Road, stop 3949",53.35551692,-6.460211074,5969.1.60-C6-d12-1.353.I,25:21:00,25:21:00,29, Ringsend Road,12795.89,60-C6-d12-1,C6,d12
2170,8230DB003950,"Ball Alley House, stop 3950",53.35560249,-6.455010094,5969.1.60-C6-d12-1.353.I,25:21:29,25:21:29,30, Ringsend Road,13153.84,60-C6-d12-1,C6,d12
2171,8230DB003372,"Lucan Village, stop 3372",53.35656433,-6.448094691,5969.1.60-C6-d12-1.353.I,25:22:07,25:22:07,31, Ringsend Road,13625.44,60-C6-d12-1,C6,d12
2172,8230DB003373,"Lucan Heights, stop 3373",53.35808279,-6.441849744,5969.1.60-C6-d12-1.353.I,25:22:42,25:22:42,32, Ringsend Road,14099.03,60-C6-d12-1,C6,d12
2173,8230DB003374,"St Mary's Church, stop 3374",53.35963427,-6.439524473,5969.1.60-C6-d12-1.353.I,25:23:03,25:23:03,33, Ringsend Road,14330.39,60-C6-d12-1,C6,d12
2174,8230DB002233,"Chalet Gardens, stop 2233",53.3600895,-6.435165776,5969.1.60-C6-d12-1.353.I,25:23:30,25:23:30,34, Ringsend Road,14626.32,60-C6-d12-1,C6,d12
2175,8230DB002232,"Ballydowd Grove, stop 2232",53.35973763,-6.430956834,5969.1.60-C6-d12-1.353.I,25:23:56,25:23:56,35, Ringsend Road,14911.83,60-C6-d12-1,C6,d12
2176,8230DB002234,"Lucan Retail Park, stop 2234",53.35933655,-6.424390974,5969.1.60-C6-d12-1.353.I,25:24:37,25:24:37,36, Ringsend Road,15349.14,60-C6-d12-1,C6,d12
2177,8230DB002236,"Hermitage Bridge, stop 2236",53.35886946,-6.410856513,5969.1.60-C6-d12-1.353.I,25:25:44,25:25:44,37, Ringsend Road,16268.89,60-C6-d12-1,C6,d12
2178,8230DB005056,"Hermitage Clinic, stop 5056",53.35752149,-6.402793928,5969.1.60-C6-d12-1.353.I,25:26:25,25:26:25,38, Ringsend Road,16827.55,60-C6-d12-1,C6,d12
2179,8230DB002239,"Liffey Valley SC, stop 2239",53.35616847,-6.3917274,5969.1.60-C6-d12-1.353.I,25:27:25,25:27:25,39, Ringsend Road,17646.8,60-C6-d12-1,C6,d12
2180,8230DB002241,"Kennelsfort Road, stop 2241",53.35492926,-6.371268023,5969.1.60-C6-d12-1.353.I,25:28:57,25:28:57,40, Ringsend Road,19066.21,60-C6-d12-1,C6,d12
2181,8230DB002242,"The Oval, stop 2242",53.35392732,-6.367009818,5969.1.60-C6-d12-1.353.I,25:29:18,25:29:18,41, Ringsend Road,19371.62,60-C6-d12-1,C6,d12
2182,8220DB002243,"Glenaulin, stop 2243",53.35197438,-6.355697995,5969.1.60-C6-d12-1.353.I,25:30:37,25:30:37,42, Ringsend Road,20165.26,60-C6-d12-1,C6,d12
2183,8220DB002244,"Belgrove Park, stop 2244",53.35088435,-6.351609074,5969.1.60-C6-d12-1.353.I,25:31:06,25:31:06,43, Ringsend Road,20462.36,60-C6-d12-1,C6,d12
2184,8220DB002245,"Laurence Brook, stop 2245",53.3494632,-6.348284211,5969.1.60-C6-d12-1.353.I,25:31:30,25:31:30,44, Ringsend Road,20734.71,60-C6-d12-1,C6,d12
2185,8220DB002246,"Chapelizod, stop 2246",53.34831131,-6.343642354,5969.1.60-C6-d12-1.353.I,25:32:07,25:32:07,45, Ringsend Road,21147.73,60-C6-d12-1,C6,d12
2186,8220DB002247,"St Mary's Hospital, stop 2247",53.34675286,-6.336282916,5969.1.60-C6-d12-1.353.I,25:32:48,25:32:48,46, Ringsend Road,21684.2,60-C6-d12-1,C6,d12
2187,8220DB002248,"Military Road, stop 2248",53.34632093,-6.327888637,5969.1.60-C6-d12-1.353.I,25:33:31,25:33:31,47, Ringsend Road,22242.73,60-C6-d12-1,C6,d12
2188,8220DB002249,"Garda Boat Club, stop 2249",53.3465317,-6.321136449,5969.1.60-C6-d12-1.353.I,25:33:58,25:33:58,48, Ringsend Road,22693.91,60-C6-d12-1,C6,d12
2189,8220DB002250,"Salmon Pool, stop 2250",53.34743859,-6.31533304,5969.1.60-C6-d12-1.353.I,25:34:22,25:34:22,49, Ringsend Road,23092.77,60-C6-d12-1,C6,d12
2190,8220DB002251,"Islandbridge Gate, stop 2251",53.34813204,-6.310979792,5969.1.60-C6-d12-1.353.I,25:34:51,25:34:51,50, Ringsend Road,23391.19,60-C6-d12-1,C6,d12
2191,8220DB001472,"Conyngham Road, stop 1472",53.34842947,-6.30596617,5969.1.60-C6-d12-1.353.I,25:35:24,25:35:24,51, Ringsend Road,23725.1,60-C6-d12-1,C6,d12
2192,8220DB004408,"Phoenix House, stop 4408",53.34833336,-6.30110331,5969.1.60-C6-d12-1.353.I,25:35:46,25:35:46,52, Ringsend Road,24047.14,60-C6-d12-1,C6,d12
2193,8220DB001473,"Phoenix Park Gate, stop 1473",53.34830598,-6.298550899,5969.1.60-C6-d12-1.353.I,25:35:58,25:35:58,53, Ringsend Road,24216.59,60-C6-d12-1,C6,d12
2194,8220DB001474,"Parkgate Street, stop 1474",53.34794792,-6.292361705,5969.1.60-C6-d12-1.353.I,25:36:38,25:36:38,54, Ringsend Road,24628.98,60-C6-d12-1,C6,d12
2195,8220DB001476,"Sarsfield Quay, stop 1476",53.34707369,-6.284676275,5969.1.60-C6-d12-1.353.I,25:37:29,25:37:29,55, Ringsend Road,25157.24,60-C6-d12-1,C6,d12
2196,8220DB007854,"Arran Quay, stop 7854",53.34636761,-6.278711665,5969.1.60-C6-d12-1.353.I,25:38:27,25:38:27,56, Ringsend Road,25559.97,60-C6-d12-1,C6,d12
2197,8220DB007856,"Four Courts, stop 7856",53.34562262,-6.273184391,5969.1.60-C6-d12-1.353.I,25:39:28,25:39:28,57, Ringsend Road,25939.4,60-C6-d12-1,C6,d12
2198,8220DB007883,"Ormond Quay, stop 7883",53.346058,-6.268495617,5969.1.60-C6-d12-1.353.I,25:40:24,25:40:24,58, Ringsend Road,26258.63,60-C6-d12-1,C6,d12
2199,8220DB000315,"Bachelors Walk, stop 315",53.34702829,-6.261667155,5969.1.60-C6-d12-1.353.I,25:41:46,25:41:46,59, Ringsend Road,26728.83,60-C6-d12-1,C6,d12
2200,8220DB000340,"Townsend Street, stop 340",53.34597512,-6.256017478,5969.1.60-C6-d12-1.353.I,25:44:43,25:44:43,60, Ringsend Road,27219.55,60-C6-d12-1,C6,d12
2201,8220DB007861,"Prince's St South, stop 7861",53.34561679,-6.249348317,5969.1.60-C6-d12-1.353.I,25:45:51,25:45:51,61, Ringsend Road,27663.65,60-C6-d12-1,C6,d12
2202,8220DB000351,"Erne Street, stop 351",53.34341826,-6.245308174,5969.1.60-C6-d12-1.353.I,25:46:51,25:46:51,62, Ringsend Road,28030.22,60-C6-d12-1,C6,d12
2203,8220DB000352,"Pearse Square, stop 352",53.34298915,-6.24241214,5969.1.60-C6-d12-1.353.I,25:47:14,25:47:14,63, Ringsend Road,28231.28,60-C6-d12-1,C6,d12
2204,8220DB000353,"Grand Canal Quay, stop 353",53.34264501,-6.239798018,5969.1.60-C6-d12-1.353.I,25:47:35,25:47:35,64, Ringsend Road,28407.56,60-C6-d12-1,C6,d12
2205,8220DB000354,"Ringsend Road, stop 354",53.34223583,-6.23643569,5969.1.60-C6-d12-1.353.I,25:47:58,25:47:58,65, Ringsend Road,28635.61,60-C6-d12-1,C6,d12
2206,8230DB003943,"Dept of Agriculture, stop 3943",53.3470719,-6.494294919,5971.1.60-C6-b12-1.353.I,28:20:48,28:20:48,24, Ringsend Road,9688.69,60-C6-b12-1,C6,b12
2207,8230DB003945,"Weston Aerodrome, stop 3945",53.35370171,-6.479865358,5971.1.60-C6-b12-1.353.I,28:22:04,28:22:04,25, Ringsend Road,10903.01,60-C6-b12-1,C6,b12
2208,8230DB003946,"Weston Estate, stop 3946",53.35611534,-6.475317639,5971.1.60-C6-b12-1.353.I,28:22:39,28:22:39,26, Ringsend Road,11309.43,60-C6-b12-1,C6,b12
2209,8230DB004001,"Liffey Valley Golf, stop 4001",53.35892285,-6.472062381,5971.1.60-C6-b12-1.353.I,28:23:32,28:23:32,28, Ringsend Road,11914.2,60-C6-b12-1,C6,b12
2210,8230DB003949,"Leixlip Road, stop 3949",53.35551692,-6.460211074,5971.1.60-C6-b12-1.353.I,28:24:38,28:24:38,29, Ringsend Road,12795.89,60-C6-b12-1,C6,b12
2211,8230DB003950,"Ball Alley House, stop 3950",53.35560249,-6.455010094,5971.1.60-C6-b12-1.353.I,28:25:05,28:25:05,30, Ringsend Road,13153.84,60-C6-b12-1,C6,b12
2212,8230DB003372,"Lucan Village, stop 3372",53.35656433,-6.448094691,5971.1.60-C6-b12-1.353.I,28:25:40,28:25:40,31, Ringsend Road,13625.44,60-C6-b12-1,C6,b12
2213,8230DB003373,"Lucan Heights, stop 3373",53.35808279,-6.441849744,5971.1.60-C6-b12-1.353.I,28:26:12,28:26:12,32, Ringsend Road,14099.03,60-C6-b12-1,C6,b12
2214,8230DB003374,"St Mary's Church, stop 3374",53.35963427,-6.439524473,5971.1.60-C6-b12-1.353.I,28:26:40,28:26:40,33, Ringsend Road,14330.39,60-C6-b12-1,C6,b12
2215,8230DB002233,"Chalet Gardens, stop 2233",53.3600895,-6.435165776,5971.1.60-C6-b12-1.353.I,28:27:16,28:27:16,34, Ringsend Road,14626.32,60-C6-b12-1,C6,b12
2216,8230DB002232,"Ballydowd Grove, stop 2232",53.35973763,-6.430956834,5971.1.60-C6-b12-1.353.I,28:27:38,28:27:38,35, Ringsend Road,14911.83,60-C6-b12-1,C6,b12
2217,8230DB002234,"Lucan Retail Park, stop 2234",53.35933655,-6.424390974,5971.1.60-C6-b12-1.353.I,28:28:13,28:28:13,36, Ringsend Road,15349.14,60-C6-b12-1,C6,b12
2218,8230DB002236,"Hermitage Bridge, stop 2236",53.35886946,-6.410856513,5971.1.60-C6-b12-1.353.I,28:29:12,28:29:12,37, Ringsend Road,16268.89,60-C6-b12-1,C6,b12
2219,8230DB005056,"Hermitage Clinic, stop 5056",53.35752149,-6.402793928,5971.1.60-C6-b12-1.353.I,28:29:48,28:29:48,38, Ringsend Road,16827.55,60-C6-b12-1,C6,b12
2220,8230DB002239,"Liffey Valley SC, stop 2239",53.35616847,-6.3917274,5971.1.60-C6-b12-1.353.I,28:30:50,28:30:50,39, Ringsend Road,17646.8,60-C6-b12-1,C6,b12
2221,8230DB002241,"Kennelsfort Road, stop 2241",53.35492926,-6.371268023,5971.1.60-C6-b12-1.353.I,28:32:17,28:32:17,40, Ringsend Road,19066.21,60-C6-b12-1,C6,b12
2222,8230DB002242,"The Oval, stop 2242",53.35392732,-6.367009818,5971.1.60-C6-b12-1.353.I,28:32:36,28:32:36,41, Ringsend Road,19371.62,60-C6-b12-1,C6,b12
2223,8220DB002243,"Glenaulin, stop 2243",53.35197438,-6.355697995,5971.1.60-C6-b12-1.353.I,28:33:55,28:33:55,42, Ringsend Road,20165.26,60-C6-b12-1,C6,b12
2224,8220DB002244,"Belgrove Park, stop 2244",53.35088435,-6.351609074,5971.1.60-C6-b12-1.353.I,28:34:24,28:34:24,43, Ringsend Road,20462.36,60-C6-b12-1,C6,b12
2225,8220DB002245,"Laurence Brook, stop 2245",53.3494632,-6.348284211,5971.1.60-C6-b12-1.353.I,28:34:45,28:34:45,44, Ringsend Road,20734.71,60-C6-b12-1,C6,b12
2226,8220DB002246,"Chapelizod, stop 2246",53.34831131,-6.343642354,5971.1.60-C6-b12-1.353.I,28:35:17,28:35:17,45, Ringsend Road,21147.73,60-C6-b12-1,C6,b12
2227,8220DB002247,"St Mary's Hospital, stop 2247",53.34675286,-6.336282916,5971.1.60-C6-b12-1.353.I,28:35:58,28:35:58,46, Ringsend Road,21684.2,60-C6-b12-1,C6,b12
2228,8220DB002248,"Military Road, stop 2248",53.34632093,-6.327888637,5971.1.60-C6-b12-1.353.I,28:36:41,28:36:41,47, Ringsend Road,22242.73,60-C6-b12-1,C6,b12
2229,8220DB002249,"Garda Boat Club, stop 2249",53.3465317,-6.321136449,5971.1.60-C6-b12-1.353.I,28:37:08,28:37:08,48, Ringsend Road,22693.91,60-C6-b12-1,C6,b12
2230,8220DB002250,"Salmon Pool, stop 2250",53.34743859,-6.31533304,5971.1.60-C6-b12-1.353.I,28:37:31,28:37:31,49, Ringsend Road,23092.77,60-C6-b12-1,C6,b12
2231,8220DB002251,"Islandbridge Gate, stop 2251",53.34813204,-6.310979792,5971.1.60-C6-b12-1.353.I,28:37:58,28:37:58,50, Ringsend Road,23391.19,60-C6-b12-1,C6,b12
2232,8220DB001472,"Conyngham Road, stop 1472",53.34842947,-6.30596617,5971.1.60-C6-b12-1.353.I,28:38:29,28:38:29,51, Ringsend Road,23725.1,60-C6-b12-1,C6,b12
2233,8220DB004408,"Phoenix House, stop 4408",53.34833336,-6.30110331,5971.1.60-C6-b12-1.353.I,28:38:50,28:38:50,52, Ringsend Road,24047.14,60-C6-b12-1,C6,b12
2234,8220DB001473,"Phoenix Park Gate, stop 1473",53.34830598,-6.298550899,5971.1.60-C6-b12-1.353.I,28:39:01,28:39:01,53, Ringsend Road,24216.59,60-C6-b12-1,C6,b12
2235,8220DB001474,"Parkgate Street, stop 1474",53.34794792,-6.292361705,5971.1.60-C6-b12-1.353.I,28:39:47,28:39:47,54, Ringsend Road,24628.98,60-C6-b12-1,C6,b12
2236,8220DB001476,"Sarsfield Quay, stop 1476",53.34707369,-6.284676275,5971.1.60-C6-b12-1.353.I,28:40:46,28:40:46,55, Ringsend Road,25157.24,60-C6-b12-1,C6,b12
2237,8220DB007854,"Arran Quay, stop 7854",53.34636761,-6.278711665,5971.1.60-C6-b12-1.353.I,28:41:47,28:41:47,56, Ringsend Road,25559.97,60-C6-b12-1,C6,b12
2238,8220DB007856,"Four Courts, stop 7856",53.34562262,-6.273184391,5971.1.60-C6-b12-1.353.I,28:42:32,28:42:32,57, Ringsend Road,25939.4,60-C6-b12-1,C6,b12
2239,8220DB007883,"Ormond Quay, stop 7883",53.346058,-6.268495617,5971.1.60-C6-b12-1.353.I,28:43:24,28:43:24,58, Ringsend Road,26258.63,60-C6-b12-1,C6,b12
2240,8220DB000315,"Bachelors Walk, stop 315",53.34702829,-6.261667155,5971.1.60-C6-b12-1.353.I,28:44:40,28:44:40,59, Ringsend Road,26728.83,60-C6-b12-1,C6,b12
2241,8220DB000340,"Townsend Street, stop 340",53.34597512,-6.256017478,5971.1.60-C6-b12-1.353.I,28:46:34,28:46:34,60, Ringsend Road,27219.55,60-C6-b12-1,C6,b12
2242,8220DB007861,"Prince's St South, stop 7861",53.34561679,-6.249348317,5971.1.60-C6-b12-1.353.I,28:47:49,28:47:49,61, Ringsend Road,27663.65,60-C6-b12-1,C6,b12
2243,8220DB000351,"Erne Street, stop 351",53.34341826,-6.245308174,5971.1.60-C6-b12-1.353.I,28:48:54,28:48:54,62, Ringsend Road,28030.22,60-C6-b12-1,C6,b12
2244,8220DB000352,"Pearse Square, stop 352",53.34298915,-6.24241214,5971.1.60-C6-b12-1.353.I,28:49:18,28:49:18,63, Ringsend Road,28231.28,60-C6-b12-1,C6,b12
2245,8220DB000353,"Grand Canal Quay, stop 353",53.34264501,-6.239798018,5971.1.60-C6-b12-1.353.I,28:49:39,28:49:39,64, Ringsend Road,28407.56,60-C6-b12-1,C6,b12
2246,8220DB000354,"Ringsend Road, stop 354",53.34223583,-6.23643569,5971.1.60-C6-b12-1.353.I,28:50:09,28:50:09,65, Ringsend Road,28635.61,60-C6-b12-1,C6,b12
2247,8230DB003943,"Dept of Agriculture, stop 3943",53.3470719,-6.494294919,5971.1.60-C6-d12-1.353.I,28:20:48,28:20:48,24, Ringsend Road,9688.69,60-C6-d12-1,C6,d12
2248,8230DB003945,"Weston Aerodrome, stop 3945",53.35370171,-6.479865358,5971.1.60-C6-d12-1.353.I,28:22:04,28:22:04,25, Ringsend Road,10903.01,60-C6-d12-1,C6,d12
2249,8230DB003946,"Weston Estate, stop 3946",53.35611534,-6.475317639,5971.1.60-C6-d12-1.353.I,28:22:39,28:22:39,26, Ringsend Road,11309.43,60-C6-d12-1,C6,d12
2250,8230DB004001,"Liffey Valley Golf, stop 4001",53.35892285,-6.472062381,5971.1.60-C6-d12-1.353.I,28:23:32,28:23:32,28, Ringsend Road,11914.2,60-C6-d12-1,C6,d12
2251,8230DB003949,"Leixlip Road, stop 3949",53.35551692,-6.460211074,5971.1.60-C6-d12-1.353.I,28:24:38,28:24:38,29, Ringsend Road,12795.89,60-C6-d12-1,C6,d12
2252,8230DB003950,"Ball Alley House, stop 3950",53.35560249,-6.455010094,5971.1.60-C6-d12-1.353.I,28:25:05,28:25:05,30, Ringsend Road,13153.84,60-C6-d12-1,C6,d12
2253,8230DB003372,"Lucan Village, stop 3372",53.35656433,-6.448094691,5971.1.60-C6-d12-1.353.I,28:25:40,28:25:40,31, Ringsend Road,13625.44,60-C6-d12-1,C6,d12
2254,8230DB003373,"Lucan Heights, stop 3373",53.35808279,-6.441849744,5971.1.60-C6-d12-1.353.I,28:26:12,28:26:12,32, Ringsend Road,14099.03,60-C6-d12-1,C6,d12
2255,8230DB003374,"St Mary's Church, stop 3374",53.35963427,-6.439524473,5971.1.60-C6-d12-1.353.I,28:26:40,28:26:40,33, Ringsend Road,14330.39,60-C6-d12-1,C6,d12
2256,8230DB002233,"Chalet Gardens, stop 2233",53.3600895,-6.435165776,5971.1.60-C6-d12-1.353.I,28:27:16,28:27:16,34, Ringsend Road,14626.32,60-C6-d12-1,C6,d12
2257,8230DB002232,"Ballydowd Grove, stop 2232",53.35973763,-6.430956834,5971.1.60-C6-d12-1.353.I,28:27:38,28:27:38,35, Ringsend Road,14911.83,60-C6-d12-1,C6,d12
2258,8230DB002234,"Lucan Retail Park, stop 2234",53.35933655,-6.424390974,5971.1.60-C6-d12-1.353.I,28:28:13,28:28:13,36, Ringsend Road,15349.14,60-C6-d12-1,C6,d12
2259,8230DB002236,"Hermitage Bridge, stop 2236",53.35886946,-6.410856513,5971.1.60-C6-d12-1.353.I,28:29:12,28:29:12,37, Ringsend Road,16268.89,60-C6-d12-1,C6,d12
2260,8230DB005056,"Hermitage Clinic, stop 5056",53.35752149,-6.402793928,5971.1.60-C6-d12-1.353.I,28:29:48,28:29:48,38, Ringsend Road,16827.55,60-C6-d12-1,C6,d12
2261,8230DB002239,"Liffey Valley SC, stop 2239",53.35616847,-6.3917274,5971.1.60-C6-d12-1.353.I,28:30:50,28:30:50,39, Ringsend Road,17646.8,60-C6-d12-1,C6,d12
2262,8230DB002241,"Kennelsfort Road, stop 2241",53.35492926,-6.371268023,5971.1.60-C6-d12-1.353.I,28:32:17,28:32:17,40, Ringsend Road,19066.21,60-C6-d12-1,C6,d12
2263,8230DB002242,"The Oval, stop 2242",53.35392732,-6.367009818,5971.1.60-C6-d12-1.353.I,28:32:36,28:32:36,41, Ringsend Road,19371.62,60-C6-d12-1,C6,d12
2264,8220DB002243,"Glenaulin, stop 2243",53.35197438,-6.355697995,5971.1.60-C6-d12-1.353.I,28:33:55,28:33:55,42, Ringsend Road,20165.26,60-C6-d12-1,C6,d12
2265,8220DB002244,"Belgrove Park, stop 2244",53.35088435,-6.351609074,5971.1.60-C6-d12-1.353.I,28:34:24,28:34:24,43, Ringsend Road,20462.36,60-C6-d12-1,C6,d12
2266,8220DB002245,"Laurence Brook, stop 2245",53.3494632,-6.348284211,5971.1.60-C6-d12-1.353.I,28:34:45,28:34:45,44, Ringsend Road,20734.71,60-C6-d12-1,C6,d12
2267,8220DB002246,"Chapelizod, stop 2246",53.34831131,-6.343642354,5971.1.60-C6-d12-1.353.I,28:35:17,28:35:17,45, Ringsend Road,21147.73,60-C6-d12-1,C6,d12
2268,8220DB002247,"St Mary's Hospital, stop 2247",53.34675286,-6.336282916,5971.1.60-C6-d12-1.353.I,28:35:58,28:35:58,46, Ringsend Road,21684.2,60-C6-d12-1,C6,d12
2269,8220DB002248,"Military Road, stop 2248",53.34632093,-6.327888637,5971.1.60-C6-d12-1.353.I,28:36:41,28:36:41,47, Ringsend Road,22242.73,60-C6-d12-1,C6,d12
2270,8220DB002249,"Garda Boat Club, stop 2249",53.3465317,-6.321136449,5971.1.60-C6-d12-1.353.I,28:37:08,28:37:08,48, Ringsend Road,22693.91,60-C6-d12-1,C6,d12
2271,8220DB002250,"Salmon Pool, stop 2250",53.34743859,-6.31533304,5971.1.60-C6-d12-1.353.I,28:37:31,28:37:31,49, Ringsend Road,23092.77,60-C6-d12-1,C6,d12
2272,8220DB002251,"Islandbridge Gate, stop 2251",53.34813204,-6.310979792,5971.1.60-C6-d12-1.353.I,28:37:58,28:37:58,50, Ringsend Road,23391.19,60-C6-d12-1,C6,d12
2273,8220DB001472,"Conyngham Road, stop 1472",53.34842947,-6.30596617,5971.1.60-C6-d12-1.353.I,28:38:29,28:38:29,51, Ringsend Road,23725.1,60-C6-d12-1,C6,d12
2274,8220DB004408,"Phoenix House, stop 4408",53.34833336,-6.30110331,5971.1.60-C6-d12-1.353.I,28:38:50,28:38:50,52, Ringsend Road,24047.14,60-C6-d12-1,C6,d12
2275,8220DB001473,"Phoenix Park Gate, stop 1473",53.34830598,-6.298550899,5971.1.60-C6-d12-1.353.I,28:39:01,28:39:01,53, Ringsend Road,24216.59,60-C6-d12-1,C6,d12
2276,8220DB001474,"Parkgate Street, stop 1474",53.34794792,-6.292361705,5971.1.60-C6-d12-1.353.I,28:39:47,28:39:47,54, Ringsend Road,24628.98,60-C6-d12-1,C6,d12
2277,8220DB001476,"Sarsfield Quay, stop 1476",53.34707369,-6.284676275,5971.1.60-C6-d12-1.353.I,28:40:46,28:40:46,55, Ringsend Road,25157.24,60-C6-d12-1,C6,d12
2278,8220DB007854,"Arran Quay, stop 7854",53.34636761,-6.278711665,5971.1.60-C6-d12-1.353.I,28:41:47,28:41:47,56, Ringsend Road,25559.97,60-C6-d12-1,C6,d12
2279,8220DB007856,"Four Courts, stop 7856",53.34562262,-6.273184391,5971.1.60-C6-d12-1.353.I,28:42:32,28:42:32,57, Ringsend Road,25939.4,60-C6-d12-1,C6,d12
2280,8220DB007883,"Ormond Quay, stop 7883",53.346058,-6.268495617,5971.1.60-C6-d12-1.353.I,28:43:24,28:43:24,58, Ringsend Road,26258.63,60-C6-d12-1,C6,d12
2281,8220DB000315,"Bachelors Walk, stop 315",53.34702829,-6.261667155,5971.1.60-C6-d12-1.353.I,28:44:40,28:44:40,59, Ringsend Road,26728.83,60-C6-d12-1,C6,d12
2282,8220DB000340,"Townsend Street, stop 340",53.34597512,-6.256017478,5971.1.60-C6-d12-1.353.I,28:46:34,28:46:34,60, Ringsend Road,27219.55,60-C6-d12-1,C6,d12
2283,8220DB007861,"Prince's St South, stop 7861",53.34561679,-6.249348317,5971.1.60-C6-d12-1.353.I,28:47:49,28:47:49,61, Ringsend Road,27663.65,60-C6-d12-1,C6,d12
2284,8220DB000351,"Erne Street, stop 351",53.34341826,-6.245308174,5971.1.60-C6-d12-1.353.I,28:48:54,28:48:54,62, Ringsend Road,28030.22,60-C6-d12-1,C6,d12
2285,8220DB000352,"Pearse Square, stop 352",53.34298915,-6.24241214,5971.1.60-C6-d12-1.353.I,28:49:18,28:49:18,63, Ringsend Road,28231.28,60-C6-d12-1,C6,d12
2286,8220DB000353,"Grand Canal Quay, stop 353",53.34264501,-6.239798018,5971.1.60-C6-d12-1.353.I,28:49:39,28:49:39,64, Ringsend Road,28407.56,60-C6-d12-1,C6,d12
2287,8220DB000354,"Ringsend Road, stop 354",53.34223583,-6.23643569,5971.1.60-C6-d12-1.353.I,28:50:09,28:50:09,65, Ringsend Road,28635.61,60-C6-d12-1,C6,d12
2476,8230DB003943,"Dept of Agriculture, stop 3943",53.3470719,-6.494294919,5985.1.60-C6-b12-1.353.I,24:24:14,24:24:14,24, Ringsend Road,9688.69,60-C6-b12-1,C6,b12
2477,8230DB003945,"Weston Aerodrome, stop 3945",53.35370171,-6.479865358,5985.1.60-C6-b12-1.353.I,24:25:26,24:25:26,25, Ringsend Road,10903.01,60-C6-b12-1,C6,b12
2478,8230DB003946,"Weston Estate, stop 3946",53.35611534,-6.475317639,5985.1.60-C6-b12-1.353.I,24:26:01,24:26:01,26, Ringsend Road,11309.43,60-C6-b12-1,C6,b12
2479,8230DB004001,"Liffey Valley Golf, stop 4001",53.35892285,-6.472062381,5985.1.60-C6-b12-1.353.I,24:26:54,24:26:54,28, Ringsend Road,11914.2,60-C6-b12-1,C6,b12
2480,8230DB003949,"Leixlip Road, stop 3949",53.35551692,-6.460211074,5985.1.60-C6-b12-1.353.I,24:28:05,24:28:05,29, Ringsend Road,12795.89,60-C6-b12-1,C6,b12
2481,8230DB003950,"Ball Alley House, stop 3950",53.35560249,-6.455010094,5985.1.60-C6-b12-1.353.I,24:28:42,24:28:42,30, Ringsend Road,13153.84,60-C6-b12-1,C6,b12
2482,8230DB003372,"Lucan Village, stop 3372",53.35656433,-6.448094691,5985.1.60-C6-b12-1.353.I,24:29:30,24:29:30,31, Ringsend Road,13625.44,60-C6-b12-1,C6,b12
2483,8230DB003373,"Lucan Heights, stop 3373",53.35808279,-6.441849744,5985.1.60-C6-b12-1.353.I,24:30:08,24:30:08,32, Ringsend Road,14099.03,60-C6-b12-1,C6,b12
2484,8230DB003374,"St Mary's Church, stop 3374",53.35963427,-6.439524473,5985.1.60-C6-b12-1.353.I,24:30:30,24:30:30,33, Ringsend Road,14330.39,60-C6-b12-1,C6,b12
2485,8230DB002233,"Chalet Gardens, stop 2233",53.3600895,-6.435165776,5985.1.60-C6-b12-1.353.I,24:30:59,24:30:59,34, Ringsend Road,14626.32,60-C6-b12-1,C6,b12
2486,8230DB002232,"Ballydowd Grove, stop 2232",53.35973763,-6.430956834,5985.1.60-C6-b12-1.353.I,24:31:26,24:31:26,35, Ringsend Road,14911.83,60-C6-b12-1,C6,b12
2487,8230DB002234,"Lucan Retail Park, stop 2234",53.35933655,-6.424390974,5985.1.60-C6-b12-1.353.I,24:32:08,24:32:08,36, Ringsend Road,15349.14,60-C6-b12-1,C6,b12
2488,8230DB002236,"Hermitage Bridge, stop 2236",53.35886946,-6.410856513,5985.1.60-C6-b12-1.353.I,24:33:14,24:33:14,37, Ringsend Road,16268.89,60-C6-b12-1,C6,b12
2489,8230DB005056,"Hermitage Clinic, stop 5056",53.35752149,-6.402793928,5985.1.60-C6-b12-1.353.I,24:33:54,24:33:54,38, Ringsend Road,16827.55,60-C6-b12-1,C6,b12
2490,8230DB002239,"Liffey Valley SC, stop 2239",53.35616847,-6.3917274,5985.1.60-C6-b12-1.353.I,24:34:57,24:34:57,39, Ringsend Road,17646.8,60-C6-b12-1,C6,b12
2491,8230DB002241,"Kennelsfort Road, stop 2241",53.35492926,-6.371268023,5985.1.60-C6-b12-1.353.I,24:36:34,24:36:34,40, Ringsend Road,19066.21,60-C6-b12-1,C6,b12
2492,8230DB002242,"The Oval, stop 2242",53.35392732,-6.367009818,5985.1.60-C6-b12-1.353.I,24:36:55,24:36:55,41, Ringsend Road,19371.62,60-C6-b12-1,C6,b12
2493,8220DB002243,"Glenaulin, stop 2243",53.35197438,-6.355697995,5985.1.60-C6-b12-1.353.I,24:38:17,24:38:17,42, Ringsend Road,20165.26,60-C6-b12-1,C6,b12
2494,8220DB002244,"Belgrove Park, stop 2244",53.35088435,-6.351609074,5985.1.60-C6-b12-1.353.I,24:38:47,24:38:47,43, Ringsend Road,20462.36,60-C6-b12-1,C6,b12
2495,8220DB002245,"Laurence Brook, stop 2245",53.3494632,-6.348284211,5985.1.60-C6-b12-1.353.I,24:39:11,24:39:11,44, Ringsend Road,20734.71,60-C6-b12-1,C6,b12
2496,8220DB002246,"Chapelizod, stop 2246",53.34831131,-6.343642354,5985.1.60-C6-b12-1.353.I,24:39:48,24:39:48,45, Ringsend Road,21147.73,60-C6-b12-1,C6,b12
2497,8220DB002247,"St Mary's Hospital, stop 2247",53.34675286,-6.336282916,5985.1.60-C6-b12-1.353.I,24:40:29,24:40:29,46, Ringsend Road,21684.2,60-C6-b12-1,C6,b12
2498,8220DB002248,"Military Road, stop 2248",53.34632093,-6.327888637,5985.1.60-C6-b12-1.353.I,24:41:12,24:41:12,47, Ringsend Road,22242.73,60-C6-b12-1,C6,b12
2499,8220DB002249,"Garda Boat Club, stop 2249",53.3465317,-6.321136449,5985.1.60-C6-b12-1.353.I,24:41:37,24:41:37,48, Ringsend Road,22693.91,60-C6-b12-1,C6,b12
2500,8220DB002250,"Salmon Pool, stop 2250",53.34743859,-6.31533304,5985.1.60-C6-b12-1.353.I,24:42:00,24:42:00,49, Ringsend Road,23092.77,60-C6-b12-1,C6,b12
2501,8220DB002251,"Islandbridge Gate, stop 2251",53.34813204,-6.310979792,5985.1.60-C6-b12-1.353.I,24:42:27,24:42:27,50, Ringsend Road,23391.19,60-C6-b12-1,C6,b12
2502,8220DB001472,"Conyngham Road, stop 1472",53.34842947,-6.30596617,5985.1.60-C6-b12-1.353.I,24:42:58,24:42:58,51, Ringsend Road,23725.1,60-C6-b12-1,C6,b12
2503,8220DB004408,"Phoenix House, stop 4408",53.34833336,-6.30110331,5985.1.60-C6-b12-1.353.I,24:43:21,24:43:21,52, Ringsend Road,24047.14,60-C6-b12-1,C6,b12
2504,8220DB001473,"Phoenix Park Gate, stop 1473",53.34830598,-6.298550899,5985.1.60-C6-b12-1.353.I,24:43:33,24:43:33,53, Ringsend Road,24216.59,60-C6-b12-1,C6,b12
2505,8220DB001474,"Parkgate Street, stop 1474",53.34794792,-6.292361705,5985.1.60-C6-b12-1.353.I,24:44:19,24:44:19,54, Ringsend Road,24628.98,60-C6-b12-1,C6,b12
2506,8220DB001476,"Sarsfield Quay, stop 1476",53.34707369,-6.284676275,5985.1.60-C6-b12-1.353.I,24:45:17,24:45:17,55, Ringsend Road,25157.24,60-C6-b12-1,C6,b12
2507,8220DB007854,"Arran Quay, stop 7854",53.34636761,-6.278711665,5985.1.60-C6-b12-1.353.I,24:46:18,24:46:18,56, Ringsend Road,25559.97,60-C6-b12-1,C6,b12
2508,8220DB007856,"Four Courts, stop 7856",53.34562262,-6.273184391,5985.1.60-C6-b12-1.353.I,24:47:22,24:47:22,57, Ringsend Road,25939.4,60-C6-b12-1,C6,b12
2509,8220DB007883,"Ormond Quay, stop 7883",53.346058,-6.268495617,5985.1.60-C6-b12-1.353.I,24:48:24,24:48:24,58, Ringsend Road,26258.63,60-C6-b12-1,C6,b12
2510,8220DB000315,"Bachelors Walk, stop 315",53.34702829,-6.261667155,5985.1.60-C6-b12-1.353.I,24:49:55,24:49:55,59, Ringsend Road,26728.83,60-C6-b12-1,C6,b12
2511,8220DB000340,"Townsend Street, stop 340",53.34597512,-6.256017478,5985.1.60-C6-b12-1.353.I,24:52:58,24:52:58,60, Ringsend Road,27219.55,60-C6-b12-1,C6,b12
2512,8220DB007861,"Prince's St South, stop 7861",53.34561679,-6.249348317,5985.1.60-C6-b12-1.353.I,24:53:58,24:53:58,61, Ringsend Road,27663.65,60-C6-b12-1,C6,b12
2513,8220DB000351,"Erne Street, stop 351",53.34341826,-6.245308174,5985.1.60-C6-b12-1.353.I,24:54:50,24:54:50,62, Ringsend Road,28030.22,60-C6-b12-1,C6,b12
2514,8220DB000352,"Pearse Square, stop 352",53.34298915,-6.24241214,5985.1.60-C6-b12-1.353.I,24:55:17,24:55:17,63, Ringsend Road,28231.28,60-C6-b12-1,C6,b12
2515,8220DB000353,"Grand Canal Quay, stop 353",53.34264501,-6.239798018,5985.1.60-C6-b12-1.353.I,24:55:41,24:55:41,64, Ringsend Road,28407.56,60-C6-b12-1,C6,b12
2516,8220DB000354,"Ringsend Road, stop 354",53.34223583,-6.23643569,5985.1.60-C6-b12-1.353.I,24:56:04,24:56:04,65, Ringsend Road,28635.61,60-C6-b12-1,C6,b12
2517,8230DB003943,"Dept of Agriculture, stop 3943",53.3470719,-6.494294919,5985.1.60-C6-d12-1.353.I,24:24:14,24:24:14,24, Ringsend Road,9688.69,60-C6-d12-1,C6,d12
2518,8230DB003945,"Weston Aerodrome, stop 3945",53.35370171,-6.479865358,5985.1.60-C6-d12-1.353.I,24:25:26,24:25:26,25, Ringsend Road,10903.01,60-C6-d12-1,C6,d12
2519,8230DB003946,"Weston Estate, stop 3946",53.35611534,-6.475317639,5985.1.60-C6-d12-1.353.I,24:26:01,24:26:01,26, Ringsend Road,11309.43,60-C6-d12-1,C6,d12
2520,8230DB004001,"Liffey Valley Golf, stop 4001",53.35892285,-6.472062381,5985.1.60-C6-d12-1.353.I,24:26:54,24:26:54,28, Ringsend Road,11914.2,60-C6-d12-1,C6,d12
2521,8230DB003949,"Leixlip Road, stop 3949",53.35551692,-6.460211074,5985.1.60-C6-d12-1.353.I,24:28:05,24:28:05,29, Ringsend Road,12795.89,60-C6-d12-1,C6,d12
2522,8230DB003950,"Ball Alley House, stop 3950",53.35560249,-6.455010094,5985.1.60-C6-d12-1.353.I,24:28:42,24:28:42,30, Ringsend Road,13153.84,60-C6-d12-1,C6,d12
2523,8230DB003372,"Lucan Village, stop 3372",53.35656433,-6.448094691,5985.1.60-C6-d12-1.353.I,24:29:30,24:29:30,31, Ringsend Road,13625.44,60-C6-d12-1,C6,d12
2524,8230DB003373,"Lucan Heights, stop 3373",53.35808279,-6.441849744,5985.1.60-C6-d12-1.353.I,24:30:08,24:30:08,32, Ringsend Road,14099.03,60-C6-d12-1,C6,d12
2525,8230DB003374,"St Mary's Church, stop 3374",53.35963427,-6.439524473,5985.1.60-C6-d12-1.353.I,24:30:30,24:30:30,33, Ringsend Road,14330.39,60-C6-d12-1,C6,d12
2526,8230DB002233,"Chalet Gardens, stop 2233",53.3600895,-6.435165776,5985.1.60-C6-d12-1.353.I,24:30:59,24:30:59,34, Ringsend Road,14626.32,60-C6-d12-1,C6,d12
2527,8230DB002232,"Ballydowd Grove, stop 2232",53.35973763,-6.430956834,5985.1.60-C6-d12-1.353.I,24:31:26,24:31:26,35, Ringsend Road,14911.83,60-C6-d12-1,C6,d12
2528,8230DB002234,"Lucan Retail Park, stop 2234",53.35933655,-6.424390974,5985.1.60-C6-d12-1.353.I,24:32:08,24:32:08,36, Ringsend Road,15349.14,60-C6-d12-1,C6,d12
2529,8230DB002236,"Hermitage Bridge, stop 2236",53.35886946,-6.410856513,5985.1.60-C6-d12-1.353.I,24:33:14,24:33:14,37, Ringsend Road,16268.89,60-C6-d12-1,C6,d12
2530,8230DB005056,"Hermitage Clinic, stop 5056",53.35752149,-6.402793928,5985.1.60-C6-d12-1.353.I,24:33:54,24:33:54,38, Ringsend Road,16827.55,60-C6-d12-1,C6,d12
2531,8230DB002239,"Liffey Valley SC, stop 2239",53.35616847,-6.3917274,5985.1.60-C6-d12-1.353.I,24:34:57,24:34:57,39, Ringsend Road,17646.8,60-C6-d12-1,C6,d12
2532,8230DB002241,"Kennelsfort Road, stop 2241",53.35492926,-6.371268023,5985.1.60-C6-d12-1.353.I,24:36:34,24:36:34,40, Ringsend Road,19066.21,60-C6-d12-1,C6,d12
2533,8230DB002242,"The Oval, stop 2242",53.35392732,-6.367009818,5985.1.60-C6-d12-1.353.I,24:36:55,24:36:55,41, Ringsend Road,19371.62,60-C6-d12-1,C6,d12
2534,8220DB002243,"Glenaulin, stop 2243",53.35197438,-6.355697995,5985.1.60-C6-d12-1.353.I,24:38:17,24:38:17,42, Ringsend Road,20165.26,60-C6-d12-1,C6,d12
2535,8220DB002244,"Belgrove Park, stop 2244",53.35088435,-6.351609074,5985.1.60-C6-d12-1.353.I,24:38:47,24:38:47,43, Ringsend Road,20462.36,60-C6-d12-1,C6,d12
2536,8220DB002245,"Laurence Brook, stop 2245",53.3494632,-6.348284211,5985.1.60-C6-d12-1.353.I,24:39:11,24:39:11,44, Ringsend Road,20734.71,60-C6-d12-1,C6,d12
2537,8220DB002246,"Chapelizod, stop 2246",53.34831131,-6.343642354,5985.1.60-C6-d12-1.353.I,24:39:48,24:39:48,45, Ringsend Road,21147.73,60-C6-d12-1,C6,d12
2538,8220DB002247,"St Mary's Hospital, stop 2247",53.34675286,-6.336282916,5985.1.60-C6-d12-1.353.I,24:40:29,24:40:29,46, Ringsend Road,21684.2,60-C6-d12-1,C6,d12
2539,8220DB002248,"Military Road, stop 2248",53.34632093,-6.327888637,5985.1.60-C6-d12-1.353.I,24:41:12,24:41:12,47, Ringsend Road,22242.73,60-C6-d12-1,C6,d12
2540,8220DB002249,"Garda Boat Club, stop 2249",53.3465317,-6.321136449,5985.1.60-C6-d12-1.353.I,24:41:37,24:41:37,48, Ringsend Road,22693.91,60-C6-d12-1,C6,d12
2541,8220DB002250,"Salmon Pool, stop 2250",53.34743859,-6.31533304,5985.1.60-C6-d12-1.353.I,24:42:00,24:42:00,49, Ringsend Road,23092.77,60-C6-d12-1,C6,d12
2542,8220DB002251,"Islandbridge Gate, stop 2251",53.34813204,-6.310979792,5985.1.60-C6-d12-1.353.I,24:42:27,24:42:27,50, Ringsend Road,23391.19,60-C6-d12-1,C6,d12
2543,8220DB001472,"Conyngham Road, stop 1472",53.34842947,-6.30596617,5985.1.60-C6-d12-1.353.I,24:42:58,24:42:58,51, Ringsend Road,23725.1,60-C6-d12-1,C6,d12
2544,8220DB004408,"Phoenix House, stop 4408",53.34833336,-6.30110331,5985.1.60-C6-d12-1.353.I,24:43:21,24:43:21,52, Ringsend Road,24047.14,60-C6-d12-1,C6,d12
2545,8220DB001473,"Phoenix Park Gate, stop 1473",53.34830598,-6.298550899,5985.1.60-C6-d12-1.353.I,24:43:33,24:43:33,53, Ringsend Road,24216.59,60-C6-d12-1,C6,d12
2546,8220DB001474,"Parkgate Street, stop 1474",53.34794792,-6.292361705,5985.1.60-C6-d12-1.353.I,24:44:19,24:44:19,54, Ringsend Road,24628.98,60-C6-d12-1,C6,d12
2547,8220DB001476,"Sarsfield Quay, stop 1476",53.34707369,-6.284676275,5985.1.60-C6-d12-1.353.I,24:45:17,24:45:17,55, Ringsend Road,25157.24,60-C6-d12-1,C6,d12
2548,8220DB007854,"Arran Quay, stop 7854",53.34636761,-6.278711665,5985.1.60-C6-d12-1.353.I,24:46:18,24:46:18,56, Ringsend Road,25559.97,60-C6-d12-1,C6,d12
2549,8220DB007856,"Four Courts, stop 7856",53.34562262,-6.273184391,5985.1.60-C6-d12-1.353.I,24:47:22,24:47:22,57, Ringsend Road,25939.4,60-C6-d12-1,C6,d12
2550,8220DB007883,"Ormond Quay, stop 7883",53.346058,-6.268495617,5985.1.60-C6-d12-1.353.I,24:48:24,24:48:24,58, Ringsend Road,26258.63,60-C6-d12-1,C6,d12
2551,8220DB000315,"Bachelors Walk, stop 315",53.34702829,-6.261667155,5985.1.60-C6-d12-1.353.I,24:49:55,24:49:55,59, Ringsend Road,26728.83,60-C6-d12-1,C6,d12
2552,8220DB000340,"Townsend Street, stop 340",53.34597512,-6.256017478,5985.1.60-C6-d12-1.353.I,24:52:58,24:52:58,60, Ringsend Road,27219.55,60-C6-d12-1,C6,d12
2553,8220DB007861,"Prince's St South, stop 7861",53.34561679,-6.249348317,5985.1.60-C6-d12-1.353.I,24:53:58,24:53:58,61, Ringsend Road,27663.65,60-C6-d12-1,C6,d12
2554,8220DB000351,"Erne Street, stop 351",53.34341826,-6.245308174,5985.1.60-C6-d12-1.353.I,24:54:50,24:54:50,62, Ringsend Road,28030.22,60-C6-d12-1,C6,d12
2555,8220DB000352,"Pearse Square, stop 352",53.34298915,-6.24241214,5985.1.60-C6-d12-1.353.I,24:55:17,24:55:17,63, Ringsend Road,28231.28,60-C6-d12-1,C6,d12
2556,8220DB000353,"Grand Canal Quay, stop 353",53.34264501,-6.239798018,5985.1.60-C6-d12-1.353.I,24:55:41,24:55:41,64, Ringsend Road,28407.56,60-C6-d12-1,C6,d12
2557,8220DB000354,"Ringsend Road, stop 354",53.34223583,-6.23643569,5985.1.60-C6-d12-1.353.I,24:56:04,24:56:04,65, Ringsend Road,28635.61,60-C6-d12-1,C6,d12
2558,8230DB003943,"Dept of Agriculture, stop 3943",53.3470719,-6.494294919,5988.1.60-C6-b12-1.353.I,26:17:13,26:17:13,24, Ringsend Road,9688.69,60-C6-b12-1,C6,b12
2559,8230DB003945,"Weston Aerodrome, stop 3945",53.35370171,-6.479865358,5988.1.60-C6-b12-1.353.I,26:18:28,26:18:28,25, Ringsend Road,10903.01,60-C6-b12-1,C6,b12
2560,8230DB003946,"Weston Estate, stop 3946",53.35611534,-6.475317639,5988.1.60-C6-b12-1.353.I,26:19:02,26:19:02,26, Ringsend Road,11309.43,60-C6-b12-1,C6,b12
2561,8230DB004001,"Liffey Valley Golf, stop 4001",53.35892285,-6.472062381,5988.1.60-C6-b12-1.353.I,26:19:53,26:19:53,28, Ringsend Road,11914.2,60-C6-b12-1,C6,b12
2562,8230DB003949,"Leixlip Road, stop 3949",53.35551692,-6.460211074,5988.1.60-C6-b12-1.353.I,26:21:00,26:21:00,29, Ringsend Road,12795.89,60-C6-b12-1,C6,b12
2563,8230DB003950,"Ball Alley House, stop 3950",53.35560249,-6.455010094,5988.1.60-C6-b12-1.353.I,26:21:29,26:21:29,30, Ringsend Road,13153.84,60-C6-b12-1,C6,b12
2564,8230DB003372,"Lucan Village, stop 3372",53.35656433,-6.448094691,5988.1.60-C6-b12-1.353.I,26:22:07,26:22:07,31, Ringsend Road,13625.44,60-C6-b12-1,C6,b12
2565,8230DB003373,"Lucan Heights, stop 3373",53.35808279,-6.441849744,5988.1.60-C6-b12-1.353.I,26:22:42,26:22:42,32, Ringsend Road,14099.03,60-C6-b12-1,C6,b12
2566,8230DB003374,"St Mary's Church, stop 3374",53.35963427,-6.439524473,5988.1.60-C6-b12-1.353.I,26:23:03,26:23:03,33, Ringsend Road,14330.39,60-C6-b12-1,C6,b12
2567,8230DB002233,"Chalet Gardens, stop 2233",53.3600895,-6.435165776,5988.1.60-C6-b12-1.353.I,26:23:30,26:23:30,34, Ringsend Road,14626.32,60-C6-b12-1,C6,b12
2568,8230DB002232,"Ballydowd Grove, stop 2232",53.35973763,-6.430956834,5988.1.60-C6-b12-1.353.I,26:23:56,26:23:56,35, Ringsend Road,14911.83,60-C6-b12-1,C6,b12
2569,8230DB002234,"Lucan Retail Park, stop 2234",53.35933655,-6.424390974,5988.1.60-C6-b12-1.353.I,26:24:37,26:24:37,36, Ringsend Road,15349.14,60-C6-b12-1,C6,b12
2570,8230DB002236,"Hermitage Bridge, stop 2236",53.35886946,-6.410856513,5988.1.60-C6-b12-1.353.I,26:25:44,26:25:44,37, Ringsend Road,16268.89,60-C6-b12-1,C6,b12
2571,8230DB005056,"Hermitage Clinic, stop 5056",53.35752149,-6.402793928,5988.1.60-C6-b12-1.353.I,26:26:25,26:26:25,38, Ringsend Road,16827.55,60-C6-b12-1,C6,b12
2572,8230DB002239,"Liffey Valley SC, stop 2239",53.35616847,-6.3917274,5988.1.60-C6-b12-1.353.I,26:27:25,26:27:25,39, Ringsend Road,17646.8,60-C6-b12-1,C6,b12
2573,8230DB002241,"Kennelsfort Road, stop 2241",53.35492926,-6.371268023,5988.1.60-C6-b12-1.353.I,26:28:57,26:28:57,40, Ringsend Road,19066.21,60-C6-b12-1,C6,b12
2574,8230DB002242,"The Oval, stop 2242",53.35392732,-6.367009818,5988.1.60-C6-b12-1.353.I,26:29:18,26:29:18,41, Ringsend Road,19371.62,60-C6-b12-1,C6,b12
2575,8220DB002243,"Glenaulin, stop 2243",53.35197438,-6.355697995,5988.1.60-C6-b12-1.353.I,26:30:37,26:30:37,42, Ringsend Road,20165.26,60-C6-b12-1,C6,b12
2576,8220DB002244,"Belgrove Park, stop 2244",53.35088435,-6.351609074,5988.1.60-C6-b12-1.353.I,26:31:06,26:31:06,43, Ringsend Road,20462.36,60-C6-b12-1,C6,b12
2577,8220DB002245,"Laurence Brook, stop 2245",53.3494632,-6.348284211,5988.1.60-C6-b12-1.353.I,26:31:30,26:31:30,44, Ringsend Road,20734.71,60-C6-b12-1,C6,b12
2578,8220DB002246,"Chapelizod, stop 2246",53.34831131,-6.343642354,5988.1.60-C6-b12-1.353.I,26:32:07,26:32:07,45, Ringsend Road,21147.73,60-C6-b12-1,C6,b12
2579,8220DB002247,"St Mary's Hospital, stop 2247",53.34675286,-6.336282916,5988.1.60-C6-b12-1.353.I,26:32:48,26:32:48,46, Ringsend Road,21684.2,60-C6-b12-1,C6,b12
2580,8220DB002248,"Military Road, stop 2248",53.34632093,-6.327888637,5988.1.60-C6-b12-1.353.I,26:33:31,26:33:31,47, Ringsend Road,22242.73,60-C6-b12-1,C6,b12
2581,8220DB002249,"Garda Boat Club, stop 2249",53.3465317,-6.321136449,5988.1.60-C6-b12-1.353.I,26:33:58,26:33:58,48, Ringsend Road,22693.91,60-C6-b12-1,C6,b12
2582,8220DB002250,"Salmon Pool, stop 2250",53.34743859,-6.31533304,5988.1.60-C6-b12-1.353.I,26:34:22,26:34:22,49, Ringsend Road,23092.77,60-C6-b12-1,C6,b12
2583,8220DB002251,"Islandbridge Gate, stop 2251",53.34813204,-6.310979792,5988.1.60-C6-b12-1.353.I,26:34:51,26:34:51,50, Ringsend Road,23391.19,60-C6-b12-1,C6,b12
2584,8220DB001472,"Conyngham Road, stop 1472",53.34842947,-6.30596617,5988.1.60-C6-b12-1.353.I,26:35:24,26:35:24,51, Ringsend Road,23725.1,60-C6-b12-1,C6,b12
2585,8220DB004408,"Phoenix House, stop 4408",53.34833336,-6.30110331,5988.1.60-C6-b12-1.353.I,26:35:46,26:35:46,52, Ringsend Road,24047.14,60-C6-b12-1,C6,b12
2586,8220DB001473,"Phoenix Park Gate, stop 1473",53.34830598,-6.298550899,5988.1.60-C6-b12-1.353.I,26:35:58,26:35:58,53, Ringsend Road,24216.59,60-C6-b12-1,C6,b12
2587,8220DB001474,"Parkgate Street, stop 1474",53.34794792,-6.292361705,5988.1.60-C6-b12-1.353.I,26:36:38,26:36:38,54, Ringsend Road,24628.98,60-C6-b12-1,C6,b12
2588,8220DB001476,"Sarsfield Quay, stop 1476",53.34707369,-6.284676275,5988.1.60-C6-b12-1.353.I,26:37:29,26:37:29,55, Ringsend Road,25157.24,60-C6-b12-1,C6,b12
2589,8220DB007854,"Arran Quay, stop 7854",53.34636761,-6.278711665,5988.1.60-C6-b12-1.353.I,26:38:27,26:38:27,56, Ringsend Road,25559.97,60-C6-b12-1,C6,b12
2590,8220DB007856,"Four Courts, stop 7856",53.34562262,-6.273184391,5988.1.60-C6-b12-1.353.I,26:39:28,26:39:28,57, Ringsend Road,25939.4,60-C6-b12-1,C6,b12
2591,8220DB007883,"Ormond Quay, stop 7883",53.346058,-6.268495617,5988.1.60-C6-b12-1.353.I,26:40:24,26:40:24,58, Ringsend Road,26258.63,60-C6-b12-1,C6,b12
2592,8220DB000315,"Bachelors Walk, stop 315",53.34702829,-6.261667155,5988.1.60-C6-b12-1.353.I,26:41:46,26:41:46,59, Ringsend Road,26728.83,60-C6-b12-1,C6,b12
2593,8220DB000340,"Townsend Street, stop 340",53.34597512,-6.256017478,5988.1.60-C6-b12-1.353.I,26:44:43,26:44:43,60, Ringsend Road,27219.55,60-C6-b12-1,C6,b12
2594,8220DB007861,"Prince's St South, stop 7861",53.34561679,-6.249348317,5988.1.60-C6-b12-1.353.I,26:45:51,26:45:51,61, Ringsend Road,27663.65,60-C6-b12-1,C6,b12
2595,8220DB000351,"Erne Street, stop 351",53.34341826,-6.245308174,5988.1.60-C6-b12-1.353.I,26:46:51,26:46:51,62, Ringsend Road,28030.22,60-C6-b12-1,C6,b12
2596,8220DB000352,"Pearse Square, stop 352",53.34298915,-6.24241214,5988.1.60-C6-b12-1.353.I,26:47:14,26:47:14,63, Ringsend Road,28231.28,60-C6-b12-1,C6,b12
2597,8220DB000353,"Grand Canal Quay, stop 353",53.34264501,-6.239798018,5988.1.60-C6-b12-1.353.I,26:47:35,26:47:35,64, Ringsend Road,28407.56,60-C6-b12-1,C6,b12
2598,8220DB000354,"Ringsend Road, stop 354",53.34223583,-6.23643569,5988.1.60-C6-b12-1.353.I,26:47:58,26:47:58,65, Ringsend Road,28635.61,60-C6-b12-1,C6,b12
2599,8230DB003943,"Dept of Agriculture, stop 3943",53.3470719,-6.494294919,5988.1.60-C6-d12-1.353.I,26:17:13,26:17:13,24, Ringsend Road,9688.69,60-C6-d12-1,C6,d12
2600,8230DB003945,"Weston Aerodrome, stop 3945",53.35370171,-6.479865358,5988.1.60-C6-d12-1.353.I,26:18:28,26:18:28,25, Ringsend Road,10903.01,60-C6-d12-1,C6,d12
2601,8230DB003946,"Weston Estate, stop 3946",53.35611534,-6.475317639,5988.1.60-C6-d12-1.353.I,26:19:02,26:19:02,26, Ringsend Road,11309.43,60-C6-d12-1,C6,d12
2602,8230DB004001,"Liffey Valley Golf, stop 4001",53.35892285,-6.472062381,5988.1.60-C6-d12-1.353.I,26:19:53,26:19:53,28, Ringsend Road,11914.2,60-C6-d12-1,C6,d12
2603,8230DB003949,"Leixlip Road, stop 3949",53.35551692,-6.460211074,5988.1.60-C6-d12-1.353.I,26:21:00,26:21:00,29, Ringsend Road,12795.89,60-C6-d12-1,C6,d12
2604,8230DB003950,"Ball Alley House, stop 3950",53.35560249,-6.455010094,5988.1.60-C6-d12-1.353.I,26:21:29,26:21:29,30, Ringsend Road,13153.84,60-C6-d12-1,C6,d12
2605,8230DB003372,"Lucan Village, stop 3372",53.35656433,-6.448094691,5988.1.60-C6-d12-1.353.I,26:22:07,26:22:07,31, Ringsend Road,13625.44,60-C6-d12-1,C6,d12
2606,8230DB003373,"Lucan Heights, stop 3373",53.35808279,-6.441849744,5988.1.60-C6-d12-1.353.I,26:22:42,26:22:42,32, Ringsend Road,14099.03,60-C6-d12-1,C6,d12
2607,8230DB003374,"St Mary's Church, stop 3374",53.35963427,-6.439524473,5988.1.60-C6-d12-1.353.I,26:23:03,26:23:03,33, Ringsend Road,14330.39,60-C6-d12-1,C6,d12
2608,8230DB002233,"Chalet Gardens, stop 2233",53.3600895,-6.435165776,5988.1.60-C6-d12-1.353.I,26:23:30,26:23:30,34, Ringsend Road,14626.32,60-C6-d12-1,C6,d12
2609,8230DB002232,"Ballydowd Grove, stop 2232",53.35973763,-6.430956834,5988.1.60-C6-d12-1.353.I,26:23:56,26:23:56,35, Ringsend Road,14911.83,60-C6-d12-1,C6,d12
2610,8230DB002234,"Lucan Retail Park, stop 2234",53.35933655,-6.424390974,5988.1.60-C6-d12-1.353.I,26:24:37,26:24:37,36, Ringsend Road,15349.14,60-C6-d12-1,C6,d12
2611,8230DB002236,"Hermitage Bridge, stop 2236",53.35886946,-6.410856513,5988.1.60-C6-d12-1.353.I,26:25:44,26:25:44,37, Ringsend Road,16268.89,60-C6-d12-1,C6,d12
2612,8230DB005056,"Hermitage Clinic, stop 5056",53.35752149,-6.402793928,5988.1.60-C6-d12-1.353.I,26:26:25,26:26:25,38, Ringsend Road,16827.55,60-C6-d12-1,C6,d12
2613,8230DB002239,"Liffey Valley SC, stop 2239",53.35616847,-6.3917274,5988.1.60-C6-d12-1.353.I,26:27:25,26:27:25,39, Ringsend Road,17646.8,60-C6-d12-1,C6,d12
2614,8230DB002241,"Kennelsfort Road, stop 2241",53.35492926,-6.371268023,5988.1.60-C6-d12-1.353.I,26:28:57,26:28:57,40, Ringsend Road,19066.21,60-C6-d12-1,C6,d12
2615,8230DB002242,"The Oval, stop 2242",53.35392732,-6.367009818,5988.1.60-C6-d12-1.353.I,26:29:18,26:29:18,41, Ringsend Road,19371.62,60-C6-d12-1,C6,d12
2616,8220DB002243,"Glenaulin, stop 2243",53.35197438,-6.355697995,5988.1.60-C6-d12-1.353.I,26:30:37,26:30:37,42, Ringsend Road,20165.26,60-C6-d12-1,C6,d12
2617,8220DB002244,"Belgrove Park, stop 2244",53.35088435,-6.351609074,5988.1.60-C6-d12-1.353.I,26:31:06,26:31:06,43, Ringsend Road,20462.36,60-C6-d12-1,C6,d12
2618,8220DB002245,"Laurence Brook, stop 2245",53.3494632,-6.348284211,5988.1.60-C6-d12-1.353.I,26:31:30,26:31:30,44, Ringsend Road,20734.71,60-C6-d12-1,C6,d12
2619,8220DB002246,"Chapelizod, stop 2246",53.34831131,-6.343642354,5988.1.60-C6-d12-1.353.I,26:32:07,26:32:07,45, Ringsend Road,21147.73,60-C6-d12-1,C6,d12
2620,8220DB002247,"St Mary's Hospital, stop 2247",53.34675286,-6.336282916,5988.1.60-C6-d12-1.353.I,26:32:48,26:32:48,46, Ringsend Road,21684.2,60-C6-d12-1,C6,d12
2621,8220DB002248,"Military Road, stop 2248",53.34632093,-6.327888637,5988.1.60-C6-d12-1.353.I,26:33:31,26:33:31,47, Ringsend Road,22242.73,60-C6-d12-1,C6,d12
2622,8220DB002249,"Garda Boat Club, stop 2249",53.3465317,-6.321136449,5988.1.60-C6-d12-1.353.I,26:33:58,26:33:58,48, Ringsend Road,22693.91,60-C6-d12-1,C6,d12
2623,8220DB002250,"Salmon Pool, stop 2250",53.34743859,-6.31533304,5988.1.60-C6-d12-1.353.I,26:34:22,26:34:22,49, Ringsend Road,23092.77,60-C6-d12-1,C6,d12
2624,8220DB002251,"Islandbridge Gate, stop 2251",53.34813204,-6.310979792,5988.1.60-C6-d12-1.353.I,26:34:51,26:34:51,50, Ringsend Road,23391.19,60-C6-d12-1,C6,d12
2625,8220DB001472,"Conyngham Road, stop 1472",53.34842947,-6.30596617,5988.1.60-C6-d12-1.353.I,26:35:24,26:35:24,51, Ringsend Road,23725.1,60-C6-d12-1,C6,d12
2626,8220DB004408,"Phoenix House, stop 4408",53.34833336,-6.30110331,5988.1.60-C6-d12-1.353.I,26:35:46,26:35:46,52, Ringsend Road,24047.14,60-C6-d12-1,C6,d12
2627,8220DB001473,"Phoenix Park Gate, stop 1473",53.34830598,-6.298550899,5988.1.60-C6-d12-1.353.I,26:35:58,26:35:58,53, Ringsend Road,24216.59,60-C6-d12-1,C6,d12
2628,8220DB001474,"Parkgate Street, stop 1474",53.34794792,-6.292361705,5988.1.60-C6-d12-1.353.I,26:36:38,26:36:38,54, Ringsend Road,24628.98,60-C6-d12-1,C6,d12
2629,8220DB001476,"Sarsfield Quay, stop 1476",53.34707369,-6.284676275,5988.1.60-C6-d12-1.353.I,26:37:29,26:37:29,55, Ringsend Road,25157.24,60-C6-d12-1,C6,d12
2630,8220DB007854,"Arran Quay, stop 7854",53.34636761,-6.278711665,5988.1.60-C6-d12-1.353.I,26:38:27,26:38:27,56, Ringsend Road,25559.97,60-C6-d12-1,C6,d12
2631,8220DB007856,"Four Courts, stop 7856",53.34562262,-6.273184391,5988.1.60-C6-d12-1.353.I,26:39:28,26:39:28,57, Ringsend Road,25939.4,60-C6-d12-1,C6,d12
2632,8220DB007883,"Ormond Quay, stop 7883",53.346058,-6.268495617,5988.1.60-C6-d12-1.353.I,26:40:24,26:40:24,58, Ringsend Road,26258.63,60-C6-d12-1,C6,d12
2633,8220DB000315,"Bachelors Walk, stop 315",53.34702829,-6.261667155,5988.1.60-C6-d12-1.353.I,26:41:46,26:41:46,59, Ringsend Road,26728.83,60-C6-d12-1,C6,d12
2634,8220DB000340,"Townsend Street, stop 340",53.34597512,-6.256017478,5988.1.60-C6-d12-1.353.I,26:44:43,26:44:43,60, Ringsend Road,27219.55,60-C6-d12-1,C6,d12
2635,8220DB007861,"Prince's St South, stop 7861",53.34561679,-6.249348317,5988.1.60-C6-d12-1.353.I,26:45:51,26:45:51,61, Ringsend Road,27663.65,60-C6-d12-1,C6,d12
2636,8220DB000351,"Erne Street, stop 351",53.34341826,-6.245308174,5988.1.60-C6-d12-1.353.I,26:46:51,26:46:51,62, Ringsend Road,28030.22,60-C6-d12-1,C6,d12
2637,8220DB000352,"Pearse Square, stop 352",53.34298915,-6.24241214,5988.1.60-C6-d12-1.353.I,26:47:14,26:47:14,63, Ringsend Road,28231.28,60-C6-d12-1,C6,d12
2638,8220DB000353,"Grand Canal Quay, stop 353",53.34264501,-6.239798018,5988.1.60-C6-d12-1.353.I,26:47:35,26:47:35,64, Ringsend Road,28407.56,60-C6-d12-1,C6,d12
2639,8220DB000354,"Ringsend Road, stop 354",53.34223583,-6.23643569,5988.1.60-C6-d12-1.353.I,26:47:58,26:47:58,65, Ringsend Road,28635.61,60-C6-d12-1,C6,d12
