Index,stop_id,stop_name,stop_lat,stop_lon,trip_id,arrival_time,departure_time,stop_sequence,stop_headsign,shape_dist_traveled,route_id,customer_route_name,project_subnet
0,8230DB001105,"Greenhills College, stop 1105",53.30711319,-6.334178203,11946.3.60-15A-b12-1.363.I,05:20:00,05:20:00,1, Merrion Square,0.0,60-15A-b12-1,15A,b12
1,8230DB001107,"Limekiln Road, stop 1107",53.30443255,-6.332091816,11946.3.60-15A-b12-1.363.I,05:20:52,05:20:52,2, Merrion Square,420.62,60-15A-b12-1,15A,b12
2,8230DB001108,"St Peter's School, stop 1108",53.30451901,-6.328637264,11946.3.60-15A-b12-1.363.I,05:21:21,05:21:21,3, Merrion Square,649.89,60-15A-b12-1,15A,b12
3,8230DB001109,"Mountdown Park, stop 1109",53.30445188,-6.325773907,11946.3.60-15A-b12-1.363.I,05:21:38,05:21:38,4, Merrion Square,841.65,60-15A-b12-1,15A,b12
4,8230DB001110,"Wellington Lane, stop 1110",53.30473089,-6.323242112,11946.3.60-15A-b12-1.363.I,05:21:53,05:21:53,5, Merrion Square,1013.69,60-15A-b12-1,15A,b12
5,8230DB001111,"Limekiln Drive, stop 1111",53.30528143,-6.322125143,11946.3.60-15A-b12-1.363.I,05:22:12,05:22:12,6, Merrion Square,1137.04,60-15A-b12-1,15A,b12
6,8230DB001112,"Whitehall Road, stop 1112",53.30765872,-6.318610489,11946.3.60-15A-b12-1.363.I,05:23:08,05:23:08,7, Merrion Square,1499.78,60-15A-b12-1,15A,b12
7,8230DB001113,"Glendale Park, stop 1113",53.30902314,-6.315300403,11946.3.60-15A-b12-1.363.I,05:23:38,05:23:38,8, Merrion Square,1765.66,60-15A-b12-1,15A,b12
8,8230DB001114,"Priory Walk, stop 1114",53.31034373,-6.310806261,11946.3.60-15A-b12-1.363.I,05:24:17,05:24:17,9, Merrion Square,2098.03,60-15A-b12-1,15A,b12
9,8230DB001115,"Whitehall Gardens, stop 1115",53.31159843,-6.307379992,11946.3.60-15A-b12-1.363.I,05:24:49,05:24:49,10, Merrion Square,2365.9,60-15A-b12-1,15A,b12
10,8220DB002437,"Brookfield, stop 2437",53.31268882,-6.30251926,11946.3.60-15A-b12-1.363.I,05:25:32,05:25:32,11, Merrion Square,2737.49,60-15A-b12-1,15A,b12
11,8220DB001117,"Terenure Road West, stop 1117",53.31189065,-6.298228688,11946.3.60-15A-b12-1.363.I,05:26:22,05:26:22,12, Merrion Square,3035.19,60-15A-b12-1,15A,b12
12,8220DB001118,"Hazelbrook Road, stop 1118",53.31136699,-6.294917828,11946.3.60-15A-b12-1.363.I,05:26:45,05:26:45,13, Merrion Square,3263.69,60-15A-b12-1,15A,b12
13,8220DB001119,"Parkmore Drive, stop 1119",53.31093569,-6.292413763,11946.3.60-15A-b12-1.363.I,05:27:03,05:27:03,14, Merrion Square,3435.36,60-15A-b12-1,15A,b12
14,8220DB001120,"Terenure Garda Stn, stop 1120",53.31019811,-6.287986059,11946.3.60-15A-b12-1.363.I,05:27:35,05:27:35,15, Merrion Square,3740.02,60-15A-b12-1,15A,b12
15,8220DB001164,"Terenure Road East, stop 1164",53.31041164,-6.281584401,11946.3.60-15A-b12-1.363.I,05:28:21,05:28:21,16, Merrion Square,4198.99,60-15A-b12-1,15A,b12
16,8220DB001165,"Brighton Road, stop 1165",53.31171244,-6.276429504,11946.3.60-15A-b12-1.363.I,05:28:53,05:28:53,17, Merrion Square,4570.2,60-15A-b12-1,15A,b12
17,8220DB001166,"Winton Avenue, stop 1166",53.31389051,-6.272904784,11946.3.60-15A-b12-1.363.I,05:29:26,05:29:26,18, Merrion Square,4945.29,60-15A-b12-1,15A,b12
18,8220DB001167,"Garville Avenue, stop 1167",53.31594491,-6.271395948,11946.3.60-15A-b12-1.363.I,05:29:47,05:29:47,19, Merrion Square,5194.2,60-15A-b12-1,15A,b12
19,8220DB001168,"Spire View Lane, stop 1168",53.31792917,-6.270009883,11946.3.60-15A-b12-1.363.I,05:30:08,05:30:08,20, Merrion Square,5432.71,60-15A-b12-1,15A,b12
20,8220DB001169,"Rathmines Park, stop 1169",53.32005626,-6.26855786,11946.3.60-15A-b12-1.363.I,05:30:40,05:30:40,21, Merrion Square,5688.65,60-15A-b12-1,15A,b12
21,8220DB001170,"Rathmines Garda Stn, stop 1170",53.32168955,-6.266525249,11946.3.60-15A-b12-1.363.I,05:31:10,05:31:10,22, Merrion Square,5924.04,60-15A-b12-1,15A,b12
22,8220DB001069,"Swan Centre, stop 1069",53.32328526,-6.265619895,11946.3.60-15A-b12-1.363.I,05:31:32,05:31:32,23, Merrion Square,6128.29,60-15A-b12-1,15A,b12
23,8220DB001070,"Rathmines, stop 1070",53.32498018,-6.265355983,11946.3.60-15A-b12-1.363.I,05:31:52,05:31:52,24, Merrion Square,6331.99,60-15A-b12-1,15A,b12
24,8220DB001071,"St Mary's College, stop 1071",53.32721804,-6.264724712,11946.3.60-15A-b12-1.363.I,05:32:20,05:32:20,25, Merrion Square,6585.98,60-15A-b12-1,15A,b12
25,8220DB004528,"Grove Park, stop 4528",53.32889608,-6.26453649,11946.3.60-15A-b12-1.363.I,05:32:48,05:32:48,26, Merrion Square,6773.58,60-15A-b12-1,15A,b12
26,8220DB001072,"South Richmond St, stop 1072",53.33102697,-6.264585114,11946.3.60-15A-b12-1.363.I,05:33:27,05:33:27,27, Merrion Square,7013.99,60-15A-b12-1,15A,b12
27,8220DB007577,"Grantham Street, stop 7577",53.33383264,-6.265297062,11946.3.60-15A-b12-1.363.I,05:34:24,05:34:24,28, Merrion Square,7329.64,60-15A-b12-1,15A,b12
28,8220DB001353,"Pleasants Street, stop 1353",53.33600953,-6.265418938,11946.3.60-15A-b12-1.363.I,05:35:08,05:35:08,29, Merrion Square,7574.0,60-15A-b12-1,15A,b12
29,8220DB001354,"Aungier Street, stop 1354",53.33904809,-6.266076515,11946.3.60-15A-b12-1.363.I,05:36:10,05:36:10,30, Merrion Square,7914.55,60-15A-b12-1,15A,b12
30,8220DB007578,"Fade Street, stop 7578",53.3424601,-6.264601408,11946.3.60-15A-b12-1.363.I,05:37:08,05:37:08,32, Merrion Square,8312.04,60-15A-b12-1,15A,b12
31,8220DB007582,"Dame Street, stop 7582",53.34432204,-6.262227837,11946.3.60-15A-b12-1.363.I,05:38:35,05:38:35,33, Merrion Square,8650.31,60-15A-b12-1,15A,b12
32,8220DB000340,"Townsend Street, stop 340",53.34597512,-6.256017478,11946.3.60-15A-b12-1.363.I,05:40:51,05:40:51,34, Merrion Square,9188.82,60-15A-b12-1,15A,b12
33,8220DB000350,"Prince's St South, stop 350",53.34563194,-6.24976825,11946.3.60-15A-b12-1.363.I,05:41:48,05:41:48,35, Merrion Square,9605.35,60-15A-b12-1,15A,b12
34,8220DB002809,"Pearse Station, stop 2809",53.34288455,-6.2499709,11946.3.60-15A-b12-1.363.I,05:43:06,05:43:06,36, Merrion Square,9997.7,60-15A-b12-1,15A,b12
35,8220DB002810,"Merrion Square West, stop 2810",53.34079491,-6.250897489,11946.3.60-15A-b12-1.363.I,05:43:57,05:43:57,37, Merrion Square,10237.72,60-15A-b12-1,15A,b12
36,8220DB007387,"Merrion Sq South, stop 7387",53.33947247,-6.250816458,11946.3.60-15A-b12-1.363.I,05:44:40,05:44:40,38, Merrion Square,10396.59,60-15A-b12-1,15A,b12
