Index,stop_id,stop_name,stop_lat,stop_lon,trip_id,arrival_time,departure_time,stop_sequence,stop_headsign,shape_dist_traveled,route_id,customer_route_name,project_subnet
56,8220DB000248,"Maryfield Drive, stop 248",53.38556456,-6.214469631,11280.3.60-14-b12-1.151.O,06:30:00,06:30:00,1, Dundrum Luas,0.0,60-14-b12-1,14,b12
57,8220DB000249,"Artane Castle, stop 249",53.38493355,-6.216149745,11280.3.60-14-b12-1.151.O,06:30:32,06:30:32,2, Dundrum Luas,192.77,60-14-b12-1,14,b12
58,8220DB000250,"Skelly's Lane, stop 250",53.38441945,-6.220245316,11280.3.60-14-b12-1.151.O,06:31:29,06:31:29,3, Dundrum Luas,540.86,60-14-b12-1,14,b12
59,8220DB000251,"Elmount Crescent, stop 251",53.38483228,-6.223219786,11280.3.60-14-b12-1.151.O,06:32:02,06:32:02,4, Dundrum Luas,742.16,60-14-b12-1,14,b12
60,8220DB000252,"Lady of Mercy, stop 252",53.38556802,-6.227969918,11280.3.60-14-b12-1.151.O,06:32:53,06:32:53,5, Dundrum Luas,1068.92,60-14-b12-1,14,b12
61,8220DB000255,"Coolgreena Road, stop 255",53.38559388,-6.231531872,11280.3.60-14-b12-1.151.O,06:33:31,06:33:31,6, Dundrum Luas,1306.84,60-14-b12-1,14,b12
62,8220DB000234,"Beaumont Grove, stop 234",53.38495048,-6.234820843,11280.3.60-14-b12-1.151.O,06:34:07,06:34:07,7, Dundrum Luas,1538.44,60-14-b12-1,14,b12
63,8220DB000235,"Collinswood, stop 235",53.38329661,-6.237249457,11280.3.60-14-b12-1.151.O,06:34:48,06:34:48,8, Dundrum Luas,1801.94,60-14-b12-1,14,b12
64,8220DB000236,"Yellow Road, stop 236",53.38202474,-6.23815886,11280.3.60-14-b12-1.151.O,06:35:12,06:35:12,9, Dundrum Luas,1954.69,60-14-b12-1,14,b12
65,8220DB001190,"Grace Park Heights, stop 1190",53.38015612,-6.235785808,11280.3.60-14-b12-1.151.O,06:36:12,06:36:12,10, Dundrum Luas,2329.07,60-14-b12-1,14,b12
66,8220DB001191,"Grace Park Meadows, stop 1191",53.37921719,-6.23307384,11280.3.60-14-b12-1.151.O,06:36:45,06:36:45,11, Dundrum Luas,2537.64,60-14-b12-1,14,b12
67,8220DB001192,"Celtic Park Road, stop 1192",53.3786332,-6.230662931,11280.3.60-14-b12-1.151.O,06:37:12,06:37:12,12, Dundrum Luas,2712.17,60-14-b12-1,14,b12
68,8220DB001193,"The Yard, stop 1193",53.3779922,-6.227442769,11280.3.60-14-b12-1.151.O,06:37:47,06:37:47,13, Dundrum Luas,2937.05,60-14-b12-1,14,b12
69,8220DB001194,"Belton Park Road, stop 1194",53.37752621,-6.225117282,11280.3.60-14-b12-1.151.O,06:38:12,06:38:12,14, Dundrum Luas,3098.97,60-14-b12-1,14,b12
70,8220DB001195,"Oak Road, stop 1195",53.37638993,-6.22124154,11280.3.60-14-b12-1.151.O,06:38:57,06:38:57,15, Dundrum Luas,3384.93,60-14-b12-1,14,b12
71,8220DB000664,"Donnycarney Church, stop 664",53.37471925,-6.219507562,11280.3.60-14-b12-1.151.O,06:39:45,06:39:45,16, Dundrum Luas,3674.82,60-14-b12-1,14,b12
72,8220DB000665,"Casino Park, stop 665",53.37246632,-6.222126461,11280.3.60-14-b12-1.151.O,06:40:15,06:40:15,17, Dundrum Luas,3982.28,60-14-b12-1,14,b12
73,8220DB000666,"Mount Temple School, stop 666",53.37023312,-6.224263348,11280.3.60-14-b12-1.151.O,06:40:45,06:40:45,18, Dundrum Luas,4268.32,60-14-b12-1,14,b12
74,8220DB000667,"Brian Road, stop 667",53.36798165,-6.226986847,11280.3.60-14-b12-1.151.O,06:41:16,06:41:16,19, Dundrum Luas,4577.33,60-14-b12-1,14,b12
75,8220DB000668,"Marino Crescent Park, stop 668",53.36457498,-6.229397317,11280.3.60-14-b12-1.151.O,06:42:26,06:42:26,20, Dundrum Luas,4993.81,60-14-b12-1,14,b12
76,8220DB000614,"Fairview, stop 614",53.363638,-6.23349323,11280.3.60-14-b12-1.151.O,06:43:16,06:43:16,21, Dundrum Luas,5291.55,60-14-b12-1,14,b12
77,8220DB000616,"Nth Strand Fire Stn, stop 616",53.35984471,-6.239554896,11280.3.60-14-b12-1.151.O,06:44:53,06:44:53,23, Dundrum Luas,5895.72,60-14-b12-1,14,b12
78,8220DB000618,"Newcomen Bridge, stop 618",53.35610118,-6.244742068,11280.3.60-14-b12-1.151.O,06:46:11,06:46:11,25, Dundrum Luas,6435.74,60-14-b12-1,14,b12
79,8220DB000619,"Amiens Street, stop 619",53.35404463,-6.247305334,11280.3.60-14-b12-1.151.O,06:47:12,06:47:12,26, Dundrum Luas,6721.95,60-14-b12-1,14,b12
80,8220DB004415,"Connolly Train Stn, stop 4415",53.35052079,-6.250334044,11280.3.60-14-b12-1.151.O,06:48:47,06:48:47,28, Dundrum Luas,7167.52,60-14-b12-1,14,b12
81,8220DB000301,"Eden Quay, stop 301",53.34798837,-6.256626241,11280.3.60-14-b12-1.151.O,06:51:41,06:51:41,29, Dundrum Luas,7792.07,60-14-b12-1,14,b12
82,8220DB000336,"D'Olier Street, stop 336",53.34625164,-6.257718467,11280.3.60-14-b12-1.151.O,06:53:59,06:53:59,30, Dundrum Luas,8118.07,60-14-b12-1,14,b12
83,8220DB007581,"Dame Street, stop 7581",53.34415856,-6.263345908,11280.3.60-14-b12-1.151.O,06:56:27,06:56:27,31, Dundrum Luas,8548.83,60-14-b12-1,14,b12
84,8220DB001283,"S Great George's St, stop 1283",53.34180872,-6.26492823,11280.3.60-14-b12-1.151.O,06:58:02,06:58:02,32, Dundrum Luas,8886.17,60-14-b12-1,14,b12
85,8220DB007579,"Redmond's Hill, stop 7579",53.33824578,-6.265913844,11280.3.60-14-b12-1.151.O,06:59:02,06:59:02,33, Dundrum Luas,9300.14,60-14-b12-1,14,b12
86,8220DB001285,"Camden Street Lower, stop 1285",53.33437841,-6.265124754,11280.3.60-14-b12-1.151.O,07:00:32,07:00:32,34, Dundrum Luas,9733.68,60-14-b12-1,14,b12
87,8220DB001016,"South Richmond St, stop 1016",53.33115931,-6.26441458,11280.3.60-14-b12-1.151.O,07:01:49,07:01:49,35, Dundrum Luas,10095.52,60-14-b12-1,14,b12
88,8220DB001017,"Rathmines Rd Lower, stop 1017",53.32936933,-6.264322097,11280.3.60-14-b12-1.151.O,07:02:26,07:02:26,36, Dundrum Luas,10297.12,60-14-b12-1,14,b12
89,8220DB001018,"St Mary's College, stop 1018",53.32758546,-6.264649745,11280.3.60-14-b12-1.151.O,07:03:03,07:03:03,37, Dundrum Luas,10496.67,60-14-b12-1,14,b12
90,8220DB001019,"Military Road, stop 1019",53.3265476,-6.264977118,11280.3.60-14-b12-1.151.O,07:03:25,07:03:25,38, Dundrum Luas,10612.99,60-14-b12-1,14,b12
91,8220DB001020,"Rathmines, stop 1020",53.32513838,-6.265109364,11280.3.60-14-b12-1.151.O,07:03:52,07:03:52,39, Dundrum Luas,10770.57,60-14-b12-1,14,b12
92,8220DB001076,"Swan Centre, stop 1076",53.32313059,-6.265491063,11280.3.60-14-b12-1.151.O,07:04:29,07:04:29,40, Dundrum Luas,10995.17,60-14-b12-1,14,b12
93,8220DB001077,"Rathmines Garda Stn, stop 1077",53.32157299,-6.266544985,11280.3.60-14-b12-1.151.O,07:05:03,07:05:03,41, Dundrum Luas,11191.04,60-14-b12-1,14,b12
94,8220DB001078,"Rathgar Place, stop 1078",53.31941276,-6.26880907,11280.3.60-14-b12-1.151.O,07:05:34,07:05:34,42, Dundrum Luas,11491.98,60-14-b12-1,14,b12
95,8220DB001079,"Frankfort Avenue, stop 1079",53.31665462,-6.270751874,11280.3.60-14-b12-1.151.O,07:06:10,07:06:10,43, Dundrum Luas,11824.53,60-14-b12-1,14,b12
96,8220DB001080,"Auburn Villas, stop 1080",53.3149092,-6.271873063,11280.3.60-14-b12-1.151.O,07:06:37,07:06:37,44, Dundrum Luas,12031.7,60-14-b12-1,14,b12
97,8220DB001081,"Rathgar Village, stop 1081",53.3126497,-6.273495173,11280.3.60-14-b12-1.151.O,07:07:15,07:07:15,45, Dundrum Luas,12305.67,60-14-b12-1,14,b12
98,8220DB002914,"Orwell Road, stop 2914",53.31095519,-6.273788674,11280.3.60-14-b12-1.151.O,07:07:46,07:07:46,46, Dundrum Luas,12535.91,60-14-b12-1,14,b12
99,8220DB002989,"Rostrevor Terrace, stop 2989",53.30804119,-6.270559797,11280.3.60-14-b12-1.151.O,07:08:41,07:08:41,47, Dundrum Luas,12945.26,60-14-b12-1,14,b12
100,8220DB002990,"Orwell Gardens, stop 2990",53.30621382,-6.267272345,11280.3.60-14-b12-1.151.O,07:09:19,07:09:19,48, Dundrum Luas,13258.27,60-14-b12-1,14,b12
101,8250DB001042,"Braemor Park, stop 1042",53.30433312,-6.264032349,11280.3.60-14-b12-1.151.O,07:10:10,07:10:10,49, Dundrum Luas,13685.03,60-14-b12-1,14,b12
102,8250DB001043,"Redwood Court, stop 1043",53.30131728,-6.264319736,11280.3.60-14-b12-1.151.O,07:11:10,07:11:10,50, Dundrum Luas,14248.93,60-14-b12-1,14,b12
103,8250DB001044,"Milltown Drive, stop 1044",53.29981815,-6.261364803,11280.3.60-14-b12-1.151.O,07:11:38,07:11:38,51, Dundrum Luas,14505.11,60-14-b12-1,14,b12
104,8250DB001045,"Landscape Gardens, stop 1045",53.29852597,-6.259661923,11280.3.60-14-b12-1.151.O,07:11:55,07:11:55,52, Dundrum Luas,14686.61,60-14-b12-1,14,b12
105,8250DB004710,"Churchtown Road, stop 4710",53.29573254,-6.258560323,11280.3.60-14-b12-1.151.O,07:12:28,07:12:28,53, Dundrum Luas,15033.73,60-14-b12-1,14,b12
106,8250DB001046,"Beaumont Avenue, stop 1046",53.29336042,-6.257381708,11280.3.60-14-b12-1.151.O,07:13:17,07:13:17,54, Dundrum Luas,15371.75,60-14-b12-1,14,b12
107,8250DB001047,"Mount Albion Road, stop 1047",53.28953657,-6.256502351,11280.3.60-14-b12-1.151.O,07:14:20,07:14:20,55, Dundrum Luas,15808.51,60-14-b12-1,14,b12
108,8250DB001048,"Barton Road East, stop 1048",53.28750864,-6.257349897,11280.3.60-14-b12-1.151.O,07:15:00,07:15:00,56, Dundrum Luas,16088.81,60-14-b12-1,14,b12
109,8250DB001049,"Meadow Villas, stop 1049",53.28708743,-6.262361769,11280.3.60-14-b12-1.151.O,07:15:25,07:15:25,57, Dundrum Luas,16426.6,60-14-b12-1,14,b12
110,8250DB004333,"Marley Court, stop 4333",53.2862369,-6.266295994,11280.3.60-14-b12-1.151.O,07:16:09,07:16:09,58, Dundrum Luas,16773.17,60-14-b12-1,14,b12
111,8250DB004334,"Dargle View, stop 4334",53.28381862,-6.265029082,11280.3.60-14-b12-1.151.O,07:16:45,07:16:45,59, Dundrum Luas,17068.51,60-14-b12-1,14,b12
112,8250DB004712,"Llewellyn Park, stop 4712",53.28292044,-6.263220753,11280.3.60-14-b12-1.151.O,07:17:05,07:17:05,60, Dundrum Luas,17224.64,60-14-b12-1,14,b12
113,8250DB002853,"Ballinteer Comm Sch, stop 2853",53.28082534,-6.260696242,11280.3.60-14-b12-1.151.O,07:17:48,07:17:48,61, Dundrum Luas,17559.13,60-14-b12-1,14,b12
114,8250DB002854,"Broadford Walk, stop 2854",53.28072154,-6.257281152,11280.3.60-14-b12-1.151.O,07:18:14,07:18:14,62, Dundrum Luas,17784.82,60-14-b12-1,14,b12
115,8250DB002855,"Chestnut Grove, stop 2855",53.27918962,-6.255169005,11280.3.60-14-b12-1.151.O,07:18:39,07:18:39,63, Dundrum Luas,18012.81,60-14-b12-1,14,b12
116,8250DB002856,"Broadford Close, stop 2856",53.27719148,-6.25498048,11280.3.60-14-b12-1.151.O,07:19:05,07:19:05,64, Dundrum Luas,18236.54,60-14-b12-1,14,b12
117,8250DB002857,"Ballinteer Drive, stop 2857",53.27477027,-6.255364017,11280.3.60-14-b12-1.151.O,07:19:35,07:19:35,65, Dundrum Luas,18509.48,60-14-b12-1,14,b12
118,8250DB002858,"Ballinteer Avenue, stop 2858",53.27518603,-6.252453043,11280.3.60-14-b12-1.151.O,07:20:06,07:20:06,66, Dundrum Luas,18804.19,60-14-b12-1,14,b12
119,8250DB002859,"Ballinteer Park, stop 2859",53.2769905,-6.248630505,11280.3.60-14-b12-1.151.O,07:20:40,07:20:40,67, Dundrum Luas,19128.52,60-14-b12-1,14,b12
120,8250DB002860,"Mayfield Terrace, stop 2860",53.27816728,-6.246138024,11280.3.60-14-b12-1.151.O,07:20:59,07:20:59,68, Dundrum Luas,19339.04,60-14-b12-1,14,b12
121,8250DB002861,"Wesley College, stop 2861",53.27957834,-6.244910506,11280.3.60-14-b12-1.151.O,07:21:18,07:21:18,69, Dundrum Luas,19535.99,60-14-b12-1,14,b12
122,8250DB002862,"Ashlawn, stop 2862",53.28291714,-6.245193607,11280.3.60-14-b12-1.151.O,07:21:55,07:21:55,70, Dundrum Luas,19931.51,60-14-b12-1,14,b12
123,8250DB002863,"Wyckham Park Road, stop 2863",53.28458954,-6.245844992,11280.3.60-14-b12-1.151.O,07:22:22,07:22:22,71, Dundrum Luas,20121.23,60-14-b12-1,14,b12
124,8250DB002864,"The Gables, stop 2864",53.2871896,-6.246623427,11280.3.60-14-b12-1.151.O,07:23:02,07:23:02,72, Dundrum Luas,20416.16,60-14-b12-1,14,b12
125,8250DB004486,"Dundrum Centre, stop 4486",53.28888944,-6.245473825,11280.3.60-14-b12-1.151.O,07:23:34,07:23:34,73, Dundrum Luas,20643.19,60-14-b12-1,14,b12
126,8250DB002865,"Holy Cross Church, stop 2865",53.28970409,-6.244030426,11280.3.60-14-b12-1.151.O,07:24:03,07:24:03,74, Dundrum Luas,20866.64,60-14-b12-1,14,b12
127,8250DB002866,"Main Street, stop 2866",53.29158037,-6.245708558,11280.3.60-14-b12-1.151.O,07:24:55,07:24:55,75, Dundrum Luas,21106.74,60-14-b12-1,14,b12
128,8250DB002825,"Dundrum Luas, stop 2825",53.29241665,-6.245734292,11280.3.60-14-b12-1.151.O,07:25:45,07:25:45,76, Dundrum Luas,21199.55,60-14-b12-1,14,b12
