Index,stop_id,stop_name,stop_lat,stop_lon,trip_id,arrival_time,departure_time,stop_sequence,stop_headsign,shape_dist_traveled,route_id,customer_route_name,project_subnet
92,8250DB004952,"UCD, stop 4952",53.30489662,-6.216937317,5045.1.60-27X-b12-1.176.O,17:05:00,17:05:00,1, Clare Hall,0.0,60-27X-b12-1,27X,b12
93,8250DB000768,"UCD Belfield, stop 768",53.30941819,-6.21877483,5045.1.60-27X-b12-1.176.O,17:09:37,17:09:37,2, Clare Hall,681.75,60-27X-b12-1,27X,b12
94,8220DB002085,"RTE, stop 2085",53.31517375,-6.220186156,5045.1.60-27X-b12-1.176.O,17:11:37,17:11:37,3, Clare Hall,1481.15,60-27X-b12-1,27X,b12
95,8220DB002086,"Nutley Avenue, stop 2086",53.31815678,-6.214703382,5045.1.60-27X-b12-1.176.O,17:12:51,17:12:51,4, Clare Hall,1985.18,60-27X-b12-1,27X,b12
96,8220DB000479,"Merrion Centre, stop 479",53.31914397,-6.213401287,5045.1.60-27X-b12-1.176.O,17:13:28,17:13:28,5, Clare Hall,2228.13,60-27X-b12-1,27X,b12
97,8220DB000480,"Netherlands Embassy, stop 480",53.32084998,-6.216287205,5045.1.60-27X-b12-1.176.O,17:14:08,17:14:08,6, Clare Hall,2497.22,60-27X-b12-1,27X,b12
98,8220DB000481,"Wanderers FC, stop 481",53.32234464,-6.218266443,5045.1.60-27X-b12-1.176.O,17:14:40,17:14:40,7, Clare Hall,2708.93,60-27X-b12-1,27X,b12
99,8220DB000482,"Shrewsbury Road, stop 482",53.32472778,-6.221965295,5045.1.60-27X-b12-1.176.O,17:15:36,17:15:36,8, Clare Hall,3070.84,60-27X-b12-1,27X,b12
100,8220DB000483,"British Embassy, stop 483",53.32594411,-6.223971481,5045.1.60-27X-b12-1.176.O,17:17:09,17:17:09,9, Clare Hall,3259.64,60-27X-b12-1,27X,b12
101,8220DB000485,"RDS Ballsbridge, stop 485",53.32825151,-6.228634971,5045.1.60-27X-b12-1.176.O,17:18:35,17:18:35,10, Clare Hall,3681.34,60-27X-b12-1,27X,b12
102,8220DB000488,"Lansdowne Park, stop 488",53.33309855,-6.236076947,5045.1.60-27X-b12-1.176.O,17:21:19,17:21:19,11, Clare Hall,4433.37,60-27X-b12-1,27X,b12
103,8220DB000491,"Mount Street Bridge, stop 491",53.33781405,-6.241333511,5045.1.60-27X-b12-1.176.O,17:24:11,17:24:11,12, Clare Hall,5084.37,60-27X-b12-1,27X,b12
104,8220DB000493,"Holles Street, stop 493",53.33985342,-6.247376823,5045.1.60-27X-b12-1.176.O,17:26:18,17:26:18,13, Clare Hall,5546.01,60-27X-b12-1,27X,b12
105,8220DB000494,"Clare Street, stop 494",53.34143558,-6.251682252,5045.1.60-27X-b12-1.176.O,17:27:50,17:27:50,14, Clare Hall,5881.35,60-27X-b12-1,27X,b12
106,8220DB000495,"Pearse Station, stop 495",53.34359132,-6.249746705,5045.1.60-27X-b12-1.176.O,17:29:31,17:29:31,15, Clare Hall,6285.4,60-27X-b12-1,27X,b12
107,8220DB000496,"Bus√°ras, stop 496",53.34949688,-6.252223579,5045.1.60-27X-b12-1.176.O,17:33:58,17:33:58,16, Clare Hall,7347.55,60-27X-b12-1,27X,b12
108,8220DB000523,"Marino College, stop 523",53.36428545,-6.231693332,5045.1.60-27X-b12-1.176.O,17:42:02,17:42:02,19, Clare Hall,9574.23,60-27X-b12-1,27X,b12
109,8220DB004382,"Donnycarney Church, stop 4382",53.37496447,-6.219677694,5045.1.60-27X-b12-1.176.O,17:47:13,17:47:13,20, Clare Hall,11102.24,60-27X-b12-1,27X,b12
110,8220DB001196,"Elm Mount Road, stop 1196",53.37778751,-6.214915296,5045.1.60-27X-b12-1.176.O,17:48:39,17:48:39,21, Clare Hall,11617.5,60-27X-b12-1,27X,b12
111,8220DB001197,"Killester Avenue, stop 1197",53.37923228,-6.211758333,5045.1.60-27X-b12-1.176.O,17:49:30,17:49:30,22, Clare Hall,11881.62,60-27X-b12-1,27X,b12
112,8220DB001198,"Mornington Grove, stop 1198",53.3825122,-6.206915591,5045.1.60-27X-b12-1.176.O,17:51:10,17:51:10,23, Clare Hall,12368.56,60-27X-b12-1,27X,b12
113,8220DB001199,"Mask Avenue, stop 1199",53.38498446,-6.202767614,5045.1.60-27X-b12-1.176.O,17:52:31,17:52:31,24, Clare Hall,12786.29,60-27X-b12-1,27X,b12
114,8220DB001200,"Coolock Village, stop 1200",53.38696265,-6.201030489,5045.1.60-27X-b12-1.176.O,17:53:19,17:53:19,25, Clare Hall,13032.54,60-27X-b12-1,27X,b12
115,8220DB004385,"Coolock Village, stop 4385",53.38853138,-6.19896468,5045.1.60-27X-b12-1.176.O,17:54:13,17:54:13,26, Clare Hall,13255.49,60-27X-b12-1,27X,b12
116,8220DB001201,"Brookville Crescent, stop 1201",53.39078981,-6.196147843,5045.1.60-27X-b12-1.176.O,17:55:33,17:55:33,27, Clare Hall,13569.79,60-27X-b12-1,27X,b12
117,8220DB004695,"Greencastle Road, stop 4695",53.39298308,-6.197348227,5045.1.60-27X-b12-1.176.O,17:56:53,17:56:53,28, Clare Hall,13905.23,60-27X-b12-1,27X,b12
118,8220DB001243,"Greencastle Avenue, stop 1243",53.39490031,-6.199913741,5045.1.60-27X-b12-1.176.O,17:57:39,17:57:39,29, Clare Hall,14179.0,60-27X-b12-1,27X,b12
119,8220DB004696,"Adare Road, stop 4696",53.39430755,-6.202329646,5045.1.60-27X-b12-1.176.O,17:58:20,17:58:20,30, Clare Hall,14420.72,60-27X-b12-1,27X,b12
120,8220DB004697,"Bunratty Avenue, stop 4697",53.39308924,-6.203794436,5045.1.60-27X-b12-1.176.O,17:58:48,17:58:48,31, Clare Hall,14587.47,60-27X-b12-1,27X,b12
121,8220DB001250,"Bunratty Road, stop 1250",53.39373901,-6.207556346,5045.1.60-27X-b12-1.176.O,17:59:39,17:59:39,32, Clare Hall,14893.49,60-27X-b12-1,27X,b12
122,8220DB004698,"Adare Avenue, stop 4698",53.39494264,-6.211099654,5045.1.60-27X-b12-1.176.O,18:00:25,18:00:25,33, Clare Hall,15163.16,60-27X-b12-1,27X,b12
123,8220DB004383,"Coolock Library, stop 4383",53.39631831,-6.211132174,5045.1.60-27X-b12-1.176.O,18:00:58,18:00:58,34, Clare Hall,15360.95,60-27X-b12-1,27X,b12
124,8220DB004699,"Stardust Memorial Pk, stop 4699",53.39753776,-6.208539574,5045.1.60-27X-b12-1.176.O,18:01:35,18:01:35,35, Clare Hall,15581.53,60-27X-b12-1,27X,b12
125,8220DB004388,"Glin Road, stop 4388",53.39873112,-6.206008076,5045.1.60-27X-b12-1.176.O,18:02:27,18:02:27,36, Clare Hall,15877.55,60-27X-b12-1,27X,b12
126,8220DB004700,"DCC Sports Centre, stop 4700",53.40013323,-6.205407679,5045.1.60-27X-b12-1.176.O,18:02:53,18:02:53,37, Clare Hall,16036.75,60-27X-b12-1,27X,b12
127,8220DB001266,"Priorswood Road, stop 1266",53.40205541,-6.204725184,5045.1.60-27X-b12-1.176.O,18:03:36,18:03:36,38, Clare Hall,16295.2,60-27X-b12-1,27X,b12
128,8220DB001267,"Ferrycarrig Park, stop 1267",53.40085551,-6.20024887,5045.1.60-27X-b12-1.176.O,18:04:29,18:04:29,39, Clare Hall,16619.19,60-27X-b12-1,27X,b12
129,8220DB001268,"Belcamp Avenue, stop 1268",53.39989427,-6.197898243,5045.1.60-27X-b12-1.176.O,18:05:01,18:05:01,40, Clare Hall,16807.67,60-27X-b12-1,27X,b12
130,8220DB001269,"Marigold Road, stop 1269",53.39842896,-6.193719317,5045.1.60-27X-b12-1.176.O,18:05:54,18:05:54,41, Clare Hall,17133.9,60-27X-b12-1,27X,b12
131,8220DB001265,"Marigold Avenue, stop 1265",53.39822153,-6.190705381,5045.1.60-27X-b12-1.176.O,18:06:27,18:06:27,42, Clare Hall,17335.6,60-27X-b12-1,27X,b12
132,8220DB006115,"Belcamp Lane, stop 6115",53.40012738,-6.184217854,5045.1.60-27X-b12-1.176.O,18:08:07,18:08:07,43, Clare Hall,17933.63,60-27X-b12-1,27X,b12
133,8220DB004593,"Temple View Rise, stop 4593",53.40250415,-6.176807213,5045.1.60-27X-b12-1.176.O,18:11:08,18:11:08,45, Clare Hall,18577.89,60-27X-b12-1,27X,b12
134,8220DB004594,"Donaghmede Rdbt, stop 4594",53.39924468,-6.163531944,5045.1.60-27X-b12-1.176.O,18:14:23,18:14:23,46, Clare Hall,19893.01,60-27X-b12-1,27X,b12
