Index,stop_id,stop_name,stop_lat,stop_lon,trip_id,arrival_time,departure_time,stop_sequence,stop_headsign,shape_dist_traveled,route_id,customer_route_name,project_subnet
138,8220DB000395,"Ringsend Road, stop 395",53.34194005,-6.235276454,15621.2.60-77A-b12-1.51.O,13:30:00,13:30:00,1, Citywest,0.0,60-77A-b12-1,77A,b12
139,8220DB000396,"Grand Canal Quay, stop 396",53.34244252,-6.239475948,15621.2.60-77A-b12-1.51.O,13:31:22,13:31:22,2, Citywest,292.56,60-77A-b12-1,77A,b12
140,8220DB000397,"Pearse Square, stop 397",53.34278556,-6.242015007,15621.2.60-77A-b12-1.51.O,13:32:15,13:32:15,3, Citywest,466.34,60-77A-b12-1,77A,b12
141,8220DB000398,"Erne Street, stop 398",53.34329494,-6.245478447,15621.2.60-77A-b12-1.51.O,13:33:03,13:33:03,4, Citywest,702.09,60-77A-b12-1,77A,b12
142,8220DB000399,"Pearse Station, stop 399",53.34386682,-6.248308601,15621.2.60-77A-b12-1.51.O,13:33:42,13:33:42,5, Citywest,902.06,60-77A-b12-1,77A,b12
143,8220DB000400,"Shaw Street, stop 400",53.34484912,-6.253389973,15621.2.60-77A-b12-1.51.O,13:34:55,13:34:55,6, Citywest,1255.93,60-77A-b12-1,77A,b12
144,8220DB004522,"College Green, stop 4522",53.34426249,-6.26060818,15621.2.60-77A-b12-1.51.O,13:39:13,13:39:13,7, Citywest,1813.1,60-77A-b12-1,77A,b12
145,8220DB001934,"Dame Street, stop 1934",53.34411836,-6.265525325,15621.2.60-77A-b12-1.51.O,13:40:46,13:40:46,8, Citywest,2139.94,60-77A-b12-1,77A,b12
146,8220DB002310,"Werburgh Street, stop 2310",53.3424457,-6.269798428,15621.2.60-77A-b12-1.51.O,13:42:57,13:42:57,9, Citywest,2571.72,60-77A-b12-1,77A,b12
147,8220DB002311,"Kevin Street, stop 2311",53.33828528,-6.270492467,15621.2.60-77A-b12-1.51.O,13:45:06,13:45:06,10, Citywest,3135.7,60-77A-b12-1,77A,b12
148,8220DB002312,"St Luke's Avenue, stop 2312",53.33887885,-6.275484235,15621.2.60-77A-b12-1.51.O,13:46:55,13:46:55,11, Citywest,3516.64,60-77A-b12-1,77A,b12
149,8220DB002313,"Ardee Court, stop 2313",53.33874233,-6.278478182,15621.2.60-77A-b12-1.51.O,13:47:52,13:47:52,12, Citywest,3714.47,60-77A-b12-1,77A,b12
150,8220DB002314,"Cork Street, stop 2314",53.33835368,-6.280821493,15621.2.60-77A-b12-1.51.O,13:48:30,13:48:30,13, Citywest,3878.2,60-77A-b12-1,77A,b12
151,8220DB002315,"Brickfield Lane, stop 2315",53.33753643,-6.285239284,15621.2.60-77A-b12-1.51.O,13:49:43,13:49:43,14, Citywest,4185.8,60-77A-b12-1,77A,b12
152,8220DB002094,"Coombe Hospital, stop 2094",53.33475197,-6.289750638,15621.2.60-77A-b12-1.51.O,13:50:44,13:50:44,15, Citywest,4644.98,60-77A-b12-1,77A,b12
153,8220DB001406,"Dolphin's Barn, stop 1406",53.33315293,-6.291691527,15621.2.60-77A-b12-1.51.O,13:52:23,13:52:23,16, Citywest,4889.36,60-77A-b12-1,77A,b12
154,8220DB001407,"Crumlin Road, stop 1407",53.3315385,-6.294443677,15621.2.60-77A-b12-1.51.O,13:53:18,13:53:18,17, Citywest,5144.38,60-77A-b12-1,77A,b12
155,8220DB001409,"Loreto College, stop 1409",53.33036674,-6.297358156,15621.2.60-77A-b12-1.51.O,13:54:08,13:54:08,18, Citywest,5378.61,60-77A-b12-1,77A,b12
156,8220DB002095,"Crumlin SC, stop 2095",53.32903747,-6.302470752,15621.2.60-77A-b12-1.51.O,13:55:06,13:55:06,19, Citywest,5749.52,60-77A-b12-1,77A,b12
157,8220DB002096,"Guinness RFC, stop 2096",53.32808359,-6.306817491,15621.2.60-77A-b12-1.51.O,13:55:56,13:55:56,20, Citywest,6057.05,60-77A-b12-1,77A,b12
158,8220DB002097,"Iveagh Gardens, stop 2097",53.32743275,-6.309725806,15621.2.60-77A-b12-1.51.O,13:56:34,13:56:34,21, Citywest,6263.14,60-77A-b12-1,77A,b12
159,8220DB002099,"Drimnagh Road, stop 2099",53.32556158,-6.316600469,15621.2.60-77A-b12-1.51.O,13:58:09,13:58:09,22, Citywest,6773.72,60-77A-b12-1,77A,b12
160,8220DB002101,"Crumlin Hospital, stop 2101",53.32495457,-6.318170639,15621.2.60-77A-b12-1.51.O,13:58:32,13:58:32,23, Citywest,6894.64,60-77A-b12-1,77A,b12
161,8220DB002102,"Balfe Road, stop 2102",53.32419485,-6.326141902,15621.2.60-77A-b12-1.51.O,14:00:13,14:00:13,24, Citywest,7432.96,60-77A-b12-1,77A,b12
162,8220DB002103,"Walkinstown Road, stop 2103",53.3220827,-6.329992417,15621.2.60-77A-b12-1.51.O,14:01:12,14:01:12,25, Citywest,7800.45,60-77A-b12-1,77A,b12
163,8220DB002332,"Walkinstown Mall, stop 2332",53.32087464,-6.3310153,15621.2.60-77A-b12-1.51.O,14:01:35,14:01:35,26, Citywest,7953.73,60-77A-b12-1,77A,b12
164,8220DB002333,"Walkinstown Rdbt, stop 2333",53.31784176,-6.332664654,15621.2.60-77A-b12-1.51.O,14:02:32,14:02:32,27, Citywest,8308.65,60-77A-b12-1,77A,b12
165,8230DB002334,"Greenhills Road, stop 2334",53.31553401,-6.33475081,15621.2.60-77A-b12-1.51.O,14:03:12,14:03:12,28, Citywest,8619.17,60-77A-b12-1,77A,b12
166,8230DB004662,"Hillcrest Park, stop 4662",53.31330519,-6.341216064,15621.2.60-77A-b12-1.51.O,14:04:16,14:04:16,29, Citywest,9117.54,60-77A-b12-1,77A,b12
167,8230DB002335,"Calmount Avenue, stop 2335",53.31165076,-6.343111144,15621.2.60-77A-b12-1.51.O,14:04:34,14:04:34,30, Citywest,9347.58,60-77A-b12-1,77A,b12
168,8230DB002336,"Tibradden Drive, stop 2336",53.30885602,-6.345740492,15621.2.60-77A-b12-1.51.O,14:05:04,14:05:04,31, Citywest,9719.02,60-77A-b12-1,77A,b12
169,8230DB002337,"Old Tymon Lane, stop 2337",53.30599144,-6.348522243,15621.2.60-77A-b12-1.51.O,14:05:37,14:05:37,32, Citywest,10090.08,60-77A-b12-1,77A,b12
170,8230DB002339,"Elmcastle Court, stop 2339",53.3025723,-6.351505034,15621.2.60-77A-b12-1.51.O,14:06:26,14:06:26,33, Citywest,10525.44,60-77A-b12-1,77A,b12
171,8230DB002420,"Tymonville, stop 2420",53.30118494,-6.351273401,15621.2.60-77A-b12-1.51.O,14:07:13,14:07:13,34, Citywest,10739.06,60-77A-b12-1,77A,b12
172,8230DB002421,"Tymon North Road, stop 2421",53.29967033,-6.346395631,15621.2.60-77A-b12-1.51.O,14:08:08,14:08:08,35, Citywest,11103.79,60-77A-b12-1,77A,b12
173,8230DB002423,"Tymon Park, stop 2423",53.29826536,-6.342954233,15621.2.60-77A-b12-1.51.O,14:08:50,14:08:50,36, Citywest,11382.13,60-77A-b12-1,77A,b12
174,8230DB002424,"Castletymon Green, stop 2424",53.29514948,-6.34122963,15621.2.60-77A-b12-1.51.O,14:09:54,14:09:54,37, Citywest,11791.93,60-77A-b12-1,77A,b12
175,8230DB002447,"St Aengus Church, stop 2447",53.29298553,-6.342678578,15621.2.60-77A-b12-1.51.O,14:10:33,14:10:33,38, Citywest,12056.57,60-77A-b12-1,77A,b12
176,8230DB005133,"Castle Park, stop 5133",53.29051011,-6.34305941,15621.2.60-77A-b12-1.51.O,14:11:15,14:11:15,39, Citywest,12342.26,60-77A-b12-1,77A,b12
177,8230DB002596,"Glenview Lawn, stop 2596",53.28980635,-6.340926653,15621.2.60-77A-b12-1.51.O,14:11:59,14:11:59,40, Citywest,12596.5,60-77A-b12-1,77A,b12
178,8230DB002611,"Bolbrook, stop 2611",53.2869171,-6.340633633,15621.2.60-77A-b12-1.51.O,14:13:31,14:13:31,41, Citywest,13138.2,60-77A-b12-1,77A,b12
179,8230DB002602,"Avonmore Park, stop 2602",53.28429492,-6.344034809,15621.2.60-77A-b12-1.51.O,14:14:38,14:14:38,42, Citywest,13533.6,60-77A-b12-1,77A,b12
180,8230DB002613,"Homelawn Road, stop 2613",53.28250533,-6.347853357,15621.2.60-77A-b12-1.51.O,14:15:33,14:15:33,43, Citywest,13859.16,60-77A-b12-1,77A,b12
181,8230DB002614,"Seskin View Road, stop 2614",53.28142959,-6.350654306,15621.2.60-77A-b12-1.51.O,14:16:11,14:16:11,44, Citywest,14081.69,60-77A-b12-1,77A,b12
182,8230DB002615,"New Bawn Park, stop 2615",53.28068259,-6.355137104,15621.2.60-77A-b12-1.51.O,14:17:16,14:17:16,45, Citywest,14390.62,60-77A-b12-1,77A,b12
183,8230DB002535,"Seskin View Road, stop 2535",53.28101333,-6.358918603,15621.2.60-77A-b12-1.51.O,14:18:20,14:18:20,46, Citywest,14703.61,60-77A-b12-1,77A,b12
184,8230DB002536,"Old Bawn Court, stop 2536",53.28295485,-6.359579081,15621.2.60-77A-b12-1.51.O,14:19:14,14:19:14,47, Citywest,14923.3,60-77A-b12-1,77A,b12
185,8230DB002616,"St Maelruan's Park, stop 2616",53.28464121,-6.360639339,15621.2.60-77A-b12-1.51.O,14:20:03,14:20:03,48, Citywest,15126.85,60-77A-b12-1,77A,b12
186,8230DB002617,"Village Green, stop 2617",53.28671022,-6.362075008,15621.2.60-77A-b12-1.51.O,14:21:01,14:21:01,49, Citywest,15374.53,60-77A-b12-1,77A,b12
187,8230DB002557,"Tallaght Village, stop 2557",53.28850642,-6.363281249,15621.2.60-77A-b12-1.51.O,14:21:57,14:21:57,50, Citywest,15600.5,60-77A-b12-1,77A,b12
188,8230DB004436,"IT Tallaght, stop 4436",53.28916826,-6.36697587,15621.2.60-77A-b12-1.51.O,14:23:14,14:23:14,51, Citywest,15909.74,60-77A-b12-1,77A,b12
189,8230DB005008,"Belgard Square North, stop 5008",53.29045019,-6.369356994,15621.2.60-77A-b12-1.51.O,14:24:28,14:24:28,52, Citywest,16222.43,60-77A-b12-1,77A,b12
190,8230DB004640,"Tallaght Hospital, stop 4640",53.28939562,-6.373747085,15621.2.60-77A-b12-1.51.O,14:25:48,14:25:48,53, Citywest,16556.33,60-77A-b12-1,77A,b12
191,8230DB004347,"Tallaght Luas, stop 4347",53.28622205,-6.375007513,15621.2.60-77A-b12-1.51.O,14:27:40,14:27:40,54, Citywest,17017.01,60-77A-b12-1,77A,b12
192,8230DB002349,"Alderwood, stop 2349",53.28502887,-6.378472384,15621.2.60-77A-b12-1.51.O,14:28:37,14:28:37,55, Citywest,17327.81,60-77A-b12-1,77A,b12
193,8230DB002351,"Blessington Road, stop 2351",53.28320557,-6.384525449,15621.2.60-77A-b12-1.51.O,14:30:07,14:30:07,56, Citywest,17820.41,60-77A-b12-1,77A,b12
194,8230DB002558,"Killinarden Estate, stop 2558",53.28024945,-6.383932116,15621.2.60-77A-b12-1.51.O,14:31:18,14:31:18,57, Citywest,18212.76,60-77A-b12-1,77A,b12
195,8230DB002559,"Health Care Centre, stop 2559",53.27638048,-6.378994724,15621.2.60-77A-b12-1.51.O,14:33:12,14:33:12,58, Citywest,18843.39,60-77A-b12-1,77A,b12
196,8230DB002560,"Cushlawn Park, stop 2560",53.27390226,-6.379838215,15621.2.60-77A-b12-1.51.O,14:34:03,14:34:03,59, Citywest,19128.73,60-77A-b12-1,77A,b12
197,8230DB002561,"Donomore Crescent, stop 2561",53.2727603,-6.384439548,15621.2.60-77A-b12-1.51.O,14:35:04,14:35:04,60, Citywest,19475.7,60-77A-b12-1,77A,b12
198,8230DB002562,"Sacred Heart FC, stop 2562",53.27318507,-6.387932135,15621.2.60-77A-b12-1.51.O,14:35:48,14:35:48,61, Citywest,19709.96,60-77A-b12-1,77A,b12
199,8230DB002564,"Killinarden Heights, stop 2564",53.2737655,-6.391643858,15621.2.60-77A-b12-1.51.O,14:36:34,14:36:34,62, Citywest,19965.43,60-77A-b12-1,77A,b12
200,8230DB004927,"Hazel Grove, stop 4927",53.27483557,-6.394347694,15621.2.60-77A-b12-1.51.O,14:37:13,14:37:13,63, Citywest,20182.75,60-77A-b12-1,77A,b12
201,8230DB004928,"Killinarden Comm Sch, stop 4928",53.27599292,-6.394859128,15621.2.60-77A-b12-1.51.O,14:37:37,14:37:37,64, Citywest,20314.89,60-77A-b12-1,77A,b12
202,8230DB002352,"Jobstown House, stop 2352",53.27753723,-6.397410482,15621.2.60-77A-b12-1.51.O,14:38:53,14:38:53,65, Citywest,20741.14,60-77A-b12-1,77A,b12
203,8230DB002573,"Kiltalown Cottages, stop 2573",53.27427537,-6.406859019,15621.2.60-77A-b12-1.51.O,14:40:21,14:40:21,66, Citywest,21525.99,60-77A-b12-1,77A,b12
204,8230DB002574,"De Selby Estate, stop 2574",53.27456075,-6.410731975,15621.2.60-77A-b12-1.51.O,14:40:51,14:40:51,67, Citywest,21786.81,60-77A-b12-1,77A,b12
205,8230DB002575,"Corbally Vale, stop 2575",53.27715801,-6.418823085,15621.2.60-77A-b12-1.51.O,14:42:20,14:42:20,68, Citywest,22449.55,60-77A-b12-1,77A,b12
206,8230DB004929,"Verschoyle Avenue, stop 4929",53.28080557,-6.421417814,15621.2.60-77A-b12-1.51.O,14:43:21,14:43:21,69, Citywest,22900.68,60-77A-b12-1,77A,b12
207,8230DB007460,"Citywest SC, stop 7460",53.28263162,-6.421530473,15621.2.60-77A-b12-1.51.O,14:43:48,14:43:48,70, Citywest,23103.13,60-77A-b12-1,77A,b12
208,8230DB004930,"Citywest Avenue, stop 4930",53.28756971,-6.422488364,15621.2.60-77A-b12-1.51.O,14:45:05,14:45:05,71, Citywest,23676.78,60-77A-b12-1,77A,b12
209,8230DB004931,"Orchard Avenue, stop 4931",53.28901878,-6.425359879,15621.2.60-77A-b12-1.51.O,14:45:42,14:45:42,72, Citywest,23948.55,60-77A-b12-1,77A,b12
210,8230DB007459,"Logic Drive, stop 7459",53.29084182,-6.427287849,15621.2.60-77A-b12-1.51.O,14:46:15,14:46:15,73, Citywest,24195.54,60-77A-b12-1,77A,b12
