Index,stop_id,stop_name,stop_lat,stop_lon,trip_id,arrival_time,departure_time,stop_sequence,stop_headsign,shape_dist_traveled,route_id,customer_route_name,project_subnet
0,8230DB004713,"Bianconi Avenue, stop 4713",53.29128922,-6.427136411,15620.2.60-77A-b12-1.52.I,12:00:00,12:00:00,1, Ringsend Road,0.0,60-77A-b12-1,77A,b12
1,8230DB004714,"Castle Drive, stop 4714",53.28874724,-6.423854925,15620.2.60-77A-b12-1.52.I,12:01:03,12:01:03,2, Ringsend Road,394.98,60-77A-b12-1,77A,b12
2,8230DB004960,"Citywest Road, stop 4960",53.28505059,-6.421621287,15620.2.60-77A-b12-1.52.I,12:02:16,12:02:16,3, Ringsend Road,860.17,60-77A-b12-1,77A,b12
3,8230DB004932,"Magna Drive, stop 4932",53.27886099,-6.42049975,15620.2.60-77A-b12-1.52.I,12:04:11,12:04:11,4, Ringsend Road,1574.03,60-77A-b12-1,77A,b12
4,8230DB004933,"Belfry, stop 4933",53.2776403,-6.419270143,15620.2.60-77A-b12-1.52.I,12:04:37,12:04:37,5, Ringsend Road,1739.42,60-77A-b12-1,77A,b12
5,8230DB002590,"Belfry Downs, stop 2590",53.27514543,-6.415493584,15620.2.60-77A-b12-1.52.I,12:05:36,12:05:36,6, Ringsend Road,2137.12,60-77A-b12-1,77A,b12
6,8230DB002591,"De Selby Estate, stop 2591",53.27461086,-6.410445221,15620.2.60-77A-b12-1.52.I,12:06:27,12:06:27,7, Ringsend Road,2479.1,60-77A-b12-1,77A,b12
7,8230DB002592,"Kiltalown Cottages, stop 2592",53.2743035,-6.406273192,15620.2.60-77A-b12-1.52.I,12:07:09,12:07:09,8, Ringsend Road,2759.02,60-77A-b12-1,77A,b12
8,8230DB002357,"Jobstown House, stop 2357",53.27796896,-6.39676451,15620.2.60-77A-b12-1.52.I,12:09:10,12:09:10,9, Ringsend Road,3567.85,60-77A-b12-1,77A,b12
9,8230DB002566,"Killinarden School, stop 2566",53.27775591,-6.394958014,15620.2.60-77A-b12-1.52.I,12:09:44,12:09:44,10, Ringsend Road,3736.9,60-77A-b12-1,77A,b12
10,8230DB002567,"Hazelgrove, stop 2567",53.27576591,-6.394687695,15620.2.60-77A-b12-1.52.I,12:10:27,12:10:27,11, Ringsend Road,3958.29,60-77A-b12-1,77A,b12
11,8230DB002568,"Killinarden Heights, stop 2568",53.27372358,-6.390535859,15620.2.60-77A-b12-1.52.I,12:11:45,12:11:45,12, Ringsend Road,4354.13,60-77A-b12-1,77A,b12
12,8230DB002569,"Donomore Avenue, stop 2569",53.27309171,-6.386346283,15620.2.60-77A-b12-1.52.I,12:12:41,12:12:41,13, Ringsend Road,4641.68,60-77A-b12-1,77A,b12
13,8230DB007550,"Donomore Crescent, stop 7550",53.27352574,-6.380572175,15620.2.60-77A-b12-1.52.I,12:14:03,12:14:03,14, Ringsend Road,5053.49,60-77A-b12-1,77A,b12
14,8230DB002570,"Health Care Centre, stop 2570",53.27624655,-6.379059773,15620.2.60-77A-b12-1.52.I,12:15:07,12:15:07,15, Ringsend Road,5388.64,60-77A-b12-1,77A,b12
15,8230DB002571,"Killinarden Estate, stop 2571",53.28061184,-6.384143392,15620.2.60-77A-b12-1.52.I,12:17:22,12:17:22,16, Ringsend Road,6074.32,60-77A-b12-1,77A,b12
16,8230DB002359,"Maplewood Avenue, stop 2359",53.28359003,-6.384375966,15620.2.60-77A-b12-1.52.I,12:18:42,12:18:42,17, Ringsend Road,6476.57,60-77A-b12-1,77A,b12
17,8230DB002360,"Alderwood, stop 2360",53.28469482,-6.37968488,15620.2.60-77A-b12-1.52.I,12:20:12,12:20:12,18, Ringsend Road,6841.68,60-77A-b12-1,77A,b12
18,8230DB004348,"Tallaght Luas, stop 4348",53.28667204,-6.375050431,15620.2.60-77A-b12-1.52.I,12:21:54,12:21:54,19, Ringsend Road,7260.48,60-77A-b12-1,77A,b12
19,8230DB004646,"Tallaght Hospital, stop 4646",53.28943871,-6.37427044,15620.2.60-77A-b12-1.52.I,12:23:23,12:23:23,20, Ringsend Road,7677.56,60-77A-b12-1,77A,b12
20,8230DB004647,"South Dublin CC, stop 4647",53.29005747,-6.371531949,15620.2.60-77A-b12-1.52.I,12:24:05,12:24:05,21, Ringsend Road,7872.95,60-77A-b12-1,77A,b12
21,8230DB002346,"Belgard Square North, stop 2346",53.29007974,-6.367901104,15620.2.60-77A-b12-1.52.I,12:25:16,12:25:16,22, Ringsend Road,8202.64,60-77A-b12-1,77A,b12
22,8230DB004435,"Tallaght Village, stop 4435",53.28884292,-6.363568377,15620.2.60-77A-b12-1.52.I,12:26:48,12:26:48,23, Ringsend Road,8639.17,60-77A-b12-1,77A,b12
23,8230DB002604,"Village Green, stop 2604",53.28681493,-6.361846019,15620.2.60-77A-b12-1.52.I,12:27:45,12:27:45,24, Ringsend Road,8897.72,60-77A-b12-1,77A,b12
24,8230DB002605,"St Maelruan's Park, stop 2605",53.28405597,-6.359911848,15620.2.60-77A-b12-1.52.I,12:28:55,12:28:55,25, Ringsend Road,9235.1,60-77A-b12-1,77A,b12
25,8230DB002538,"The Crescent, stop 2538",53.28153457,-6.358913627,15620.2.60-77A-b12-1.52.I,12:29:58,12:29:58,26, Ringsend Road,9522.31,60-77A-b12-1,77A,b12
26,8230DB002606,"Seskin View Road, stop 2606",53.28068704,-6.356111721,15620.2.60-77A-b12-1.52.I,12:30:56,12:30:56,27, Ringsend Road,9826.44,60-77A-b12-1,77A,b12
27,8230DB002607,"Millbrook Lawns, stop 2607",53.28162224,-6.350286956,15620.2.60-77A-b12-1.52.I,12:32:12,12:32:12,28, Ringsend Road,10230.09,60-77A-b12-1,77A,b12
28,8230DB002608,"Avonmore Road, stop 2608",53.28271927,-6.347725124,15620.2.60-77A-b12-1.52.I,12:32:54,12:32:54,29, Ringsend Road,10445.54,60-77A-b12-1,77A,b12
29,8230DB002609,"Avonmore Drive, stop 2609",53.28478528,-6.343100957,15620.2.60-77A-b12-1.52.I,12:34:04,12:34:04,30, Ringsend Road,10830.0,60-77A-b12-1,77A,b12
30,8230DB002610,"Bolbrook, stop 2610",53.28746131,-6.340987521,15620.2.60-77A-b12-1.52.I,12:35:15,12:35:15,31, Ringsend Road,11209.76,60-77A-b12-1,77A,b12
31,8230DB002554,"Glenview Park, stop 2554",53.28904029,-6.339486368,15620.2.60-77A-b12-1.52.I,12:36:06,12:36:06,32, Ringsend Road,11488.87,60-77A-b12-1,77A,b12
32,8230DB002425,"Castletymon Road, stop 2425",53.29065884,-6.34341366,15620.2.60-77A-b12-1.52.I,12:37:24,12:37:24,33, Ringsend Road,11909.69,60-77A-b12-1,77A,b12
33,8230DB002426,"St Aengus Church, stop 2426",53.29320342,-6.342835155,15620.2.60-77A-b12-1.52.I,12:38:09,12:38:09,34, Ringsend Road,12193.46,60-77A-b12-1,77A,b12
34,8230DB002427,"Tymon Lane, stop 2427",53.29597971,-6.340822404,15620.2.60-77A-b12-1.52.I,12:39:02,12:39:02,35, Ringsend Road,12533.52,60-77A-b12-1,77A,b12
35,8230DB002428,"Tymon Park, stop 2428",53.29833595,-6.343506609,15620.2.60-77A-b12-1.52.I,12:39:52,12:39:52,36, Ringsend Road,12884.4,60-77A-b12-1,77A,b12
36,8230DB002429,"Tymon North School, stop 2429",53.29954477,-6.346415485,15620.2.60-77A-b12-1.52.I,12:40:26,12:40:26,37, Ringsend Road,13119.59,60-77A-b12-1,77A,b12
37,8230DB002430,"Tymonville Grove, stop 2430",53.30092138,-6.350413332,15620.2.60-77A-b12-1.52.I,12:41:12,12:41:12,38, Ringsend Road,13428.07,60-77A-b12-1,77A,b12
38,8230DB002371,"Kilnamanagh SC, stop 2371",53.3033969,-6.351338226,15620.2.60-77A-b12-1.52.I,12:42:34,12:42:34,39, Ringsend Road,13798.08,60-77A-b12-1,77A,b12
39,8230DB002372,"Old Tymon Lane, stop 2372",53.30725688,-6.347738103,15620.2.60-77A-b12-1.52.I,12:43:15,12:43:15,40, Ringsend Road,14289.87,60-77A-b12-1,77A,b12
40,8230DB002373,"Kilakee Drive, stop 2373",53.31071163,-6.344738289,15620.2.60-77A-b12-1.52.I,12:43:54,12:43:54,41, Ringsend Road,14732.97,60-77A-b12-1,77A,b12
41,8230DB002377,"Greenhills SC, stop 2377",53.31604708,-6.334160486,15620.2.60-77A-b12-1.52.I,12:45:22,12:45:22,42, Ringsend Road,15680.8,60-77A-b12-1,77A,b12
42,8220DB002378,"Walkinstown Road, stop 2378",53.31814782,-6.332697752,15620.2.60-77A-b12-1.52.I,12:46:21,12:46:21,43, Ringsend Road,15942.73,60-77A-b12-1,77A,b12
43,8220DB002183,"Walkinstown Shop Cen, stop 2183",53.32170398,-6.330547609,15620.2.60-77A-b12-1.52.I,12:48:00,12:48:00,44, Ringsend Road,16362.76,60-77A-b12-1,77A,b12
44,8220DB002184,"Drimnagh Road Junc, stop 2184",53.32299661,-6.329146097,15620.2.60-77A-b12-1.52.I,12:48:39,12:48:39,45, Ringsend Road,16533.19,60-77A-b12-1,77A,b12
45,8220DB002185,"Slievebloom Road, stop 2185",53.3242587,-6.327490489,15620.2.60-77A-b12-1.52.I,12:49:21,12:49:21,46, Ringsend Road,16722.96,60-77A-b12-1,77A,b12
46,8220DB007043,"St Mary's Road, stop 7043",53.32506078,-6.318691894,15620.2.60-77A-b12-1.52.I,12:51:20,12:51:20,47, Ringsend Road,17315.18,60-77A-b12-1,77A,b12
47,8220DB001424,"Crumlin Hospital, stop 1424",53.32566251,-6.316746622,15620.2.60-77A-b12-1.52.I,12:51:52,12:51:52,48, Ringsend Road,17466.63,60-77A-b12-1,77A,b12
48,8220DB002186,"Crumlin Road, stop 2186",53.32693328,-6.31253798,15620.2.60-77A-b12-1.52.I,12:52:39,12:52:39,49, Ringsend Road,17781.37,60-77A-b12-1,77A,b12
49,8220DB002187,"Iveagh Grounds, stop 2187",53.32804528,-6.307284425,15620.2.60-77A-b12-1.52.I,12:53:37,12:53:37,50, Ringsend Road,18150.95,60-77A-b12-1,77A,b12
50,8220DB002188,"Crumlin College, stop 2188",53.32901692,-6.302921981,15620.2.60-77A-b12-1.52.I,12:54:32,12:54:32,51, Ringsend Road,18460.33,60-77A-b12-1,77A,b12
51,8220DB002189,"Crumlin SC, stop 2189",53.3296954,-6.300072408,15620.2.60-77A-b12-1.52.I,12:55:09,12:55:09,52, Ringsend Road,18663.99,60-77A-b12-1,77A,b12
52,8220DB001436,"Herberton Road, stop 1436",53.33088496,-6.29651172,15620.2.60-77A-b12-1.52.I,12:55:58,12:55:58,53, Ringsend Road,18938.76,60-77A-b12-1,77A,b12
53,8220DB003952,"Rutland Avenue, stop 3952",53.33168395,-6.294557992,15620.2.60-77A-b12-1.52.I,12:56:41,12:56:41,54, Ringsend Road,19095.66,60-77A-b12-1,77A,b12
54,8220DB002190,"Dolphin's Barn, stop 2190",53.33277057,-6.292607716,15620.2.60-77A-b12-1.52.I,12:57:30,12:57:30,55, Ringsend Road,19276.09,60-77A-b12-1,77A,b12
55,8220DB004434,"Coombe Hospital, stop 4434",53.33586838,-6.289255479,15620.2.60-77A-b12-1.52.I,12:58:53,12:58:53,56, Ringsend Road,19712.09,60-77A-b12-1,77A,b12
56,8220DB002379,"Marion Villas, stop 2379",53.33783344,-6.284641707,15620.2.60-77A-b12-1.52.I,13:00:34,13:00:34,57, Ringsend Road,20106.43,60-77A-b12-1,77A,b12
57,8220DB002380,"Ardee Street, stop 2380",53.33850607,-6.280169624,15620.2.60-77A-b12-1.52.I,13:01:28,13:01:28,58, Ringsend Road,20415.7,60-77A-b12-1,77A,b12
58,8220DB002382,"St Luke's Avenue, stop 2382",53.33885781,-6.278383426,15620.2.60-77A-b12-1.52.I,13:02:09,13:02:09,59, Ringsend Road,20538.81,60-77A-b12-1,77A,b12
59,8220DB005099,"Newmarket Street, stop 5099",53.33898244,-6.275810437,15620.2.60-77A-b12-1.52.I,13:03:07,13:03:07,60, Ringsend Road,20711.19,60-77A-b12-1,77A,b12
60,8220DB002383,"Patrick's Cathedral, stop 2383",53.33945807,-6.272652583,15620.2.60-77A-b12-1.52.I,13:04:36,13:04:36,61, Ringsend Road,21004.81,60-77A-b12-1,77A,b12
61,8220DB002002,"Lord Edward Street, stop 2002",53.34377081,-6.26944439,15620.2.60-77A-b12-1.52.I,13:08:05,13:08:05,62, Ringsend Road,21596.55,60-77A-b12-1,77A,b12
62,8220DB001358,"Dame Street, stop 1358",53.34430471,-6.262889389,15620.2.60-77A-b12-1.52.I,13:11:41,13:11:41,63, Ringsend Road,22037.74,60-77A-b12-1,77A,b12
63,8220DB000340,"Townsend Street, stop 340",53.34597512,-6.256017478,15620.2.60-77A-b12-1.52.I,13:16:21,13:16:21,64, Ringsend Road,22620.38,60-77A-b12-1,77A,b12
64,8220DB000350,"Prince's St South, stop 350",53.34563194,-6.24976825,15620.2.60-77A-b12-1.52.I,13:17:51,13:17:51,65, Ringsend Road,23036.91,60-77A-b12-1,77A,b12
65,8220DB000351,"Erne Street, stop 351",53.34341826,-6.245308174,15620.2.60-77A-b12-1.52.I,13:19:51,13:19:51,66, Ringsend Road,23461.44,60-77A-b12-1,77A,b12
66,8220DB000352,"Pearse Square, stop 352",53.34298915,-6.24241214,15620.2.60-77A-b12-1.52.I,13:20:46,13:20:46,67, Ringsend Road,23662.5,60-77A-b12-1,77A,b12
67,8220DB000353,"Grand Canal Quay, stop 353",53.34264501,-6.239798018,15620.2.60-77A-b12-1.52.I,13:21:36,13:21:36,68, Ringsend Road,23838.78,60-77A-b12-1,77A,b12
68,8220DB000354,"Ringsend Road, stop 354",53.34223583,-6.23643569,15620.2.60-77A-b12-1.52.I,13:22:08,13:22:08,69, Ringsend Road,24066.83,60-77A-b12-1,77A,b12
