Index,stop_id,stop_name,stop_lat,stop_lon,trip_id,arrival_time,departure_time,stop_sequence,stop_headsign,shape_dist_traveled,route_id,customer_route_name,project_subnet
66,8220DB000621,"Talbot Street, stop 621",53.35051778,-6.256267648,1183.1.60-130-b12-1.72.O,07:55:00,07:55:00,1, Castle Ave,0.0,60-130-b12-1,130,b12
67,8220DB000289,"Abbey St Lower, stop 289",53.34903518,-6.256298123,1183.1.60-130-b12-1.72.O,07:57:35,07:57:35,2, Castle Ave,384.17,60-130-b12-1,130,b12
68,8220DB000496,"Busáras, stop 496",53.34949688,-6.252223579,1183.1.60-130-b12-1.72.O,07:59:29,07:59:29,4, Castle Ave,664.82,60-130-b12-1,130,b12
69,8220DB000515,"Portland Row, stop 515",53.35353487,-6.248092401,1183.1.60-130-b12-1.72.O,08:01:43,08:01:43,6, Castle Ave,1223.39,60-130-b12-1,130,b12
70,8220DB000516,"North Strand Road, stop 516",53.35568392,-6.245705684,1183.1.60-130-b12-1.72.O,08:02:48,08:02:48,7, Castle Ave,1508.07,60-130-b12-1,130,b12
71,8220DB004384,"Bayview Avenue, stop 4384",53.35768013,-6.242709027,1183.1.60-130-b12-1.72.O,08:03:53,08:03:53,8, Castle Ave,1807.11,60-130-b12-1,130,b12
72,8220DB000519,"North Strand Fire Station, stop 519",53.36033876,-6.239534529,1183.1.60-130-b12-1.72.O,08:05:12,08:05:12,9, Castle Ave,2173.34,60-130-b12-1,130,b12
73,8220DB000521,"Annesley Bridge, stop 521",53.36163705,-6.237978461,1183.1.60-130-b12-1.72.O,08:05:59,08:05:59,10, Castle Ave,2349.86,60-130-b12-1,130,b12
74,8220DB000522,"Fairview, stop 522",53.36328895,-6.235415975,1183.1.60-130-b12-1.72.O,08:07:06,08:07:06,11, Castle Ave,2601.84,60-130-b12-1,130,b12
75,8220DB000523,"Marino College, stop 523",53.36428545,-6.231693332,1183.1.60-130-b12-1.72.O,08:08:15,08:08:15,13, Castle Ave,2891.49,60-130-b12-1,130,b12
76,8220DB001740,"Clontarf Road, stop 1740",53.36414162,-6.226845787,1183.1.60-130-b12-1.72.O,08:09:33,08:09:33,14, Castle Ave,3212.9,60-130-b12-1,130,b12
77,8220DB001741,"Alfie Byrne Road, stop 1741",53.3631169,-6.220802823,1183.1.60-130-b12-1.72.O,08:11:31,08:11:31,15, Castle Ave,3629.72,60-130-b12-1,130,b12
78,8220DB001742,"St Lawrence Road, stop 1742",53.36212579,-6.216426585,1183.1.60-130-b12-1.72.O,08:12:31,08:12:31,16, Castle Ave,3939.01,60-130-b12-1,130,b12
79,8220DB001743,"The Court, stop 1743",53.36113569,-6.213928667,1183.1.60-130-b12-1.72.O,08:13:08,08:13:08,17, Castle Ave,4138.46,60-130-b12-1,130,b12
80,8220DB001744,"Scoil Uí Chonaill, stop 1744",53.36034864,-6.208792977,1183.1.60-130-b12-1.72.O,08:13:52,08:13:52,18, Castle Ave,4496.65,60-130-b12-1,130,b12
81,8220DB001745,"Clontarf Baths, stop 1745",53.36034708,-6.205697885,1183.1.60-130-b12-1.72.O,08:14:18,08:14:18,19, Castle Ave,4705.51,60-130-b12-1,130,b12
82,8220DB001746,"Oultan Road, stop 1746",53.36025652,-6.202666638,1183.1.60-130-b12-1.72.O,08:14:42,08:14:42,20, Castle Ave,4904.65,60-130-b12-1,130,b12
83,8220DB001747,"John the Baptist Ch, stop 1747",53.35935099,-6.196860141,1183.1.60-130-b12-1.72.O,08:15:49,08:15:49,21, Castle Ave,5303.2,60-130-b12-1,130,b12
84,8220DB001748,"Fortview Avenue, stop 1748",53.35825702,-6.193465762,1183.1.60-130-b12-1.72.O,08:16:25,08:16:25,22, Castle Ave,5564.32,60-130-b12-1,130,b12
85,8220DB001749,"Clontarf Bus Garage, stop 1749",53.35859037,-6.19055194,1183.1.60-130-b12-1.72.O,08:16:52,08:16:52,23, Castle Ave,5766.57,60-130-b12-1,130,b12
86,8220DB001751,"Wooden Bridge, stop 1751",53.35986988,-6.185434327,1183.1.60-130-b12-1.72.O,08:17:28,08:17:28,24, Castle Ave,6137.01,60-130-b12-1,130,b12
87,8220DB001752,"Bull Island, stop 1752",53.36112759,-6.181849919,1183.1.60-130-b12-1.72.O,08:18:05,08:18:05,25, Castle Ave,6415.82,60-130-b12-1,130,b12
88,8220DB001753,"Dollymount Park, stop 1753",53.36272396,-6.178671573,1183.1.60-130-b12-1.72.O,08:18:42,08:18:42,26, Castle Ave,6694.85,60-130-b12-1,130,b12
89,8220DB001754,"Doyle's Lane, stop 1754",53.36411566,-6.176809034,1183.1.60-130-b12-1.72.O,08:19:08,08:19:08,27, Castle Ave,6893.42,60-130-b12-1,130,b12
90,8220DB001759,"The Oaks, stop 1759",53.36600022,-6.174264108,1183.1.60-130-b12-1.72.O,08:19:42,08:19:42,28, Castle Ave,7162.73,60-130-b12-1,130,b12
91,8220DB001758,"Mount Prospect Ave, stop 1758",53.36812968,-6.175390292,1183.1.60-130-b12-1.72.O,08:20:33,08:20:33,29, Castle Ave,7545.14,60-130-b12-1,130,b12
92,8220DB001750,"St Anne's Park, stop 1750",53.3688677,-6.177808329,1183.1.60-130-b12-1.72.O,08:20:56,08:20:56,30, Castle Ave,7725.81,60-130-b12-1,130,b12
93,8220DB001769,"Park Lawn, stop 1769",53.36888578,-6.181940286,1183.1.60-130-b12-1.72.O,08:21:45,08:21:45,31, Castle Ave,8100.06,60-130-b12-1,130,b12
94,8220DB001770,"Dollymount Avenue, stop 1770",53.36708347,-6.182813498,1183.1.60-130-b12-1.72.O,08:22:14,08:22:14,32, Castle Ave,8309.15,60-130-b12-1,130,b12
95,8220DB001771,"St Gabriel's Road, stop 1771",53.36604192,-6.18524714,1183.1.60-130-b12-1.72.O,08:22:48,08:22:48,33, Castle Ave,8551.98,60-130-b12-1,130,b12
96,8220DB001760,"Seapark Road, stop 1760",53.36597224,-6.187759622,1183.1.60-130-b12-1.72.O,08:23:18,08:23:18,34, Castle Ave,8768.79,60-130-b12-1,130,b12
97,8220DB001761,"Seafield Road Junc, stop 1761",53.3638374,-6.18804558,1183.1.60-130-b12-1.72.O,08:23:52,08:23:52,35, Castle Ave,9006.94,60-130-b12-1,130,b12
98,8220DB001762,"Seafield Road, stop 1762",53.36375119,-6.191249835,1183.1.60-130-b12-1.72.O,08:24:27,08:24:27,36, Castle Ave,9259.46,60-130-b12-1,130,b12
99,8220DB001763,"Vernon Avenue, stop 1763",53.36440678,-6.195369375,1183.1.60-130-b12-1.72.O,08:25:11,08:25:11,37, Castle Ave,9573.87,60-130-b12-1,130,b12
100,8220DB001764,"Blackheath Park, stop 1764",53.36589297,-6.19557704,1183.1.60-130-b12-1.72.O,08:25:39,08:25:39,38, Castle Ave,9769.96,60-130-b12-1,130,b12
101,8220DB001765,"Blackheath Grove, stop 1765",53.36655142,-6.202281414,1183.1.60-130-b12-1.72.O,08:26:43,08:26:43,39, Castle Ave,10221.15,60-130-b12-1,130,b12
102,8220DB001767,"Clontarf Castle, stop 1767",53.36382732,-6.205221053,1183.1.60-130-b12-1.72.O,08:27:50,08:27:50,40, Castle Ave,10702.35,60-130-b12-1,130,b12
