Index,stop_id,stop_name,stop_lat,stop_lon,trip_id,arrival_time,departure_time,stop_sequence,stop_headsign,shape_dist_traveled,route_id,customer_route_name,project_subnet
0,8220DB006004,"Parnell Street, stop 6004",53.35290764,-6.260511532,12701.3.60-40B-b12-1.222.O,06:55:00,06:55:00,1, Toberburr,0.0,60-40B-b12-1,40B,b12
1,8220DB000007,"Parnell Square West, stop 7",53.35284091,-6.264570261,12701.3.60-40B-b12-1.222.O,06:56:02,06:56:02,2, Toberburr,346.05,60-40B-b12-1,40B,b12
2,8220DB000011,"St Joseph's Parade, stop 11",53.35681523,-6.264679195,12701.3.60-40B-b12-1.222.O,06:57:39,06:57:39,3, Toberburr,895.05,60-40B-b12-1,40B,b12
3,8220DB000014,"Dorset Street Lower, stop 14",53.35853124,-6.262776506,12701.3.60-40B-b12-1.222.O,06:58:32,06:58:32,4, Toberburr,1123.12,60-40B-b12-1,40B,b12
4,8220DB000015,"Innisfallen Parade, stop 15",53.36026671,-6.260978043,12701.3.60-40B-b12-1.222.O,06:59:23,06:59:23,5, Toberburr,1352.39,60-40B-b12-1,40B,b12
5,8220DB000834,"Binns Bridge, stop 834",53.36197541,-6.260427638,12701.3.60-40B-b12-1.222.O,07:00:03,07:00:03,6, Toberburr,1608.34,60-40B-b12-1,40B,b12
6,8220DB000835,"St Brigid's Rd Lower, stop 835",53.36262802,-6.263270962,12701.3.60-40B-b12-1.222.O,07:00:34,07:00:34,7, Toberburr,1810.58,60-40B-b12-1,40B,b12
7,8220DB000836,"Claude Road, stop 836",53.3632915,-6.266249162,12701.3.60-40B-b12-1.222.O,07:01:08,07:01:08,8, Toberburr,2021.24,60-40B-b12-1,40B,b12
8,8220DB000837,"David Road, stop 837",53.36377841,-6.268212837,12701.3.60-40B-b12-1.222.O,07:01:25,07:01:25,9, Toberburr,2163.16,60-40B-b12-1,40B,b12
9,8220DB001506,"Finglas Road, stop 1506",53.36677782,-6.272373909,12701.3.60-40B-b12-1.222.O,07:02:28,07:02:28,10, Toberburr,2665.17,60-40B-b12-1,40B,b12
10,8220DB001507,"St Vincent's School, stop 1507",53.36839052,-6.274502692,12701.3.60-40B-b12-1.222.O,07:02:50,07:02:50,11, Toberburr,2904.32,60-40B-b12-1,40B,b12
11,8220DB001508,"Glasnevin Cemetery, stop 1508",53.3699109,-6.278333551,12701.3.60-40B-b12-1.222.O,07:03:18,07:03:18,12, Toberburr,3208.51,60-40B-b12-1,40B,b12
12,8220DB001509,"Slaney Road, stop 1509",53.37292583,-6.28422366,12701.3.60-40B-b12-1.222.O,07:04:05,07:04:05,13, Toberburr,3727.26,60-40B-b12-1,40B,b12
13,8220DB001510,"Ballyboggan Road, stop 1510",53.37690693,-6.287310237,12701.3.60-40B-b12-1.222.O,07:04:43,07:04:43,14, Toberburr,4220.47,60-40B-b12-1,40B,b12
14,8220DB001511,"Tolka Vale, stop 1511",53.37823452,-6.287752985,12701.3.60-40B-b12-1.222.O,07:04:59,07:04:59,15, Toberburr,4370.26,60-40B-b12-1,40B,b12
15,8220DB001512,"Prospect Hill, stop 1512",53.38217432,-6.291728835,12701.3.60-40B-b12-1.222.O,07:05:56,07:05:56,16, Toberburr,4901.11,60-40B-b12-1,40B,b12
16,8220DB001538,"Clearwater SC, stop 1538",53.38447414,-6.294793755,12701.3.60-40B-b12-1.222.O,07:06:45,07:06:45,17, Toberburr,5227.92,60-40B-b12-1,40B,b12
17,8220DB004548,"Finglas Place, stop 4548",53.38623592,-6.29606136,12701.3.60-40B-b12-1.222.O,07:07:21,07:07:21,18, Toberburr,5480.61,60-40B-b12-1,40B,b12
18,8220DB000980,"Finglas Sports Centre, stop 980",53.38980457,-6.303030463,12701.3.60-40B-b12-1.222.O,07:09:04,07:09:04,19, Toberburr,6159.65,60-40B-b12-1,40B,b12
19,8220DB000981,"Finglas Garda Stn, stop 981",53.38978091,-6.307060832,12701.3.60-40B-b12-1.222.O,07:09:42,07:09:42,20, Toberburr,6427.15,60-40B-b12-1,40B,b12
20,8220DB001518,"Kildonan Road, stop 1518",53.39060039,-6.311614124,12701.3.60-40B-b12-1.222.O,07:10:33,07:10:33,21, Toberburr,6787.04,60-40B-b12-1,40B,b12
21,8220DB001519,"Kildonan Park, stop 1519",53.39244487,-6.311751618,12701.3.60-40B-b12-1.222.O,07:11:03,07:11:03,22, Toberburr,6992.1,60-40B-b12-1,40B,b12
22,8220DB001520,"Barry Road, stop 1520",53.3939202,-6.311843587,12701.3.60-40B-b12-1.222.O,07:11:28,07:11:28,23, Toberburr,7173.36,60-40B-b12-1,40B,b12
23,8220DB007661,"Barry Avenue, stop 7661",53.39540738,-6.310867453,12701.3.60-40B-b12-1.222.O,07:11:53,07:11:53,24, Toberburr,7352.22,60-40B-b12-1,40B,b12
24,8220DB001521,"Plunkett Green, stop 1521",53.3972213,-6.310750494,12701.3.60-40B-b12-1.222.O,07:12:29,07:12:29,25, Toberburr,7605.48,60-40B-b12-1,40B,b12
25,8220DB004546,"Plunkett Avenue, stop 4546",53.39845281,-6.307588797,12701.3.60-40B-b12-1.222.O,07:13:07,07:13:07,26, Toberburr,7870.09,60-40B-b12-1,40B,b12
26,8220DB001559,"Plunkett Road, stop 1559",53.39734112,-6.306520115,12701.3.60-40B-b12-1.222.O,07:13:31,07:13:31,27, Toberburr,8040.33,60-40B-b12-1,40B,b12
27,8220DB001560,"St Margaret's Road, stop 1560",53.39700754,-6.304548381,12701.3.60-40B-b12-1.222.O,07:14:12,07:14:12,28, Toberburr,8335.46,60-40B-b12-1,40B,b12
28,8220DB001280,"McKelvey Avenue, stop 1280",53.40019629,-6.303143293,12701.3.60-40B-b12-1.222.O,07:15:06,07:15:06,29, Toberburr,8711.32,60-40B-b12-1,40B,b12
29,8240DB006348,"Charlestown SC, stop 6348",53.40350243,-6.302410113,12701.3.60-40B-b12-1.222.O,07:15:51,07:15:51,30, Toberburr,9082.35,60-40B-b12-1,40B,b12
30,8240DB001182,"Charlestown, stop 1182",53.40562047,-6.300926983,12701.3.60-40B-b12-1.222.O,07:16:22,07:16:22,31, Toberburr,9336.45,60-40B-b12-1,40B,b12
31,8240DB001550,"M50 Flyover, stop 1550",53.40755029,-6.300744777,12701.3.60-40B-b12-1.222.O,07:16:49,07:16:49,32, Toberburr,9590.61,60-40B-b12-1,40B,b12
32,8240DB001551,"Rockmount, stop 1551",53.40970015,-6.304660304,12701.3.60-40B-b12-1.222.O,07:17:17,07:17:17,33, Toberburr,9952.0,60-40B-b12-1,40B,b12
33,8240DB001552,"Logistics Park, stop 1552",53.41911712,-6.307023949,12701.3.60-40B-b12-1.222.O,07:19:00,07:19:00,34, Toberburr,11071.62,60-40B-b12-1,40B,b12
34,8240DB001553,"Newtown Cottages, stop 1553",53.42521313,-6.305276937,12701.3.60-40B-b12-1.222.O,07:20:05,07:20:05,35, Toberburr,11772.36,60-40B-b12-1,40B,b12
35,8240DB007023,"St Margaret's Church, stop 7023",53.43086831,-6.300973467,12701.3.60-40B-b12-1.222.O,07:21:20,07:21:20,36, Toberburr,12518.41,60-40B-b12-1,40B,b12
36,8240DB007014,"Kilreesk Lane, stop 7014",53.44075173,-6.29821575,12701.3.60-40B-b12-1.222.O,07:23:34,07:23:34,37, Toberburr,13846.7,60-40B-b12-1,40B,b12
37,8240DB004315,"Rivermeade FC, stop 4315",53.4526204,-6.291612837,12701.3.60-40B-b12-1.222.O,07:26:52,07:26:52,38, Toberburr,15812.58,60-40B-b12-1,40B,b12
38,8240DB004316,"Rivermeade Close, stop 4316",53.45331541,-6.288678809,12701.3.60-40B-b12-1.222.O,07:27:25,07:27:25,39, Toberburr,16089.38,60-40B-b12-1,40B,b12
