Index,stop_id,stop_name,stop_lat,stop_lon,trip_id,arrival_time,departure_time,stop_sequence,stop_headsign,shape_dist_traveled,route_id,customer_route_name,project_subnet
122,8250DB003222,"Loughlinstown Park, stop 3222",53.24660248,-6.128656806,1005.1.60-7A-b12-1.142.I,18:00:00,18:00:00,1, Parnell Square,0.0,60-7A-b12-1,7A,b12
123,8250DB003223,"Loughlinstown Drive, stop 3223",53.24915041,-6.132936556,1005.1.60-7A-b12-1.142.I,18:01:56,18:01:56,2, Parnell Square,660.82,60-7A-b12-1,7A,b12
124,8250DB003224,"Ashlawn, stop 3224",53.25194585,-6.132365195,1005.1.60-7A-b12-1.142.I,18:02:58,18:02:58,3, Parnell Square,1016.38,60-7A-b12-1,7A,b12
125,8250DB003225,"Ballybrack SC, stop 3225",53.25529487,-6.13385301,1005.1.60-7A-b12-1.142.I,18:04:39,18:04:39,4, Parnell Square,1555.08,60-7A-b12-1,7A,b12
126,8250DB003226,"Kilbogget Park, stop 3226",53.25854707,-6.137773558,1005.1.60-7A-b12-1.142.I,18:06:04,18:06:04,5, Parnell Square,2000.11,60-7A-b12-1,7A,b12
127,8250DB003227,"Auburn Drive, stop 3227",53.26195417,-6.137805394,1005.1.60-7A-b12-1.142.I,18:07:02,18:07:02,6, Parnell Square,2393.74,60-7A-b12-1,7A,b12
128,8250DB003228,"Church Road, stop 3228",53.26475425,-6.134655395,1005.1.60-7A-b12-1.142.I,18:07:59,18:07:59,7, Parnell Square,2780.35,60-7A-b12-1,7A,b12
129,8250DB003229,"Churchview Road, stop 3229",53.26535278,-6.134419453,1005.1.60-7A-b12-1.142.I,18:08:20,18:08:20,8, Parnell Square,2919.5,60-7A-b12-1,7A,b12
130,8250DB007472,"Killiney SC, stop 7472",53.26706808,-6.136623621,1005.1.60-7A-b12-1.142.I,18:08:57,18:08:57,9, Parnell Square,3165.92,60-7A-b12-1,7A,b12
131,8250DB003230,Drumkeen Manor,53.26850153,-6.139200039,1005.1.60-7A-b12-1.142.I,18:09:30,18:09:30,10, Parnell Square,3399.49,60-7A-b12-1,7A,b12
132,8250DB003232,"Pearse Villas, stop 3232",53.27160397,-6.140444733,1005.1.60-7A-b12-1.142.I,18:11:13,18:11:13,11, Parnell Square,3957.55,60-7A-b12-1,7A,b12
133,8250DB003233,"Pearse Street, stop 3233",53.27274148,-6.141340004,1005.1.60-7A-b12-1.142.I,18:11:48,18:11:48,12, Parnell Square,4149.75,60-7A-b12-1,7A,b12
134,8250DB003234,"Sallynoggin College, stop 3234",53.27360361,-6.139563206,1005.1.60-7A-b12-1.142.I,18:12:23,18:12:23,13, Parnell Square,4301.25,60-7A-b12-1,7A,b12
135,8250DB004462,"Sallynoggin, stop 4462",53.27516727,-6.137815818,1005.1.60-7A-b12-1.142.I,18:13:17,18:13:17,14, Parnell Square,4557.68,60-7A-b12-1,7A,b12
136,8250DB003235,"Pearse Park, stop 3235",53.27718071,-6.140697486,1005.1.60-7A-b12-1.142.I,18:14:30,18:14:30,15, Parnell Square,4886.07,60-7A-b12-1,7A,b12
137,8250DB003236,"Honey Park, stop 3236",53.2779835,-6.140302725,1005.1.60-7A-b12-1.142.I,18:14:57,18:14:57,16, Parnell Square,5011.79,60-7A-b12-1,7A,b12
138,8250DB003237,"Sarsfield Street, stop 3237",53.27914236,-6.137957911,1005.1.60-7A-b12-1.142.I,18:15:41,18:15:41,17, Parnell Square,5213.96,60-7A-b12-1,7A,b12
139,8250DB003238,"Holmston Avenue, stop 3238",53.28330973,-6.133727199,1005.1.60-7A-b12-1.142.I,18:17:11,18:17:11,18, Parnell Square,5779.52,60-7A-b12-1,7A,b12
140,8250DB003239,"Crosthwaite Park, stop 3239",53.2843865,-6.133035331,1005.1.60-7A-b12-1.142.I,18:17:30,18:17:30,19, Parnell Square,5907.22,60-7A-b12-1,7A,b12
141,8250DB003240,"Corrig Road, stop 3240",53.28717187,-6.131248929,1005.1.60-7A-b12-1.142.I,18:18:20,18:18:20,20, Parnell Square,6240.54,60-7A-b12-1,7A,b12
142,8250DB003068,"George's St Upper, stop 3068",53.28982949,-6.130487902,1005.1.60-7A-b12-1.142.I,18:19:59,18:19:59,21, Parnell Square,6589.3,60-7A-b12-1,7A,b12
143,8250DB003069,"Corrig Avenue, stop 3069",53.29075303,-6.132637683,1005.1.60-7A-b12-1.142.I,18:20:48,18:20:48,22, Parnell Square,6765.04,60-7A-b12-1,7A,b12
144,8250DB003070,"Dun Laoghaire SC, stop 3070",53.2921151,-6.135818534,1005.1.60-7A-b12-1.142.I,18:22:00,18:22:00,23, Parnell Square,7025.84,60-7A-b12-1,7A,b12
145,8250DB002041,"St Michael's Hosp, stop 2041",53.2935976,-6.139234377,1005.1.60-7A-b12-1.142.I,18:23:11,18:23:11,24, Parnell Square,7306.99,60-7A-b12-1,7A,b12
146,8250DB003071,"De Vesci Park, stop 3071",53.29498472,-6.145189969,1005.1.60-7A-b12-1.142.I,18:24:54,18:24:54,25, Parnell Square,7748.08,60-7A-b12-1,7A,b12
147,8250DB003072,"Grosvenor Terrace, stop 3072",53.29418522,-6.148690061,1005.1.60-7A-b12-1.142.I,18:25:40,18:25:40,26, Parnell Square,8005.33,60-7A-b12-1,7A,b12
148,8250DB003073,"Monkstown Road, stop 3073",53.29378259,-6.155188246,1005.1.60-7A-b12-1.142.I,18:26:56,18:26:56,27, Parnell Square,8445.93,60-7A-b12-1,7A,b12
149,8250DB003074,"Drayton Close, stop 3074",53.29449303,-6.159283182,1005.1.60-7A-b12-1.142.I,18:27:36,18:27:36,28, Parnell Square,8728.68,60-7A-b12-1,7A,b12
150,8250DB003075,"Queen's Park, stop 3075",53.29488038,-6.162251951,1005.1.60-7A-b12-1.142.I,18:28:04,18:28:04,29, Parnell Square,8930.45,60-7A-b12-1,7A,b12
151,8250DB003076,"Montpellier Parade, stop 3076",53.29543281,-6.166023823,1005.1.60-7A-b12-1.142.I,18:28:40,18:28:40,30, Parnell Square,9188.23,60-7A-b12-1,7A,b12
152,8250DB003077,"Montpellier Manor, stop 3077",53.29591972,-6.168463369,1005.1.60-7A-b12-1.142.I,18:29:46,18:29:46,31, Parnell Square,9358.94,60-7A-b12-1,7A,b12
153,8250DB003079,"Newtown Avenue, stop 3079",53.29830741,-6.170596685,1005.1.60-7A-b12-1.142.I,18:31:59,18:31:59,33, Parnell Square,9726.15,60-7A-b12-1,7A,b12
154,8250DB003080,"St John's Church, stop 3080",53.30036148,-6.174424933,1005.1.60-7A-b12-1.142.I,18:34:03,18:34:03,34, Parnell Square,10129.92,60-7A-b12-1,7A,b12
155,8250DB003081,"Patrick's Row, stop 3081",53.30061046,-6.177775234,1005.1.60-7A-b12-1.142.I,18:35:29,18:35:29,35, Parnell Square,10396.0,60-7A-b12-1,7A,b12
156,8250DB003084,"Frascati SC, stop 3084",53.30138125,-6.181163412,1005.1.60-7A-b12-1.142.I,18:36:57,18:36:57,36, Parnell Square,10723.11,60-7A-b12-1,7A,b12
157,8250DB000469,"Rock Road, stop 469",53.30284573,-6.184072133,1005.1.60-7A-b12-1.142.I,18:37:27,18:37:27,37, Parnell Square,11010.65,60-7A-b12-1,7A,b12
158,8250DB000470,"Blackrock Clinic, stop 470",53.30562585,-6.188981104,1005.1.60-7A-b12-1.142.I,18:38:18,18:38:18,38, Parnell Square,11462.69,60-7A-b12-1,7A,b12
159,8250DB000471,"Blackrock College, stop 471",53.30687081,-6.191059299,1005.1.60-7A-b12-1.142.I,18:38:40,18:38:40,39, Parnell Square,11664.02,60-7A-b12-1,7A,b12
160,8250DB000472,"Booterstown Station, stop 472",53.30788203,-6.194918267,1005.1.60-7A-b12-1.142.I,18:39:14,18:39:14,40, Parnell Square,11942.99,60-7A-b12-1,7A,b12
161,8250DB000473,"Grotto Avenue, stop 473",53.30924058,-6.197382139,1005.1.60-7A-b12-1.142.I,18:39:52,18:39:52,41, Parnell Square,12166.06,60-7A-b12-1,7A,b12
162,8250DB004705,"St Helen's Road, stop 4705",53.31081827,-6.200077066,1005.1.60-7A-b12-1.142.I,18:40:31,18:40:31,42, Parnell Square,12416.7,60-7A-b12-1,7A,b12
163,8250DB000475,"Bellevue Avenue, stop 475",53.31270616,-6.201888675,1005.1.60-7A-b12-1.142.I,18:41:07,18:41:07,43, Parnell Square,12655.79,60-7A-b12-1,7A,b12
164,8220DB000476,"Merrion Gates, stop 476",53.31575153,-6.204762523,1005.1.60-7A-b12-1.142.I,18:42:08,18:42:08,44, Parnell Square,13052.25,60-7A-b12-1,7A,b12
165,8220DB000477,"Herbert Avenue, stop 477",53.31686305,-6.20695232,1005.1.60-7A-b12-1.142.I,18:42:47,18:42:47,45, Parnell Square,13248.05,60-7A-b12-1,7A,b12
166,8220DB000478,"St Vincent's Hosp, stop 478",53.3181143,-6.211267825,1005.1.60-7A-b12-1.142.I,18:43:51,18:43:51,46, Parnell Square,13566.7,60-7A-b12-1,7A,b12
167,8220DB000479,"Merrion Centre, stop 479",53.31914397,-6.213401287,1005.1.60-7A-b12-1.142.I,18:44:20,18:44:20,47, Parnell Square,13748.5,60-7A-b12-1,7A,b12
168,8220DB000480,"Netherlands Embassy, stop 480",53.32084998,-6.216287205,1005.1.60-7A-b12-1.142.I,18:45:03,18:45:03,48, Parnell Square,14017.58,60-7A-b12-1,7A,b12
169,8220DB000481,"Wanderers FC, stop 481",53.32234464,-6.218266443,1005.1.60-7A-b12-1.142.I,18:45:37,18:45:37,49, Parnell Square,14229.29,60-7A-b12-1,7A,b12
170,8220DB000482,"Shrewsbury Road, stop 482",53.32472778,-6.221965295,1005.1.60-7A-b12-1.142.I,18:46:35,18:46:35,50, Parnell Square,14591.2,60-7A-b12-1,7A,b12
171,8220DB000483,"British Embassy, stop 483",53.32594411,-6.223971481,1005.1.60-7A-b12-1.142.I,18:47:32,18:47:32,51, Parnell Square,14780.0,60-7A-b12-1,7A,b12
172,8220DB000485,"RDS Ballsbridge, stop 485",53.32825151,-6.228634971,1005.1.60-7A-b12-1.142.I,18:49:39,18:49:39,52, Parnell Square,15201.7,60-7A-b12-1,7A,b12
173,8220DB000487,"American Embassy, stop 487",53.33085529,-6.233902308,1005.1.60-7A-b12-1.142.I,18:51:26,18:51:26,53, Parnell Square,15664.68,60-7A-b12-1,7A,b12
174,8220DB000488,"Lansdowne Park, stop 488",53.33309855,-6.236076947,1005.1.60-7A-b12-1.142.I,18:52:30,18:52:30,54, Parnell Square,15953.65,60-7A-b12-1,7A,b12
175,8220DB000489,"St Mary's Rd South, stop 489",53.334942,-6.237352313,1005.1.60-7A-b12-1.142.I,18:53:26,18:53:26,55, Parnell Square,16174.12,60-7A-b12-1,7A,b12
176,8220DB000490,"Haddington Road, stop 490",53.33657384,-6.238906806,1005.1.60-7A-b12-1.142.I,18:54:20,18:54:20,56, Parnell Square,16388.13,60-7A-b12-1,7A,b12
177,8220DB000491,"Mount Street Bridge, stop 491",53.33781405,-6.241333511,1005.1.60-7A-b12-1.142.I,18:55:14,18:55:14,57, Parnell Square,16604.59,60-7A-b12-1,7A,b12
178,8220DB000492,"Mount Street Lower, stop 492",53.33858469,-6.243614462,1005.1.60-7A-b12-1.142.I,18:55:58,18:55:58,58, Parnell Square,16779.07,60-7A-b12-1,7A,b12
179,8220DB000493,"Holles Street, stop 493",53.33985342,-6.247376823,1005.1.60-7A-b12-1.142.I,18:57:10,18:57:10,59, Parnell Square,17066.23,60-7A-b12-1,7A,b12
180,8220DB000494,"Clare Street, stop 494",53.34143558,-6.251682252,1005.1.60-7A-b12-1.142.I,18:58:50,18:58:50,60, Parnell Square,17401.57,60-7A-b12-1,7A,b12
181,8220DB000495,"Pearse Station, stop 495",53.34359132,-6.249746705,1005.1.60-7A-b12-1.142.I,19:00:56,19:00:56,61, Parnell Square,17805.62,60-7A-b12-1,7A,b12
182,8220DB000400,"Shaw Street, stop 400",53.34484912,-6.253389973,1005.1.60-7A-b12-1.142.I,19:02:41,19:02:41,62, Parnell Square,18139.79,60-7A-b12-1,7A,b12
183,8220DB000281,"O'Connell St Upper, stop 281",53.35134353,-6.261116008,1005.1.60-7A-b12-1.142.I,19:08:22,19:08:22,63, Parnell Square,19295.13,60-7A-b12-1,7A,b12
184,8220DB000004,"Parnell Square West, stop 4",53.35257451,-6.264175486,1005.1.60-7A-b12-1.142.I,19:10:49,19:10:49,64, Parnell Square,19642.0,60-7A-b12-1,7A,b12
