Index,stop_id,stop_name,stop_lat,stop_lon,trip_id,arrival_time,departure_time,stop_sequence,stop_headsign,shape_dist_traveled,route_id,customer_route_name,project_subnet
90,8250DB002039,"Dun Laoghaire Stn, stop 2039",53.29488717,-6.134902687,15760.2.60-46A-b12-1.263.I,08:30:00,08:30:00,1, Phoenix Pk,0.0,60-46A-b12-1,46A,b12
91,8250DB002040,"Dun Laoghaire SC, stop 2040",53.29279119,-6.135369049,15760.2.60-46A-b12-1.263.I,08:31:02,08:31:02,2, Phoenix Pk,298.45,60-46A-b12-1,46A,b12
92,8250DB002041,"St Michael's Hosp, stop 2041",53.2935976,-6.139234377,15760.2.60-46A-b12-1.263.I,08:32:09,08:32:09,3, Phoenix Pk,633.1,60-46A-b12-1,46A,b12
93,8250DB002042,"Smith's Villas, stop 2042",53.29365113,-6.142667454,15760.2.60-46A-b12-1.263.I,08:33:30,08:33:30,4, Phoenix Pk,1045.31,60-46A-b12-1,46A,b12
94,8250DB002043,"Vesey Place, stop 2043",53.29247352,-6.142658545,15760.2.60-46A-b12-1.263.I,08:33:43,08:33:43,5, Phoenix Pk,1176.21,60-46A-b12-1,46A,b12
95,8250DB002044,"Knapton Court, stop 2044",53.29087235,-6.143733068,15760.2.60-46A-b12-1.263.I,08:34:03,08:34:03,6, Phoenix Pk,1366.83,60-46A-b12-1,46A,b12
96,8250DB002045,"Tivoli Terrace Sth, stop 2045",53.28907705,-6.145040923,15760.2.60-46A-b12-1.263.I,08:34:27,08:34:27,7, Phoenix Pk,1585.7,60-46A-b12-1,46A,b12
97,8250DB002046,"Mounttown Rd Lower, stop 2046",53.28586932,-6.145689862,15760.2.60-46A-b12-1.263.I,08:35:29,08:35:29,8, Phoenix Pk,1953.61,60-46A-b12-1,46A,b12
98,8250DB004568,"Kill Avenue, stop 4568",53.28278404,-6.147278267,15760.2.60-46A-b12-1.263.I,08:37:03,08:37:03,9, Phoenix Pk,2328.04,60-46A-b12-1,46A,b12
99,8250DB004569,"IADT Dun Laoghaire, stop 4569",53.2816227,-6.152952584,15760.2.60-46A-b12-1.263.I,08:37:41,08:37:41,10, Phoenix Pk,2724.0,60-46A-b12-1,46A,b12
100,8250DB004570,"Holy Family Church, stop 4570",53.28080047,-6.157322245,15760.2.60-46A-b12-1.263.I,08:38:30,08:38:30,12, Phoenix Pk,3030.08,60-46A-b12-1,46A,b12
101,8250DB002056,"Kill Lane, stop 2056",53.27947093,-6.162028443,15760.2.60-46A-b12-1.263.I,08:39:51,08:39:51,13, Phoenix Pk,3398.12,60-46A-b12-1,46A,b12
102,8250DB002057,"Deansgrange Village, stop 2057",53.27776207,-6.164876063,15760.2.60-46A-b12-1.263.I,08:40:50,08:40:50,14, Phoenix Pk,3665.51,60-46A-b12-1,46A,b12
103,8250DB002058,"Foxrock Avenue, stop 2058",53.27659623,-6.167385313,15760.2.60-46A-b12-1.263.I,08:41:19,08:41:19,15, Phoenix Pk,3876.86,60-46A-b12-1,46A,b12
104,8250DB002059,"Foxrock Park, stop 2059",53.27517397,-6.170760108,15760.2.60-46A-b12-1.263.I,08:41:59,08:41:59,16, Phoenix Pk,4155.21,60-46A-b12-1,46A,b12
105,8250DB002060,"Foxrock Church, stop 2060",53.27395494,-6.175085679,15760.2.60-46A-b12-1.263.I,08:42:54,08:42:54,17, Phoenix Pk,4532.25,60-46A-b12-1,46A,b12
106,8250DB002061,"Knocksinna, stop 2061",53.2757586,-6.18018225,15760.2.60-46A-b12-1.263.I,08:43:36,08:43:36,18, Phoenix Pk,4927.35,60-46A-b12-1,46A,b12
107,8250DB002062,"Newtownpark Avenue, stop 2062",53.27902411,-6.186851925,15760.2.60-46A-b12-1.263.I,08:44:40,08:44:40,19, Phoenix Pk,5504.78,60-46A-b12-1,46A,b12
108,8250DB002063,"Galloping Green, stop 2063",53.28029401,-6.189977519,15760.2.60-46A-b12-1.263.I,08:45:15,08:45:15,20, Phoenix Pk,5755.81,60-46A-b12-1,46A,b12
109,8250DB002064,"Brewery Road, stop 2064",53.28272564,-6.193849161,15760.2.60-46A-b12-1.263.I,08:46:07,08:46:07,21, Phoenix Pk,6134.1,60-46A-b12-1,46A,b12
110,8250DB002065,"Merville Road, stop 2065",53.28479921,-6.19485659,15760.2.60-46A-b12-1.263.I,08:46:37,08:46:37,22, Phoenix Pk,6373.01,60-46A-b12-1,46A,b12
111,8250DB004727,"Laurence Park, stop 4727",53.29081171,-6.19778321,15760.2.60-46A-b12-1.263.I,08:48:29,08:48:29,23, Phoenix Pk,7112.74,60-46A-b12-1,46A,b12
112,8250DB004728,"Oatlands College, stop 4728",53.29333789,-6.201982289,15760.2.60-46A-b12-1.263.I,08:49:29,08:49:29,24, Phoenix Pk,7508.75,60-46A-b12-1,46A,b12
113,8250DB000461,"Stillorgan Pk Hotel, stop 461",53.2947995,-6.203541111,15760.2.60-46A-b12-1.263.I,08:49:58,08:49:58,25, Phoenix Pk,7698.75,60-46A-b12-1,46A,b12
114,8250DB002068,"Greenfield Road, stop 2068",53.29809576,-6.204573003,15760.2.60-46A-b12-1.263.I,08:50:50,08:50:50,26, Phoenix Pk,8071.19,60-46A-b12-1,46A,b12
115,8250DB002069,"Booterstown Avenue, stop 2069",53.29977469,-6.205642853,15760.2.60-46A-b12-1.263.I,08:51:21,08:51:21,27, Phoenix Pk,8271.17,60-46A-b12-1,46A,b12
116,8250DB002070,"St Thomas Road, stop 2070",53.30306607,-6.208145702,15760.2.60-46A-b12-1.263.I,08:52:36,08:52:36,28, Phoenix Pk,8680.31,60-46A-b12-1,46A,b12
117,8250DB002084,"Seafield Road, stop 2084",53.30552676,-6.21159902,15760.2.60-46A-b12-1.263.I,08:53:18,08:53:18,29, Phoenix Pk,9037.24,60-46A-b12-1,46A,b12
118,8250DB000768,"UCD Belfield, stop 768",53.30941819,-6.21877483,15760.2.60-46A-b12-1.263.I,08:54:37,08:54:37,30, Phoenix Pk,9686.0,60-46A-b12-1,46A,b12
119,8220DB000769,"Belfield Court, stop 769",53.31190109,-6.221327857,15760.2.60-46A-b12-1.263.I,08:55:00,08:55:00,31, Phoenix Pk,10013.56,60-46A-b12-1,46A,b12
120,8220DB000770,"RTE, stop 770",53.31463619,-6.225731811,15760.2.60-46A-b12-1.263.I,08:55:49,08:55:49,32, Phoenix Pk,10456.58,60-46A-b12-1,46A,b12
121,8220DB000771,"Teresian School, stop 771",53.31588007,-6.227781522,15760.2.60-46A-b12-1.263.I,08:56:09,08:56:09,33, Phoenix Pk,10647.38,60-46A-b12-1,46A,b12
122,8220DB000772,"Donnybrook Garage, stop 772",53.31848526,-6.231321064,15760.2.60-46A-b12-1.263.I,08:56:50,08:56:50,34, Phoenix Pk,11020.94,60-46A-b12-1,46A,b12
123,8220DB000773,"Donnybrook Road, stop 773",53.31991635,-6.233273319,15760.2.60-46A-b12-1.263.I,08:57:22,08:57:22,35, Phoenix Pk,11224.26,60-46A-b12-1,46A,b12
124,8220DB000774,"Donnybrook Garda Stn, stop 774",53.32161212,-6.235499996,15760.2.60-46A-b12-1.263.I,08:58:01,08:58:01,36, Phoenix Pk,11466.14,60-46A-b12-1,46A,b12
125,8220DB000775,"Donnybrook Village, stop 775",53.32348971,-6.239085447,15760.2.60-46A-b12-1.263.I,08:58:53,08:58:53,37, Phoenix Pk,11789.99,60-46A-b12-1,46A,b12
126,8220DB000776,"Morehampton Terrace, stop 776",53.32547924,-6.241735821,15760.2.60-46A-b12-1.263.I,08:59:47,08:59:47,38, Phoenix Pk,12072.87,60-46A-b12-1,46A,b12
127,8220DB000777,"Royal Hospital, stop 777",53.32697216,-6.243626144,15760.2.60-46A-b12-1.263.I,09:00:21,09:00:21,39, Phoenix Pk,12281.2,60-46A-b12-1,46A,b12
128,8220DB000906,"Leeson St Upper, stop 906",53.32881077,-6.247634377,15760.2.60-46A-b12-1.263.I,09:01:18,09:01:18,40, Phoenix Pk,12621.92,60-46A-b12-1,46A,b12
129,8220DB000907,"Dartmouth Road, stop 907",53.32971936,-6.250750109,15760.2.60-46A-b12-1.263.I,09:02:05,09:02:05,41, Phoenix Pk,12855.21,60-46A-b12-1,46A,b12
130,8220DB000908,"Grand Parade, stop 908",53.33115429,-6.252373034,15760.2.60-46A-b12-1.263.I,09:02:44,09:02:44,42, Phoenix Pk,13049.09,60-46A-b12-1,46A,b12
131,8220DB000909,"Fitzwilliam Place, stop 909",53.33314766,-6.254078364,15760.2.60-46A-b12-1.263.I,09:03:35,09:03:35,43, Phoenix Pk,13302.52,60-46A-b12-1,46A,b12
132,8220DB000786,"Embassy of Malta, stop 786",53.33518155,-6.256097534,15760.2.60-46A-b12-1.263.I,09:04:29,09:04:29,44, Phoenix Pk,13563.76,60-46A-b12-1,46A,b12
133,8220DB000792,"Dawson Street, stop 792",53.34044899,-6.258585808,15760.2.60-46A-b12-1.263.I,09:07:06,09:07:06,45, Phoenix Pk,14321.11,60-46A-b12-1,46A,b12
134,8220DB000320,"Westmoreland Street, stop 320",53.34564563,-6.259305233,15760.2.60-46A-b12-1.263.I,09:10:11,09:10:11,47, Phoenix Pk,14981.31,60-46A-b12-1,46A,b12
135,8220DB000278,"O'Connell St Upper, stop 278",53.35156087,-6.261227336,15760.2.60-46A-b12-1.263.I,09:13:23,09:13:23,49, Phoenix Pk,15658.34,60-46A-b12-1,46A,b12
136,8220DB000002,"Parnell Square West, stop 2",53.35224436,-6.263723219,15760.2.60-46A-b12-1.263.I,09:14:40,09:14:40,50, Phoenix Pk,15934.48,60-46A-b12-1,46A,b12
137,8220DB000192,"Mountjoy Street, stop 192",53.35639721,-6.26807647,15760.2.60-46A-b12-1.263.I,09:17:38,09:17:38,51, Phoenix Pk,16545.67,60-46A-b12-1,46A,b12
138,8220DB000795,"Berkeley Road, stop 795",53.35874004,-6.269724278,15760.2.60-46A-b12-1.263.I,09:18:08,09:18:08,52, Phoenix Pk,16837.32,60-46A-b12-1,46A,b12
139,8220DB000796,"Berkeley Road, stop 796",53.36001821,-6.269852786,15760.2.60-46A-b12-1.263.I,09:18:41,09:18:41,53, Phoenix Pk,16977.2,60-46A-b12-1,46A,b12
140,8220DB000797,"Phibsborough PO, stop 797",53.360726,-6.274662165,15760.2.60-46A-b12-1.263.I,09:20:22,09:20:22,54, Phoenix Pk,17375.99,60-46A-b12-1,46A,b12
141,8220DB000798,"Rathdown Road, stop 798",53.35947664,-6.279640701,15760.2.60-46A-b12-1.263.I,09:21:01,09:21:01,55, Phoenix Pk,17739.26,60-46A-b12-1,46A,b12
142,8220DB000799,"Charleville Road, stop 799",53.35886871,-6.281738551,15760.2.60-46A-b12-1.263.I,09:21:18,09:21:18,56, Phoenix Pk,17893.57,60-46A-b12-1,46A,b12
143,8220DB000800,"Annamore Parade, stop 800",53.35806515,-6.284610429,15760.2.60-46A-b12-1.263.I,09:21:56,09:21:56,57, Phoenix Pk,18104.57,60-46A-b12-1,46A,b12
144,8220DB000801,"Annamore Road, stop 801",53.3574705,-6.287639082,15760.2.60-46A-b12-1.263.I,09:22:38,09:22:38,58, Phoenix Pk,18315.77,60-46A-b12-1,46A,b12
145,8220DB000802,"Drumalee, stop 802",53.35649832,-6.291298723,15760.2.60-46A-b12-1.263.I,09:23:08,09:23:08,59, Phoenix Pk,18588.69,60-46A-b12-1,46A,b12
146,8220DB000803,"Oxmantown Road, stop 803",53.35471303,-6.294044214,15760.2.60-46A-b12-1.263.I,09:23:38,09:23:38,60, Phoenix Pk,18856.81,60-46A-b12-1,46A,b12
147,8220DB000804,"Grange Abbey Cresc, stop 804",53.35368499,-6.295692681,15760.2.60-46A-b12-1.263.I,09:23:56,09:23:56,61, Phoenix Pk,19016.39,60-46A-b12-1,46A,b12
148,8220DB007877,"Infirmary Road, stop 7877",53.35164334,-6.297486621,15760.2.60-46A-b12-1.263.I,09:24:31,09:24:31,62, Phoenix Pk,19315.81,60-46A-b12-1,46A,b12
149,8220DB007513,"Phoenix Park, stop 7513",53.35089646,-6.296795356,15760.2.60-46A-b12-1.263.I,09:24:42,09:24:42,63, Phoenix Pk,19409.83,60-46A-b12-1,46A,b12
150,8220DB000807,"Phoenix Park, stop 807",53.35155651,-6.297700386,15760.2.60-46A-b12-1.263.I,09:26:59,09:26:59,66, Phoenix Pk,20609.34,60-46A-b12-1,46A,b12
