Index,stop_id,stop_name,stop_lat,stop_lon,trip_id,arrival_time,departure_time,stop_sequence,stop_headsign,shape_dist_traveled,route_id,customer_route_name,project_subnet
31344,8220DB000807,"Phoenix Park, stop 807",53.35155651,-6.297700386,2146.1.60-46A-b12-1.265.O,05:15:00,05:15:00,1, UCD,0.0,60-46A-b12-1,46A,b12
31345,8220DB000808,"North Circular Road, stop 808",53.35399467,-6.295349826,2146.1.60-46A-b12-1.265.O,05:15:56,05:15:56,2, UCD,341.73,60-46A-b12-1,46A,b12
31346,8220DB000809,"Marlborough Road, stop 809",53.35526074,-6.293376346,2146.1.60-46A-b12-1.265.O,05:16:27,05:16:27,3, UCD,533.81,60-46A-b12-1,46A,b12
31347,8220DB000810,"Ellesmere Avenue, stop 810",53.35709986,-6.289997641,2146.1.60-46A-b12-1.265.O,05:17:17,05:17:17,4, UCD,839.36,60-46A-b12-1,46A,b12
31348,8220DB000811,"Annamore Road, stop 811",53.35756716,-6.287484968,2146.1.60-46A-b12-1.265.O,05:17:45,05:17:45,5, UCD,1013.84,60-46A-b12-1,46A,b12
31349,8220DB000812,"Annamore Parade, stop 812",53.35826636,-6.284226744,2146.1.60-46A-b12-1.265.O,05:18:18,05:18:18,6, UCD,1244.98,60-46A-b12-1,46A,b12
31350,8220DB000813,"Charleville Road, stop 813",53.35919005,-6.280959374,2146.1.60-46A-b12-1.265.O,05:18:53,05:18:53,7, UCD,1484.03,60-46A-b12-1,46A,b12
31351,8220DB000814,"St Peter's Church, stop 814",53.36054002,-6.276097049,2146.1.60-46A-b12-1.265.O,05:19:50,05:19:50,8, UCD,1840.83,60-46A-b12-1,46A,b12
31352,8220DB000081,"Phibsborough, stop 81",53.36087575,-6.271966627,2146.1.60-46A-b12-1.265.O,05:21:12,05:21:12,9, UCD,2118.5,60-46A-b12-1,46A,b12
31353,8220DB000817,"Mater Hospital, stop 817",53.35964622,-6.269612438,2146.1.60-46A-b12-1.265.O,05:22:28,05:22:28,10, UCD,2378.85,60-46A-b12-1,46A,b12
31354,8220DB000818,"O'Connell Avenue, stop 818",53.35848112,-6.269223945,2146.1.60-46A-b12-1.265.O,05:23:09,05:23:09,11, UCD,2521.13,60-46A-b12-1,46A,b12
31355,8220DB000819,"Blessington Street, stop 819",53.35630402,-6.265991986,2146.1.60-46A-b12-1.265.O,05:24:31,05:24:31,12, UCD,2872.19,60-46A-b12-1,46A,b12
31356,8220DB000264,"Parnell Square East, stop 264",53.3535353,-6.262258627,2146.1.60-46A-b12-1.265.O,05:26:12,05:26:12,13, UCD,3390.78,60-46A-b12-1,46A,b12
31357,8220DB006059,"The Spire of Dublin, stop 6059",53.35022443,-6.260185175,2146.1.60-46A-b12-1.265.O,05:27:51,05:27:51,14, UCD,3786.3,60-46A-b12-1,46A,b12
31358,8220DB000334,"D'Olier Street, stop 334",53.34658116,-6.258125591,2146.1.60-46A-b12-1.265.O,05:29:18,05:29:18,15, UCD,4221.46,60-46A-b12-1,46A,b12
31359,8220DB000406,"Nassau Street, stop 406",53.34260615,-6.256124946,2146.1.60-46A-b12-1.265.O,05:31:34,05:31:34,16, UCD,4893.58,60-46A-b12-1,46A,b12
31360,8220DB000747,"Kildare Street, stop 747",53.3399308,-6.255723519,2146.1.60-46A-b12-1.265.O,05:32:49,05:32:49,17, UCD,5268.59,60-46A-b12-1,46A,b12
31361,8220DB000842,"Stephen's Green East, stop 842",53.33725198,-6.256313389,2146.1.60-46A-b12-1.265.O,05:33:49,05:33:49,18, UCD,5624.08,60-46A-b12-1,46A,b12
31362,8220DB000845,"Leeson St Lower, stop 845",53.33545345,-6.256251618,2146.1.60-46A-b12-1.265.O,05:34:29,05:34:29,19, UCD,5861.95,60-46A-b12-1,46A,b12
31363,8220DB000846,"Fitzwilliam Place, stop 846",53.33345373,-6.254110908,2146.1.60-46A-b12-1.265.O,05:35:34,05:35:34,20, UCD,6124.85,60-46A-b12-1,46A,b12
31364,8220DB000847,"Leeson St Upper, stop 847",53.33160145,-6.25221962,2146.1.60-46A-b12-1.265.O,05:36:33,05:36:33,21, UCD,6365.11,60-46A-b12-1,46A,b12
31365,8220DB000848,"Sussex Road, stop 848",53.32972799,-6.248887998,2146.1.60-46A-b12-1.265.O,05:37:30,05:37:30,22, UCD,6687.26,60-46A-b12-1,46A,b12
31366,8220DB002795,"Leeson Village, stop 2795",53.32852998,-6.246264621,2146.1.60-46A-b12-1.265.O,05:38:13,05:38:13,23, UCD,6908.7,60-46A-b12-1,46A,b12
31367,8220DB000756,"Royal Hospital, stop 756",53.32639976,-6.242598747,2146.1.60-46A-b12-1.265.O,05:39:11,05:39:11,24, UCD,7249.6,60-46A-b12-1,46A,b12
31368,8220DB000757,"Donnybrook Village, stop 757",53.32408134,-6.23958651,2146.1.60-46A-b12-1.265.O,05:40:07,05:40:07,25, UCD,7576.04,60-46A-b12-1,46A,b12
31369,8220DB000758,"Victoria Avenue, stop 758",53.32268694,-6.23767738,2146.1.60-46A-b12-1.265.O,05:40:27,05:40:27,26, UCD,7776.11,60-46A-b12-1,46A,b12
31370,8220DB000759,"Donnybrook Stadium, stop 759",53.32034885,-6.233345517,2146.1.60-46A-b12-1.265.O,05:41:18,05:41:18,27, UCD,8172.56,60-46A-b12-1,46A,b12
31371,8220DB000760,"Donnybrook Church, stop 760",53.31833019,-6.230561956,2146.1.60-46A-b12-1.265.O,05:41:55,05:41:55,28, UCD,8464.81,60-46A-b12-1,46A,b12
31372,8220DB000761,"Teresian School, stop 761",53.3161004,-6.227487214,2146.1.60-46A-b12-1.265.O,05:42:33,05:42:33,29, UCD,8786.04,60-46A-b12-1,46A,b12
31373,8220DB000762,"RTE, stop 762",53.31451706,-6.224370944,2146.1.60-46A-b12-1.265.O,05:43:06,05:43:06,30, UCD,9065.35,60-46A-b12-1,46A,b12
31374,8220DB000763,"Belfield Court, stop 763",53.31232014,-6.221100319,2146.1.60-46A-b12-1.265.O,05:44:17,05:44:17,31, UCD,9393.05,60-46A-b12-1,46A,b12
31375,8250DB000767,"UCD, stop 767",53.30529725,-6.216680531,2146.1.60-46A-b12-1.265.O,05:46:17,05:46:17,32, UCD,10530.0,60-46A-b12-1,46A,b12
