Index,stop_id,stop_name,stop_lat,stop_lon,trip_id,arrival_time,departure_time,stop_sequence,stop_headsign,shape_dist_traveled,route_id,customer_route_name,project_subnet
384,8240DB003605,"Wendell Avenue, stop 3605",53.43396806,-6.124918713,5556.1.60-142-b12-1.78.O,07:35:00,07:35:00,1, UCD,0.0,60-142-b12-1,142,b12
385,8240DB003606,"Kelvin Close, stop 3606",53.43492919,-6.130039071,5556.1.60-142-b12-1.78.O,07:35:48,07:35:48,2, UCD,377.97,60-142-b12-1,142,b12
386,8240DB003607,"Redfern Avenue, stop 3607",53.43490103,-6.136286688,5556.1.60-142-b12-1.78.O,07:36:34,07:36:34,3, UCD,832.5,60-142-b12-1,142,b12
387,8240DB006051,"PSLC, stop 6051",53.43475688,-6.137993811,5556.1.60-142-b12-1.78.O,07:36:38,07:36:38,4, UCD,946.04,60-142-b12-1,142,b12
388,8240DB006053,"Malahide Golf Club, stop 6053",53.43411912,-6.143214369,5556.1.60-142-b12-1.78.O,07:36:52,07:36:52,5, UCD,1300.39,60-142-b12-1,142,b12
389,8240DB007327,"Blackwood Lane, stop 7327",53.43400824,-6.150549122,5556.1.60-142-b12-1.78.O,07:37:11,07:37:11,6, UCD,1787.96,60-142-b12-1,142,b12
390,8240DB003629,"The Hill Malahide, stop 3629",53.43551469,-6.153223103,5556.1.60-142-b12-1.78.O,07:37:23,07:37:23,7, UCD,2110.24,60-142-b12-1,142,b12
391,8240DB003630,"Community School, stop 3630",53.4384604,-6.151906175,5556.1.60-142-b12-1.78.O,07:38:10,07:38:10,8, UCD,2453.17,60-142-b12-1,142,b12
392,8240DB003631,"Seamount Road, stop 3631",53.44196612,-6.151347539,5556.1.60-142-b12-1.78.O,07:39:04,07:39:04,9, UCD,2844.96,60-142-b12-1,142,b12
393,8240DB003632,"Hill Drive, stop 3632",53.44441982,-6.152505591,5556.1.60-142-b12-1.78.O,07:39:44,07:39:44,10, UCD,3134.19,60-142-b12-1,142,b12
394,8240DB003633,"Church Street, stop 3633",53.44839489,-6.153236429,5556.1.60-142-b12-1.78.O,07:40:44,07:40:44,11, UCD,3579.49,60-142-b12-1,142,b12
395,8240DB003634,"Malahide Station, stop 3634",53.45045531,-6.155119488,5556.1.60-142-b12-1.78.O,07:41:55,07:41:55,12, UCD,3943.06,60-142-b12-1,142,b12
396,8240DB003635,"Cricket Club, stop 3635",53.44963995,-6.160530062,5556.1.60-142-b12-1.78.O,07:43:07,07:43:07,13, UCD,4313.34,60-142-b12-1,142,b12
397,8240DB003636,"St Sylvesters School, stop 3636",53.44942245,-6.162165573,5556.1.60-142-b12-1.78.O,07:43:17,07:43:17,14, UCD,4422.48,60-142-b12-1,142,b12
398,8240DB000905,"Yellow Walls Road, stop 905",53.45156174,-6.170369781,5556.1.60-142-b12-1.78.O,07:45:14,07:45:14,15, UCD,5041.46,60-142-b12-1,142,b12
399,8240DB004331,"Seabury Road, stop 4331",53.45539992,-6.179209839,5556.1.60-142-b12-1.78.O,07:47:39,07:47:39,16, UCD,5791.38,60-142-b12-1,142,b12
400,8240DB004339,"Estuary Road, stop 4339",53.45268719,-6.183451712,5556.1.60-142-b12-1.78.O,07:49:14,07:49:14,17, UCD,6287.32,60-142-b12-1,142,b12
401,8240DB007692,"Chamley Park, stop 7692",53.45080989,-6.18767252,5556.1.60-142-b12-1.78.O,07:50:42,07:50:42,18, UCD,6740.44,60-142-b12-1,142,b12
402,8240DB006010,"Waterside, stop 6010",53.45287713,-6.198365821,5556.1.60-142-b12-1.78.O,07:53:10,07:53:10,19, UCD,7492.86,60-142-b12-1,142,b12
403,8240DB003656,"Feltrim Business Pk, stop 3656",53.44852823,-6.204421813,5556.1.60-142-b12-1.78.O,07:55:51,07:55:51,20, UCD,8404.79,60-142-b12-1,142,b12
404,8240DB007194,"Holywell View, stop 7194",53.44722698,-6.207548068,5556.1.60-142-b12-1.78.O,07:56:43,07:56:43,21, UCD,8700.63,60-142-b12-1,142,b12
405,8240DB007196,"Holywell Wood, stop 7196",53.44495564,-6.212521491,5556.1.60-142-b12-1.78.O,07:58:30,07:58:30,22, UCD,9276.49,60-142-b12-1,142,b12
406,8240DB006310,"Holywell Crescent, stop 6310",53.44356734,-6.211044234,5556.1.60-142-b12-1.78.O,07:59:48,07:59:48,23, UCD,9717.14,60-142-b12-1,142,b12
407,8240DB006311,"Holywell Close, stop 6311",53.44342396,-6.209273847,5556.1.60-142-b12-1.78.O,07:59:57,07:59:57,24, UCD,9835.59,60-142-b12-1,142,b12
408,8220DB007399,"The Point, stop 7399",53.34849353,-6.226864471,5556.1.60-142-b12-1.78.O,08:14:39,08:14:39,26, UCD,21729.57,60-142-b12-1,142,b12
409,8220DB007398,"Convention Centre, stop 7398",53.34749942,-6.239853363,5556.1.60-142-b12-1.78.O,08:20:47,08:20:47,27, UCD,22765.88,60-142-b12-1,142,b12
410,8220DB007397,"Guild Street, stop 7397",53.34769403,-6.243300061,5556.1.60-142-b12-1.78.O,08:21:38,08:21:38,28, UCD,22995.88,60-142-b12-1,142,b12
411,8220DB006252,"CHQ, stop 6252",53.34796481,-6.247044075,5556.1.60-142-b12-1.78.O,08:23:22,08:23:22,29, UCD,23245.79,60-142-b12-1,142,b12
412,8220DB000301,"Eden Quay, stop 301",53.34798837,-6.256626241,5556.1.60-142-b12-1.78.O,08:27:49,08:27:49,30, UCD,23902.24,60-142-b12-1,142,b12
413,8220DB004495,"Hawkins Street, stop 4495",53.34649329,-6.25703271,5556.1.60-142-b12-1.78.O,08:29:35,08:29:35,31, UCD,24114.9,60-142-b12-1,142,b12
414,8220DB002809,"Pearse Station, stop 2809",53.34288455,-6.2499709,5556.1.60-142-b12-1.78.O,08:35:40,08:35:40,32, UCD,25051.51,60-142-b12-1,142,b12
415,8220DB002810,"Merrion Square West, stop 2810",53.34079491,-6.250897489,5556.1.60-142-b12-1.78.O,08:37:19,08:37:19,33, UCD,25291.53,60-142-b12-1,142,b12
416,8220DB001013,"Earlsfort Terrace, stop 1013",53.33418076,-6.258345677,5556.1.60-142-b12-1.78.O,08:46:46,08:46:46,34, UCD,26179.34,60-142-b12-1,142,b12
417,8220DB001015,"Adelaide Road, stop 1015",53.33273035,-6.259966355,5556.1.60-142-b12-1.78.O,08:48:40,08:48:40,35, UCD,26424.88,60-142-b12-1,142,b12
418,8220DB001016,"South Richmond St, stop 1016",53.33115931,-6.26441458,5556.1.60-142-b12-1.78.O,08:51:34,08:51:34,36, UCD,26885.06,60-142-b12-1,142,b12
419,8220DB001017,"Rathmines Rd Lower, stop 1017",53.32936933,-6.264322097,5556.1.60-142-b12-1.78.O,08:52:22,08:52:22,37, UCD,27086.66,60-142-b12-1,142,b12
420,8220DB001018,"St Mary's College, stop 1018",53.32758546,-6.264649745,5556.1.60-142-b12-1.78.O,08:53:11,08:53:11,38, UCD,27286.21,60-142-b12-1,142,b12
421,8220DB001019,"Military Road, stop 1019",53.3265476,-6.264977118,5556.1.60-142-b12-1.78.O,08:53:43,08:53:43,39, UCD,27402.54,60-142-b12-1,142,b12
422,8220DB001020,"Rathmines, stop 1020",53.32513838,-6.265109364,5556.1.60-142-b12-1.78.O,08:54:23,08:54:23,40, UCD,27560.11,60-142-b12-1,142,b12
423,8220DB001076,"Swan Centre, stop 1076",53.32313059,-6.265491063,5556.1.60-142-b12-1.78.O,08:55:18,08:55:18,41, UCD,27784.72,60-142-b12-1,142,b12
424,8220DB001021,"Rathmines Rd Upper, stop 1021",53.32138025,-6.265652126,5556.1.60-142-b12-1.78.O,08:56:12,08:56:12,42, UCD,27984.97,60-142-b12-1,142,b12
425,8220DB006042,"Church Avenue, stop 6042",53.32014811,-6.264981579,5556.1.60-142-b12-1.78.O,08:56:50,08:56:50,43, UCD,28130.67,60-142-b12-1,142,b12
426,8220DB001022,"Summerville Park, stop 1022",53.31952174,-6.264556674,5556.1.60-142-b12-1.78.O,08:57:09,08:57:09,44, UCD,28203.98,60-142-b12-1,142,b12
427,8220DB001023,"Rathmines Close, stop 1023",53.31704619,-6.264912289,5556.1.60-142-b12-1.78.O,08:58:23,08:58:23,45, UCD,28485.28,60-142-b12-1,142,b12
428,8220DB001024,"Frankfort Avenue, stop 1024",53.31585234,-6.265020756,5556.1.60-142-b12-1.78.O,08:59:00,08:59:00,46, UCD,28624.18,60-142-b12-1,142,b12
429,8220DB000895,"Palmeston Villas, stop 895",53.31393226,-6.264018018,5556.1.60-142-b12-1.78.O,08:59:59,08:59:59,47, UCD,28847.21,60-142-b12-1,142,b12
430,8220DB001025,"Trinity Hall, stop 1025",53.31159987,-6.262476823,5556.1.60-142-b12-1.78.O,09:01:04,09:01:04,48, UCD,29146.35,60-142-b12-1,142,b12
431,8220DB001026,"Orwell Park, stop 1026",53.30910577,-6.260327082,5556.1.60-142-b12-1.78.O,09:02:14,09:02:14,49, UCD,29469.95,60-142-b12-1,142,b12
432,8220DB001027,"Dodder Walk, stop 1027",53.30873794,-6.257910941,5556.1.60-142-b12-1.78.O,09:02:34,09:02:34,50, UCD,29650.5,60-142-b12-1,142,b12
433,8220DB001028,"South Hill, stop 1028",53.30849911,-6.255714681,5556.1.60-142-b12-1.78.O,09:02:50,09:02:50,51, UCD,29798.33,60-142-b12-1,142,b12
434,8250DB002818,"Dundrum Road, stop 2818",53.30794932,-6.246418047,5556.1.60-142-b12-1.78.O,09:05:21,09:05:21,52, UCD,30783.89,60-142-b12-1,142,b12
435,8250DB002819,"Millmount Terrace, stop 2819",53.30548511,-6.245708734,5556.1.60-142-b12-1.78.O,09:06:04,09:06:04,53, UCD,31062.95,60-142-b12-1,142,b12
436,8250DB003012,"Bird Avenue, stop 3012",53.30525379,-6.244037592,5556.1.60-142-b12-1.78.O,09:06:30,09:06:30,54, UCD,31200.64,60-142-b12-1,142,b12
437,8250DB000877,"UCD Sports Centre, stop 877",53.30820211,-6.230065457,5556.1.60-142-b12-1.78.O,09:10:51,09:10:51,55, UCD,32415.11,60-142-b12-1,142,b12
