Index,stop_id,stop_name,stop_lat,stop_lon,trip_id,arrival_time,departure_time,stop_sequence,stop_headsign,shape_dist_traveled,route_id,customer_route_name,project_subnet
60,8220DB000395,"Ringsend Road, stop 395",53.34194005,-6.235276454,12343.3.60-C3-b12-1.347.O,12:57:00,12:57:00,1, Maynooth,0.0,60-C3-b12-1,C3,b12
61,8220DB000396,"Grand Canal Quay, stop 396",53.34244252,-6.239475948,12343.3.60-C3-b12-1.347.O,12:58:12,12:58:12,2, Maynooth,292.56,60-C3-b12-1,C3,b12
62,8220DB000397,"Pearse Square, stop 397",53.34278556,-6.242015007,12343.3.60-C3-b12-1.347.O,12:59:12,12:59:12,3, Maynooth,466.34,60-C3-b12-1,C3,b12
63,8220DB000398,"Erne Street, stop 398",53.34329494,-6.245478447,12343.3.60-C3-b12-1.347.O,13:00:22,13:00:22,4, Maynooth,702.09,60-C3-b12-1,C3,b12
64,8220DB000399,"Pearse Station, stop 399",53.34386682,-6.248308601,12343.3.60-C3-b12-1.347.O,13:01:19,13:01:19,5, Maynooth,902.06,60-C3-b12-1,C3,b12
65,8220DB007859,"Shaw Street, stop 7859",53.34477987,-6.25295724,12343.3.60-C3-b12-1.347.O,13:02:50,13:02:50,6, Maynooth,1225.66,60-C3-b12-1,C3,b12
66,8220DB007732,"Tara Street, Stop no 7732",53.34722107,-6.255170542,12343.3.60-C3-b12-1.347.O,13:05:07,13:05:07,7, Maynooth,1596.39,60-C3-b12-1,C3,b12
67,8220DB007392,"Aston Quay, stop 7392",53.34640871,-6.261091564,12343.3.60-C3-b12-1.347.O,13:07:53,13:07:53,8, Maynooth,2046.13,60-C3-b12-1,C3,b12
68,8220DB000312,"Wellington Quay, stop 312",53.34547647,-6.266206155,12343.3.60-C3-b12-1.347.O,13:10:00,13:10:00,9, Maynooth,2401.38,60-C3-b12-1,C3,b12
69,8220DB007857,"Merchant's Quay, stop 7857",53.34504365,-6.274169038,12343.3.60-C3-b12-1.347.O,13:12:27,13:12:27,10, Maynooth,2934.42,60-C3-b12-1,C3,b12
70,8220DB007855,"Usher's Quay, stop 7855",53.34592009,-6.279465664,12343.3.60-C3-b12-1.347.O,13:14:09,13:14:09,11, Maynooth,3298.17,60-C3-b12-1,C3,b12
71,8220DB004407,"Victoria Quay, stop 4407",53.3464875,-6.285165429,12343.3.60-C3-b12-1.347.O,13:15:36,13:15:36,12, Maynooth,3684.72,60-C3-b12-1,C3,b12
72,8220DB002637,"Heuston Station, stop 2637",53.34584559,-6.294308178,12343.3.60-C3-b12-1.347.O,13:18:03,13:18:03,13, Maynooth,4339.12,60-C3-b12-1,C3,b12
73,8220DB002721,"South Circular Road, stop 2721",53.34327186,-6.310511085,12343.3.60-C3-b12-1.347.O,13:23:06,13:23:06,14, Maynooth,5473.69,60-C3-b12-1,C3,b12
74,8220DB007012,"Memorial Gardens, stop 7012",53.34295414,-6.315374679,12343.3.60-C3-b12-1.347.O,13:23:32,13:23:32,15, Maynooth,5798.11,60-C3-b12-1,C3,b12
75,8230DB002201,"Palmerstown Drive, stop 2201",53.35327375,-6.364571165,12343.3.60-C3-b12-1.347.O,13:28:29,13:28:29,16, Maynooth,9525.91,60-C3-b12-1,C3,b12
76,8230DB007239,"The Oval, stop 7239",53.35406141,-6.368927567,12343.3.60-C3-b12-1.347.O,13:29:25,13:29:25,17, Maynooth,9827.65,60-C3-b12-1,C3,b12
77,8230DB004401,"Kennelsfort Road, stop 4401",53.35475553,-6.371710305,12343.3.60-C3-b12-1.347.O,13:29:49,13:29:49,18, Maynooth,10028.03,60-C3-b12-1,C3,b12
78,8230DB002213,"Liffey Valley SC, stop 2213",53.35577765,-6.392072623,12343.3.60-C3-b12-1.347.O,13:32:35,13:32:35,19, Maynooth,11442.74,60-C3-b12-1,C3,b12
79,8230DB002214,"Clayton Hotel, stop 2214",53.35609004,-6.399932976,12343.3.60-C3-b12-1.347.O,13:33:36,13:33:36,20, Maynooth,11973.59,60-C3-b12-1,C3,b12
80,8230DB002215,"St Loman's Hospital, stop 2215",53.35820623,-6.408973166,12343.3.60-C3-b12-1.347.O,13:34:42,13:34:42,21, Maynooth,12618.18,60-C3-b12-1,C3,b12
81,8230DB002216,"Ballyowen Lane, stop 2216",53.35886528,-6.415949824,12343.3.60-C3-b12-1.347.O,13:35:45,13:35:45,22, Maynooth,13092.03,60-C3-b12-1,C3,b12
82,8230DB004599,"Hermitage Road, stop 4599",53.35775874,-6.423337433,12343.3.60-C3-b12-1.347.O,13:36:54,13:36:54,23, Maynooth,13621.12,60-C3-b12-1,C3,b12
83,8230DB002217,"Esker Lane, stop 2217",53.3595962,-6.427040693,12343.3.60-C3-b12-1.347.O,13:37:56,13:37:56,24, Maynooth,14053.7,60-C3-b12-1,C3,b12
84,8230DB002218,"Roselawn, stop 2218",53.35967652,-6.43246151,12343.3.60-C3-b12-1.347.O,13:38:49,13:38:49,25, Maynooth,14413.47,60-C3-b12-1,C3,b12
85,8230DB002219,"St Andrews NS, stop 2219",53.36005568,-6.436699507,12343.3.60-C3-b12-1.347.O,13:39:35,13:39:35,26, Maynooth,14698.07,60-C3-b12-1,C3,b12
86,8230DB003365,"St Mary's Church, stop 3365",53.3596569,-6.439193112,12343.3.60-C3-b12-1.347.O,13:40:03,13:40:03,27, Maynooth,14873.21,60-C3-b12-1,C3,b12
87,8230DB003366,"Lucan Heights, stop 3366",53.35817573,-6.44139564,12343.3.60-C3-b12-1.347.O,13:41:01,13:41:01,28, Maynooth,15096.78,60-C3-b12-1,C3,b12
88,8230DB003367,"Lucan Village, stop 3367",53.35642918,-6.448760619,12343.3.60-C3-b12-1.347.O,13:43:22,13:43:22,29, Maynooth,15642.53,60-C3-b12-1,C3,b12
89,8230DB003886,"Primrose Lane, stop 3886",53.35569042,-6.454165634,12343.3.60-C3-b12-1.347.O,13:44:04,13:44:04,30, Maynooth,16014.63,60-C3-b12-1,C3,b12
90,8230DB003887,"Ardeevin Avenue, stop 3887",53.3552288,-6.458779283,12343.3.60-C3-b12-1.347.O,13:44:51,13:44:51,31, Maynooth,16328.04,60-C3-b12-1,C3,b12
91,8230DB003888,"Old Cornmill Road, stop 3888",53.35515377,-6.462717926,12343.3.60-C3-b12-1.347.O,13:45:30,13:45:30,32, Maynooth,16605.1,60-C3-b12-1,C3,b12
92,8230DB007186,"Lucan Spa Hotel, stop 7186",53.35679529,-6.465257861,12343.3.60-C3-b12-1.347.O,13:46:51,13:46:51,33, Maynooth,17171.79,60-C3-b12-1,C3,b12
93,8230DB007187,"Kew Park, stop 7187",53.35756283,-6.467634039,12343.3.60-C3-b12-1.347.O,13:47:12,13:47:12,34, Maynooth,17351.48,60-C3-b12-1,C3,b12
94,8260DB003954,"Springfield Hotel, stop 3954",53.36053546,-6.478690595,12343.3.60-C3-b12-1.347.O,13:49:03,13:49:03,35, Maynooth,18297.66,60-C3-b12-1,C3,b12
95,8260DB003955,"Cooldrinagh Terrace, stop 3955",53.3616766,-6.482901991,12343.3.60-C3-b12-1.347.O,13:49:28,13:49:28,36, Maynooth,18605.41,60-C3-b12-1,C3,b12
96,8260DB003956,"Salmon Leap, stop 3956",53.36213377,-6.484929158,12343.3.60-C3-b12-1.347.O,13:49:39,13:49:39,37, Maynooth,18749.1,60-C3-b12-1,C3,b12
