Index,stop_id,stop_name,stop_lat,stop_lon,trip_id,arrival_time,departure_time,stop_sequence,stop_headsign,shape_dist_traveled,route_id,customer_route_name,project_subnet
76,8220DB000300,"Liberty Hall, stop 300",53.34829924,-6.255757376,14098.2.60-27A-b12-1.270.O,08:40:00,08:40:00,1, Blunden Drive,0.0,60-27A-b12-1,27A,b12
77,8220DB000496,"Bus√°ras, stop 496",53.34949688,-6.252223579,14098.2.60-27A-b12-1.270.O,08:41:15,08:41:15,2, Blunden Drive,311.32,60-27A-b12-1,27A,b12
78,8220DB000497,"Connolly, stop 497",53.35052608,-6.250694343,14098.2.60-27A-b12-1.270.O,08:41:51,08:41:51,4, Blunden Drive,492.46,60-27A-b12-1,27A,b12
79,8220DB000515,"Portland Row, stop 515",53.35353487,-6.248092401,14098.2.60-27A-b12-1.270.O,08:43:03,08:43:03,5, Blunden Drive,869.88,60-27A-b12-1,27A,b12
80,8220DB000516,"North Strand Road, stop 516",53.35568392,-6.245705684,14098.2.60-27A-b12-1.270.O,08:43:58,08:43:58,6, Blunden Drive,1154.56,60-27A-b12-1,27A,b12
81,8220DB004384,"Bayview Avenue, stop 4384",53.35768013,-6.242709027,14098.2.60-27A-b12-1.270.O,08:44:47,08:44:47,7, Blunden Drive,1453.6,60-27A-b12-1,27A,b12
82,8220DB000519,"North Strand Fire Station, stop 519",53.36033876,-6.239534529,14098.2.60-27A-b12-1.270.O,08:45:47,08:45:47,8, Blunden Drive,1819.83,60-27A-b12-1,27A,b12
83,8220DB000521,"Annesley Bridge, stop 521",53.36163705,-6.237978461,14098.2.60-27A-b12-1.270.O,08:46:11,08:46:11,9, Blunden Drive,1996.35,60-27A-b12-1,27A,b12
84,8220DB000522,"Fairview, stop 522",53.36328895,-6.235415975,14098.2.60-27A-b12-1.270.O,08:46:45,08:46:45,10, Blunden Drive,2248.32,60-27A-b12-1,27A,b12
85,8220DB000523,"Marino College, stop 523",53.36428545,-6.231693332,14098.2.60-27A-b12-1.270.O,08:47:19,08:47:19,12, Blunden Drive,2537.98,60-27A-b12-1,27A,b12
86,8220DB000669,"Malahide Road, stop 669",53.366317,-6.228678905,14098.2.60-27A-b12-1.270.O,08:48:01,08:48:01,13, Blunden Drive,2898.6,60-27A-b12-1,27A,b12
87,8220DB000670,"Mount Temple School, stop 670",53.36895611,-6.226029664,14098.2.60-27A-b12-1.270.O,08:48:42,08:48:42,14, Blunden Drive,3241.4,60-27A-b12-1,27A,b12
88,8220DB000671,"Nazareth House, stop 671",53.37071684,-6.224153053,14098.2.60-27A-b12-1.270.O,08:49:08,08:49:08,15, Blunden Drive,3473.98,60-27A-b12-1,27A,b12
89,8220DB000672,"Donnycarney Road, stop 672",53.37346635,-6.221077821,14098.2.60-27A-b12-1.270.O,08:49:50,08:49:50,16, Blunden Drive,3842.92,60-27A-b12-1,27A,b12
90,8220DB004382,"Donnycarney Church, stop 4382",53.37496447,-6.219677694,14098.2.60-27A-b12-1.270.O,08:50:11,08:50:11,17, Blunden Drive,4066.06,60-27A-b12-1,27A,b12
91,8220DB001196,"Elm Mount Road, stop 1196",53.37778751,-6.214915296,14098.2.60-27A-b12-1.270.O,08:51:13,08:51:13,18, Blunden Drive,4581.32,60-27A-b12-1,27A,b12
92,8220DB001197,"Killester Avenue, stop 1197",53.37923228,-6.211758333,14098.2.60-27A-b12-1.270.O,08:51:49,08:51:49,19, Blunden Drive,4845.44,60-27A-b12-1,27A,b12
93,8220DB001198,"Mornington Grove, stop 1198",53.3825122,-6.206915591,14098.2.60-27A-b12-1.270.O,08:52:37,08:52:37,20, Blunden Drive,5332.38,60-27A-b12-1,27A,b12
94,8220DB004782,"Gracefield Road, stop 4782",53.38250977,-6.2025712,14098.2.60-27A-b12-1.270.O,08:53:31,08:53:31,21, Blunden Drive,5675.7,60-27A-b12-1,27A,b12
95,8220DB001782,"Brookwood Grove, stop 1782",53.3823895,-6.198171651,14098.2.60-27A-b12-1.270.O,08:54:17,08:54:17,22, Blunden Drive,5967.82,60-27A-b12-1,27A,b12
96,8220DB001783,"McAuley Road, stop 1783",53.38380322,-6.195962182,14098.2.60-27A-b12-1.270.O,08:54:46,08:54:46,23, Blunden Drive,6204.29,60-27A-b12-1,27A,b12
97,8220DB001784,"Gorsefield Court, stop 1784",53.38462098,-6.192981013,14098.2.60-27A-b12-1.270.O,08:55:14,08:55:14,24, Blunden Drive,6424.7,60-27A-b12-1,27A,b12
98,8220DB001785,"McAuley Park, stop 1785",53.38259606,-6.191623615,14098.2.60-27A-b12-1.270.O,08:55:47,08:55:47,25, Blunden Drive,6692.14,60-27A-b12-1,27A,b12
99,8220DB001786,"McAuley Park, stop 1786",53.38199414,-6.192235402,14098.2.60-27A-b12-1.270.O,08:56:01,08:56:01,26, Blunden Drive,6805.12,60-27A-b12-1,27A,b12
100,8220DB000624,"Ribh Road, stop 624",53.38018531,-6.189125238,14098.2.60-27A-b12-1.270.O,08:56:44,08:56:44,27, Blunden Drive,7159.04,60-27A-b12-1,27A,b12
101,8220DB000625,"Lein Gardens, stop 625",53.38178757,-6.186321297,14098.2.60-27A-b12-1.270.O,08:57:21,08:57:21,28, Blunden Drive,7432.94,60-27A-b12-1,27A,b12
102,8220DB000626,"Edenmore Green, stop 626",53.38449452,-6.184056419,14098.2.60-27A-b12-1.270.O,08:58:16,08:58:16,29, Blunden Drive,7833.36,60-27A-b12-1,27A,b12
103,8220DB000627,"Edenmore Green, stop 627",53.38540702,-6.182003033,14098.2.60-27A-b12-1.270.O,08:58:45,08:58:45,30, Blunden Drive,8049.46,60-27A-b12-1,27A,b12
104,8220DB000628,"Edenmore Grove, stop 628",53.386955,-6.183906579,14098.2.60-27A-b12-1.270.O,08:59:14,08:59:14,31, Blunden Drive,8262.1,60-27A-b12-1,27A,b12
105,8220DB000629,"Edenmore Drive, stop 629",53.38652797,-6.185969425,14098.2.60-27A-b12-1.270.O,08:59:38,08:59:38,32, Blunden Drive,8437.12,60-27A-b12-1,27A,b12
106,8220DB000630,"Springdale Road, stop 630",53.387244,-6.189321752,14098.2.60-27A-b12-1.270.O,09:00:18,09:00:18,33, Blunden Drive,8731.75,60-27A-b12-1,27A,b12
107,8220DB004466,"Glenwood Road, stop 4466",53.38841945,-6.189783047,14098.2.60-27A-b12-1.270.O,09:00:41,09:00:41,34, Blunden Drive,8897.94,60-27A-b12-1,27A,b12
108,8220DB000633,"Tonlegee Drive, stop 633",53.38964434,-6.18935518,14098.2.60-27A-b12-1.270.O,09:01:07,09:01:07,35, Blunden Drive,9085.79,60-27A-b12-1,27A,b12
109,8220DB000634,"Tonlegee Avenue, stop 634",53.3902752,-6.184141109,14098.2.60-27A-b12-1.270.O,09:02:02,09:02:02,36, Blunden Drive,9486.41,60-27A-b12-1,27A,b12
110,8220DB001005,"Limewood, stop 1005",53.39095141,-6.181917083,14098.2.60-27A-b12-1.270.O,09:02:30,09:02:30,37, Blunden Drive,9687.13,60-27A-b12-1,27A,b12
111,8220DB001788,"Millbrook Road, stop 1788",53.39161405,-6.178806434,14098.2.60-27A-b12-1.270.O,09:03:06,09:03:06,38, Blunden Drive,9959.34,60-27A-b12-1,27A,b12
112,8220DB001789,"Clonrosse Drive, stop 1789",53.39426246,-6.178603119,14098.2.60-27A-b12-1.270.O,09:03:45,09:03:45,39, Blunden Drive,10254.35,60-27A-b12-1,27A,b12
113,8220DB007199,"O'Tooles GAA, stop 7199",53.3966454,-6.182802179,14098.2.60-27A-b12-1.270.O,09:04:44,09:04:44,40, Blunden Drive,10718.99,60-27A-b12-1,27A,b12
