Index,stop_id,stop_name,stop_lat,stop_lon,trip_id,arrival_time,departure_time,stop_sequence,stop_headsign,shape_dist_traveled,route_id,customer_route_name,project_subnet
102,8220DB000381,"St John's Church, stop 381",53.32432377,-6.212374193,12431.3.60-C1-b12-1.339.O,13:07:00,13:07:00,1, Adamstown Station,0.0,60-C1-b12-1,C1,b12
103,8220DB007740,"Park Avenue, stop 7740",53.32687574,-6.214729665,12431.3.60-C1-b12-1.339.O,13:08:10,13:08:10,2, Adamstown Station,543.75,60-C1-b12-1,C1,b12
104,8220DB007741,"Gilford Road, stop 7741",53.32927948,-6.214989623,12431.3.60-C1-b12-1.339.O,13:09:15,13:09:15,3, Adamstown Station,844.36,60-C1-b12-1,C1,b12
105,8220DB000387,"Sandymount, stop 387",53.33249951,-6.215741058,12431.3.60-C1-b12-1.339.O,13:11:34,13:11:34,4, Adamstown Station,1221.98,60-C1-b12-1,C1,b12
106,8220DB000388,"Farney Park, stop 388",53.33450886,-6.218480173,12431.3.60-C1-b12-1.339.O,13:12:44,13:12:44,5, Adamstown Station,1510.71,60-C1-b12-1,C1,b12
107,8220DB000389,"Star of the Sea, stop 389",53.33529008,-6.219633889,12431.3.60-C1-b12-1.339.O,13:13:12,13:13:12,6, Adamstown Station,1626.72,60-C1-b12-1,C1,b12
108,8220DB000393,"Tritonville Road, stop 393",53.33690389,-6.222374797,12431.3.60-C1-b12-1.339.O,13:14:21,13:14:21,7, Adamstown Station,1906.31,60-C1-b12-1,C1,b12
109,8220DB000371,"Irishtown Road, stop 371",53.33861278,-6.223054583,12431.3.60-C1-b12-1.339.O,13:15:27,13:15:27,8, Adamstown Station,2105.88,60-C1-b12-1,C1,b12
110,8220DB000391,"Bath Street, stop 391",53.34006386,-6.223925352,12431.3.60-C1-b12-1.339.O,13:16:26,13:16:26,9, Adamstown Station,2284.74,60-C1-b12-1,C1,b12
111,8220DB000392,"Ringsend, stop 392",53.34173363,-6.227415321,12431.3.60-C1-b12-1.339.O,13:18:11,13:18:11,10, Adamstown Station,2606.12,60-C1-b12-1,C1,b12
112,8220DB000395,"Ringsend Road, stop 395",53.34194005,-6.235276454,12431.3.60-C1-b12-1.339.O,13:20:27,13:20:27,11, Adamstown Station,3139.73,60-C1-b12-1,C1,b12
113,8220DB000396,"Grand Canal Quay, stop 396",53.34244252,-6.239475948,12431.3.60-C1-b12-1.339.O,13:21:54,13:21:54,12, Adamstown Station,3432.29,60-C1-b12-1,C1,b12
114,8220DB000397,"Pearse Square, stop 397",53.34278556,-6.242015007,12431.3.60-C1-b12-1.339.O,13:22:57,13:22:57,13, Adamstown Station,3606.07,60-C1-b12-1,C1,b12
115,8220DB000398,"Erne Street, stop 398",53.34329494,-6.245478447,12431.3.60-C1-b12-1.339.O,13:24:02,13:24:02,14, Adamstown Station,3841.82,60-C1-b12-1,C1,b12
116,8220DB000399,"Pearse Station, stop 399",53.34386682,-6.248308601,12431.3.60-C1-b12-1.339.O,13:24:54,13:24:54,15, Adamstown Station,4041.79,60-C1-b12-1,C1,b12
117,8220DB007859,"Shaw Street, stop 7859",53.34477987,-6.25295724,12431.3.60-C1-b12-1.339.O,13:26:20,13:26:20,16, Adamstown Station,4365.38,60-C1-b12-1,C1,b12
118,8220DB007732,"Tara Street, Stop no 7732",53.34722107,-6.255170542,12431.3.60-C1-b12-1.339.O,13:29:40,13:29:40,17, Adamstown Station,4736.12,60-C1-b12-1,C1,b12
119,8220DB007392,"Aston Quay, stop 7392",53.34640871,-6.261091564,12431.3.60-C1-b12-1.339.O,13:33:41,13:33:41,18, Adamstown Station,5185.86,60-C1-b12-1,C1,b12
120,8220DB000312,"Wellington Quay, stop 312",53.34547647,-6.266206155,12431.3.60-C1-b12-1.339.O,13:35:55,13:35:55,19, Adamstown Station,5541.11,60-C1-b12-1,C1,b12
121,8220DB007857,"Merchant's Quay, stop 7857",53.34504365,-6.274169038,12431.3.60-C1-b12-1.339.O,13:38:19,13:38:19,20, Adamstown Station,6074.15,60-C1-b12-1,C1,b12
122,8220DB007855,"Usher's Quay, stop 7855",53.34592009,-6.279465664,12431.3.60-C1-b12-1.339.O,13:39:58,13:39:58,21, Adamstown Station,6437.89,60-C1-b12-1,C1,b12
123,8220DB004407,"Victoria Quay, stop 4407",53.3464875,-6.285165429,12431.3.60-C1-b12-1.339.O,13:41:25,13:41:25,22, Adamstown Station,6824.45,60-C1-b12-1,C1,b12
124,8220DB002637,"Heuston Station, stop 2637",53.34584559,-6.294308178,12431.3.60-C1-b12-1.339.O,13:43:52,13:43:52,23, Adamstown Station,7478.85,60-C1-b12-1,C1,b12
125,8220DB002721,"South Circular Road, stop 2721",53.34327186,-6.310511085,12431.3.60-C1-b12-1.339.O,13:47:36,13:47:36,24, Adamstown Station,8613.41,60-C1-b12-1,C1,b12
126,8220DB007012,"Memorial Gardens, stop 7012",53.34295414,-6.315374679,12431.3.60-C1-b12-1.339.O,13:48:01,13:48:01,25, Adamstown Station,8937.84,60-C1-b12-1,C1,b12
127,8230DB002201,"Palmerstown Drive, stop 2201",53.35327375,-6.364571165,12431.3.60-C1-b12-1.339.O,13:52:43,13:52:43,26, Adamstown Station,12665.64,60-C1-b12-1,C1,b12
128,8230DB007239,"The Oval, stop 7239",53.35406141,-6.368927567,12431.3.60-C1-b12-1.339.O,13:53:26,13:53:26,27, Adamstown Station,12967.38,60-C1-b12-1,C1,b12
129,8230DB004401,"Kennelsfort Road, stop 4401",53.35475553,-6.371710305,12431.3.60-C1-b12-1.339.O,13:53:49,13:53:49,28, Adamstown Station,13167.76,60-C1-b12-1,C1,b12
130,8230DB002213,"Liffey Valley SC, stop 2213",53.35577765,-6.392072623,12431.3.60-C1-b12-1.339.O,13:56:25,13:56:25,29, Adamstown Station,14582.47,60-C1-b12-1,C1,b12
131,8230DB002214,"Clayton Hotel, stop 2214",53.35609004,-6.399932976,12431.3.60-C1-b12-1.339.O,13:57:08,13:57:08,30, Adamstown Station,15113.32,60-C1-b12-1,C1,b12
132,8230DB002215,"St Loman's Hospital, stop 2215",53.35820623,-6.408973166,12431.3.60-C1-b12-1.339.O,13:58:09,13:58:09,31, Adamstown Station,15757.91,60-C1-b12-1,C1,b12
133,8230DB002216,"Ballyowen Lane, stop 2216",53.35886528,-6.415949824,12431.3.60-C1-b12-1.339.O,13:59:01,13:59:01,32, Adamstown Station,16231.76,60-C1-b12-1,C1,b12
134,8230DB004599,"Hermitage Road, stop 4599",53.35775874,-6.423337433,12431.3.60-C1-b12-1.339.O,13:59:58,13:59:58,33, Adamstown Station,16760.85,60-C1-b12-1,C1,b12
135,8230DB004601,"Ballyowen Park, stop 4601",53.35575592,-6.422089347,12431.3.60-C1-b12-1.339.O,14:00:49,14:00:49,34, Adamstown Station,17067.83,60-C1-b12-1,C1,b12
136,8230DB005058,"Ballyowen Road, stop 5058",53.35089882,-6.422494076,12431.3.60-C1-b12-1.339.O,14:02:20,14:02:20,35, Adamstown Station,17621.69,60-C1-b12-1,C1,b12
137,8230DB004602,"The Penny Hill, stop 4602",53.34762647,-6.424477393,12431.3.60-C1-b12-1.339.O,14:03:17,14:03:17,36, Adamstown Station,18008.03,60-C1-b12-1,C1,b12
138,8230DB004603,"Castle Road, stop 4603",53.3460962,-6.420223212,12431.3.60-C1-b12-1.339.O,14:04:41,14:04:41,37, Adamstown Station,18415.79,60-C1-b12-1,C1,b12
139,8230DB004604,"Earlsfort Road, stop 4604",53.34440319,-6.418618701,12431.3.60-C1-b12-1.339.O,14:05:28,14:05:28,38, Adamstown Station,18646.45,60-C1-b12-1,C1,b12
140,8230DB004605,"Foxborough Hall, stop 4605",53.34333336,-6.421992418,12431.3.60-C1-b12-1.339.O,14:06:47,14:06:47,39, Adamstown Station,19006.88,60-C1-b12-1,C1,b12
141,8230DB004562,"Foxborough Road, stop 4562",53.34065809,-6.424268761,12431.3.60-C1-b12-1.339.O,14:08:15,14:08:15,40, Adamstown Station,19405.23,60-C1-b12-1,C1,b12
142,8230DB007386,"Foxborough Park, stop 7386",53.34005247,-6.427414714,12431.3.60-C1-b12-1.339.O,14:09:22,14:09:22,41, Adamstown Station,19719.42,60-C1-b12-1,C1,b12
143,8230DB004607,"Moy Glas Dene, stop 4607",53.34034117,-6.430227382,12431.3.60-C1-b12-1.339.O,14:09:54,14:09:54,42, Adamstown Station,19910.03,60-C1-b12-1,C1,b12
144,8230DB004608,"Griffeen Road, stop 4608",53.34240905,-6.432329063,12431.3.60-C1-b12-1.339.O,14:10:47,14:10:47,43, Adamstown Station,20307.41,60-C1-b12-1,C1,b12
145,8230DB004609,"Elm Wood, stop 4609",53.34593948,-6.43287541,12431.3.60-C1-b12-1.339.O,14:11:57,14:11:57,44, Adamstown Station,20897.27,60-C1-b12-1,C1,b12
146,8230DB004610,"Lucan Leisure Centre, stop 4610",53.34794176,-6.437518301,12431.3.60-C1-b12-1.339.O,14:13:00,14:13:00,45, Adamstown Station,21297.36,60-C1-b12-1,C1,b12
147,8230DB004611,"St Finnian's, stop 4611",53.34892388,-6.439765499,12431.3.60-C1-b12-1.339.O,14:13:47,14:13:47,46, Adamstown Station,21597.48,60-C1-b12-1,C1,b12
148,8230DB004612,"Arthur Griffith Park, stop 4612",53.34744916,-6.442462871,12431.3.60-C1-b12-1.339.O,14:14:25,14:14:25,47, Adamstown Station,21839.69,60-C1-b12-1,C1,b12
149,8230DB004613,"Esker Cottages, stop 4613",53.34508498,-6.44450154,12431.3.60-C1-b12-1.339.O,14:15:17,14:15:17,48, Adamstown Station,22136.89,60-C1-b12-1,C1,b12
150,8230DB003370,"Finnstown Abbey, stop 3370",53.34447042,-6.447692905,12431.3.60-C1-b12-1.339.O,14:16:01,14:16:01,49, Adamstown Station,22385.06,60-C1-b12-1,C1,b12
151,8230DB007797,"Somerton, stop 7797",53.34289196,-6.452105571,12431.3.60-C1-b12-1.339.O,14:17:41,14:17:41,50, Adamstown Station,22848.14,60-C1-b12-1,C1,b12
152,8230DB007231,"Finnstown Castle, stop 7231",53.34031891,-6.452604239,12431.3.60-C1-b12-1.339.O,14:18:43,14:18:43,51, Adamstown Station,23136.14,60-C1-b12-1,C1,b12
153,8230DB007128,"Castlegate Walk, stop 7128",53.33796708,-6.456999159,12431.3.60-C1-b12-1.339.O,14:20:15,14:20:15,52, Adamstown Station,23621.84,60-C1-b12-1,C1,b12
154,8230DB007117,"Castlegate Drive, stop 7117",53.33764017,-6.46091525,12431.3.60-C1-b12-1.339.O,14:21:09,14:21:09,53, Adamstown Station,23909.43,60-C1-b12-1,C1,b12
155,8230DB007118,"Stratton Grove, stop 7118",53.33733864,-6.464019484,12431.3.60-C1-b12-1.339.O,14:22:01,14:22:01,54, Adamstown Station,24120.84,60-C1-b12-1,C1,b12
156,8230DB006289,"Adamstown Station, stop 6289",53.33626245,-6.468397781,12431.3.60-C1-b12-1.339.O,14:23:40,14:23:40,55, Adamstown Station,24527.06,60-C1-b12-1,C1,b12
