Index,stop_id,stop_name,stop_lat,stop_lon,trip_id,arrival_time,departure_time,stop_sequence,stop_headsign,shape_dist_traveled,route_id,customer_route_name,project_subnet
0,8260DB003999,"Cooldrinagh Terrace, stop 3999",53.36183677,-6.483482274,12439.3.60-C5-b12-1.351.I,24:03:37,24:03:37,27, Ringsend Road,13514.85,60-C5-b12-1,C5,b12
1,8260DB004000,"Springfield Hotel, stop 4000",53.36053966,-6.478314833,12439.3.60-C5-b12-1.351.I,24:04:09,24:04:09,28, Ringsend Road,13887.04,60-C5-b12-1,C5,b12
2,8230DB004001,"Liffey Valley Golf, stop 4001",53.35892285,-6.472062381,12439.3.60-C5-b12-1.351.I,24:04:49,24:04:49,29, Ringsend Road,14348.24,60-C5-b12-1,C5,b12
3,8230DB003949,"Leixlip Road, stop 3949",53.35551692,-6.460211074,12439.3.60-C5-b12-1.351.I,24:06:09,24:06:09,30, Ringsend Road,15229.92,60-C5-b12-1,C5,b12
4,8230DB003950,"Ball Alley House, stop 3950",53.35560249,-6.455010094,12439.3.60-C5-b12-1.351.I,24:06:59,24:06:59,31, Ringsend Road,15587.87,60-C5-b12-1,C5,b12
5,8230DB003372,"Lucan Village, stop 3372",53.35656433,-6.448094691,12439.3.60-C5-b12-1.351.I,24:08:05,24:08:05,32, Ringsend Road,16059.48,60-C5-b12-1,C5,b12
6,8230DB003373,"Lucan Heights, stop 3373",53.35808279,-6.441849744,12439.3.60-C5-b12-1.351.I,24:09:04,24:09:04,33, Ringsend Road,16533.07,60-C5-b12-1,C5,b12
7,8230DB003374,"St Mary's Church, stop 3374",53.35963427,-6.439524473,12439.3.60-C5-b12-1.351.I,24:09:29,24:09:29,34, Ringsend Road,16764.42,60-C5-b12-1,C5,b12
8,8230DB002233,"Chalet Gardens, stop 2233",53.3600895,-6.435165776,12439.3.60-C5-b12-1.351.I,24:10:02,24:10:02,35, Ringsend Road,17060.36,60-C5-b12-1,C5,b12
9,8230DB002232,"Ballydowd Grove, stop 2232",53.35973763,-6.430956834,12439.3.60-C5-b12-1.351.I,24:10:32,24:10:32,36, Ringsend Road,17345.86,60-C5-b12-1,C5,b12
10,8230DB002234,"Lucan Retail Park, stop 2234",53.35933655,-6.424390974,12439.3.60-C5-b12-1.351.I,24:11:19,24:11:19,37, Ringsend Road,17783.18,60-C5-b12-1,C5,b12
11,8230DB002236,"Hermitage Bridge, stop 2236",53.35886946,-6.410856513,12439.3.60-C5-b12-1.351.I,24:12:43,24:12:43,38, Ringsend Road,18702.92,60-C5-b12-1,C5,b12
12,8230DB005056,"Hermitage Clinic, stop 5056",53.35752149,-6.402793928,12439.3.60-C5-b12-1.351.I,24:13:35,24:13:35,39, Ringsend Road,19261.59,60-C5-b12-1,C5,b12
13,8230DB002239,"Liffey Valley SC, stop 2239",53.35616847,-6.3917274,12439.3.60-C5-b12-1.351.I,24:14:44,24:14:44,40, Ringsend Road,20080.83,60-C5-b12-1,C5,b12
14,8230DB002241,"Kennelsfort Road, stop 2241",53.35492926,-6.371268023,12439.3.60-C5-b12-1.351.I,24:16:40,24:16:40,41, Ringsend Road,21500.25,60-C5-b12-1,C5,b12
15,8230DB002242,"The Oval, stop 2242",53.35392732,-6.367009818,12439.3.60-C5-b12-1.351.I,24:17:08,24:17:08,42, Ringsend Road,21805.65,60-C5-b12-1,C5,b12
16,8220DB002243,"Glenaulin, stop 2243",53.35197438,-6.355697995,12439.3.60-C5-b12-1.351.I,24:18:40,24:18:40,43, Ringsend Road,22599.29,60-C5-b12-1,C5,b12
17,8220DB002244,"Belgrove Park, stop 2244",53.35088435,-6.351609074,12439.3.60-C5-b12-1.351.I,24:19:14,24:19:14,44, Ringsend Road,22896.4,60-C5-b12-1,C5,b12
18,8220DB002245,"Laurence Brook, stop 2245",53.3494632,-6.348284211,12439.3.60-C5-b12-1.351.I,24:19:57,24:19:57,45, Ringsend Road,23168.74,60-C5-b12-1,C5,b12
19,8220DB002246,"Chapelizod, stop 2246",53.34831131,-6.343642354,12439.3.60-C5-b12-1.351.I,24:21:01,24:21:01,46, Ringsend Road,23581.76,60-C5-b12-1,C5,b12
20,8220DB002247,"St Mary's Hospital, stop 2247",53.34675286,-6.336282916,12439.3.60-C5-b12-1.351.I,24:21:46,24:21:46,47, Ringsend Road,24118.23,60-C5-b12-1,C5,b12
21,8220DB002248,"Military Road, stop 2248",53.34632093,-6.327888637,12439.3.60-C5-b12-1.351.I,24:22:33,24:22:33,48, Ringsend Road,24676.76,60-C5-b12-1,C5,b12
22,8220DB002249,"Garda Boat Club, stop 2249",53.3465317,-6.321136449,12439.3.60-C5-b12-1.351.I,24:23:00,24:23:00,49, Ringsend Road,25127.94,60-C5-b12-1,C5,b12
23,8220DB002250,"Salmon Pool, stop 2250",53.34743859,-6.31533304,12439.3.60-C5-b12-1.351.I,24:23:23,24:23:23,50, Ringsend Road,25526.81,60-C5-b12-1,C5,b12
24,8220DB002251,"Islandbridge Gate, stop 2251",53.34813204,-6.310979792,12439.3.60-C5-b12-1.351.I,24:23:51,24:23:51,51, Ringsend Road,25825.23,60-C5-b12-1,C5,b12
25,8220DB001472,"Conyngham Road, stop 1472",53.34842947,-6.30596617,12439.3.60-C5-b12-1.351.I,24:24:22,24:24:22,52, Ringsend Road,26159.14,60-C5-b12-1,C5,b12
26,8220DB004408,"Phoenix House, stop 4408",53.34833336,-6.30110331,12439.3.60-C5-b12-1.351.I,24:24:44,24:24:44,53, Ringsend Road,26481.18,60-C5-b12-1,C5,b12
27,8220DB001473,"Phoenix Park Gate, stop 1473",53.34830598,-6.298550899,12439.3.60-C5-b12-1.351.I,24:24:55,24:24:55,54, Ringsend Road,26650.63,60-C5-b12-1,C5,b12
28,8220DB001474,"Parkgate Street, stop 1474",53.34794792,-6.292361705,12439.3.60-C5-b12-1.351.I,24:25:55,24:25:55,55, Ringsend Road,27063.01,60-C5-b12-1,C5,b12
29,8220DB001476,"Sarsfield Quay, stop 1476",53.34707369,-6.284676275,12439.3.60-C5-b12-1.351.I,24:27:11,24:27:11,56, Ringsend Road,27591.27,60-C5-b12-1,C5,b12
30,8220DB007854,"Arran Quay, stop 7854",53.34636761,-6.278711665,12439.3.60-C5-b12-1.351.I,24:28:29,24:28:29,57, Ringsend Road,27994.01,60-C5-b12-1,C5,b12
31,8220DB007856,"Four Courts, stop 7856",53.34562262,-6.273184391,12439.3.60-C5-b12-1.351.I,24:29:22,24:29:22,58, Ringsend Road,28373.43,60-C5-b12-1,C5,b12
32,8220DB007883,"Ormond Quay, stop 7883",53.346058,-6.268495617,12439.3.60-C5-b12-1.351.I,24:30:50,24:30:50,59, Ringsend Road,28692.67,60-C5-b12-1,C5,b12
33,8220DB000315,"Bachelors Walk, stop 315",53.34702829,-6.261667155,12439.3.60-C5-b12-1.351.I,24:32:59,24:32:59,60, Ringsend Road,29162.87,60-C5-b12-1,C5,b12
34,8220DB000340,"Townsend Street, stop 340",53.34597512,-6.256017478,12439.3.60-C5-b12-1.351.I,24:36:27,24:36:27,61, Ringsend Road,29653.59,60-C5-b12-1,C5,b12
35,8220DB007861,"Prince's St South, stop 7861",53.34561679,-6.249348317,12439.3.60-C5-b12-1.351.I,24:37:35,24:37:35,62, Ringsend Road,30097.69,60-C5-b12-1,C5,b12
36,8220DB000351,"Erne Street, stop 351",53.34341826,-6.245308174,12439.3.60-C5-b12-1.351.I,24:38:35,24:38:35,63, Ringsend Road,30464.26,60-C5-b12-1,C5,b12
37,8220DB000352,"Pearse Square, stop 352",53.34298915,-6.24241214,12439.3.60-C5-b12-1.351.I,24:39:10,24:39:10,64, Ringsend Road,30665.32,60-C5-b12-1,C5,b12
38,8220DB000353,"Grand Canal Quay, stop 353",53.34264501,-6.239798018,12439.3.60-C5-b12-1.351.I,24:39:41,24:39:41,65, Ringsend Road,30841.59,60-C5-b12-1,C5,b12
39,8220DB000354,"Ringsend Road, stop 354",53.34223583,-6.23643569,12439.3.60-C5-b12-1.351.I,24:40:06,24:40:06,66, Ringsend Road,31069.64,60-C5-b12-1,C5,b12
40,8260DB003999,"Cooldrinagh Terrace, stop 3999",53.36183677,-6.483482274,12439.3.60-C5-d12-1.351.I,24:03:37,24:03:37,27, Ringsend Road,13514.85,60-C5-d12-1,C5,d12
41,8260DB004000,"Springfield Hotel, stop 4000",53.36053966,-6.478314833,12439.3.60-C5-d12-1.351.I,24:04:09,24:04:09,28, Ringsend Road,13887.04,60-C5-d12-1,C5,d12
42,8230DB004001,"Liffey Valley Golf, stop 4001",53.35892285,-6.472062381,12439.3.60-C5-d12-1.351.I,24:04:49,24:04:49,29, Ringsend Road,14348.24,60-C5-d12-1,C5,d12
43,8230DB003949,"Leixlip Road, stop 3949",53.35551692,-6.460211074,12439.3.60-C5-d12-1.351.I,24:06:09,24:06:09,30, Ringsend Road,15229.92,60-C5-d12-1,C5,d12
44,8230DB003950,"Ball Alley House, stop 3950",53.35560249,-6.455010094,12439.3.60-C5-d12-1.351.I,24:06:59,24:06:59,31, Ringsend Road,15587.87,60-C5-d12-1,C5,d12
45,8230DB003372,"Lucan Village, stop 3372",53.35656433,-6.448094691,12439.3.60-C5-d12-1.351.I,24:08:05,24:08:05,32, Ringsend Road,16059.48,60-C5-d12-1,C5,d12
46,8230DB003373,"Lucan Heights, stop 3373",53.35808279,-6.441849744,12439.3.60-C5-d12-1.351.I,24:09:04,24:09:04,33, Ringsend Road,16533.07,60-C5-d12-1,C5,d12
47,8230DB003374,"St Mary's Church, stop 3374",53.35963427,-6.439524473,12439.3.60-C5-d12-1.351.I,24:09:29,24:09:29,34, Ringsend Road,16764.42,60-C5-d12-1,C5,d12
48,8230DB002233,"Chalet Gardens, stop 2233",53.3600895,-6.435165776,12439.3.60-C5-d12-1.351.I,24:10:02,24:10:02,35, Ringsend Road,17060.36,60-C5-d12-1,C5,d12
49,8230DB002232,"Ballydowd Grove, stop 2232",53.35973763,-6.430956834,12439.3.60-C5-d12-1.351.I,24:10:32,24:10:32,36, Ringsend Road,17345.86,60-C5-d12-1,C5,d12
50,8230DB002234,"Lucan Retail Park, stop 2234",53.35933655,-6.424390974,12439.3.60-C5-d12-1.351.I,24:11:19,24:11:19,37, Ringsend Road,17783.18,60-C5-d12-1,C5,d12
51,8230DB002236,"Hermitage Bridge, stop 2236",53.35886946,-6.410856513,12439.3.60-C5-d12-1.351.I,24:12:43,24:12:43,38, Ringsend Road,18702.92,60-C5-d12-1,C5,d12
52,8230DB005056,"Hermitage Clinic, stop 5056",53.35752149,-6.402793928,12439.3.60-C5-d12-1.351.I,24:13:35,24:13:35,39, Ringsend Road,19261.59,60-C5-d12-1,C5,d12
53,8230DB002239,"Liffey Valley SC, stop 2239",53.35616847,-6.3917274,12439.3.60-C5-d12-1.351.I,24:14:44,24:14:44,40, Ringsend Road,20080.83,60-C5-d12-1,C5,d12
54,8230DB002241,"Kennelsfort Road, stop 2241",53.35492926,-6.371268023,12439.3.60-C5-d12-1.351.I,24:16:40,24:16:40,41, Ringsend Road,21500.25,60-C5-d12-1,C5,d12
55,8230DB002242,"The Oval, stop 2242",53.35392732,-6.367009818,12439.3.60-C5-d12-1.351.I,24:17:08,24:17:08,42, Ringsend Road,21805.65,60-C5-d12-1,C5,d12
56,8220DB002243,"Glenaulin, stop 2243",53.35197438,-6.355697995,12439.3.60-C5-d12-1.351.I,24:18:40,24:18:40,43, Ringsend Road,22599.29,60-C5-d12-1,C5,d12
57,8220DB002244,"Belgrove Park, stop 2244",53.35088435,-6.351609074,12439.3.60-C5-d12-1.351.I,24:19:14,24:19:14,44, Ringsend Road,22896.4,60-C5-d12-1,C5,d12
58,8220DB002245,"Laurence Brook, stop 2245",53.3494632,-6.348284211,12439.3.60-C5-d12-1.351.I,24:19:57,24:19:57,45, Ringsend Road,23168.74,60-C5-d12-1,C5,d12
59,8220DB002246,"Chapelizod, stop 2246",53.34831131,-6.343642354,12439.3.60-C5-d12-1.351.I,24:21:01,24:21:01,46, Ringsend Road,23581.76,60-C5-d12-1,C5,d12
60,8220DB002247,"St Mary's Hospital, stop 2247",53.34675286,-6.336282916,12439.3.60-C5-d12-1.351.I,24:21:46,24:21:46,47, Ringsend Road,24118.23,60-C5-d12-1,C5,d12
61,8220DB002248,"Military Road, stop 2248",53.34632093,-6.327888637,12439.3.60-C5-d12-1.351.I,24:22:33,24:22:33,48, Ringsend Road,24676.76,60-C5-d12-1,C5,d12
62,8220DB002249,"Garda Boat Club, stop 2249",53.3465317,-6.321136449,12439.3.60-C5-d12-1.351.I,24:23:00,24:23:00,49, Ringsend Road,25127.94,60-C5-d12-1,C5,d12
63,8220DB002250,"Salmon Pool, stop 2250",53.34743859,-6.31533304,12439.3.60-C5-d12-1.351.I,24:23:23,24:23:23,50, Ringsend Road,25526.81,60-C5-d12-1,C5,d12
64,8220DB002251,"Islandbridge Gate, stop 2251",53.34813204,-6.310979792,12439.3.60-C5-d12-1.351.I,24:23:51,24:23:51,51, Ringsend Road,25825.23,60-C5-d12-1,C5,d12
65,8220DB001472,"Conyngham Road, stop 1472",53.34842947,-6.30596617,12439.3.60-C5-d12-1.351.I,24:24:22,24:24:22,52, Ringsend Road,26159.14,60-C5-d12-1,C5,d12
66,8220DB004408,"Phoenix House, stop 4408",53.34833336,-6.30110331,12439.3.60-C5-d12-1.351.I,24:24:44,24:24:44,53, Ringsend Road,26481.18,60-C5-d12-1,C5,d12
67,8220DB001473,"Phoenix Park Gate, stop 1473",53.34830598,-6.298550899,12439.3.60-C5-d12-1.351.I,24:24:55,24:24:55,54, Ringsend Road,26650.63,60-C5-d12-1,C5,d12
68,8220DB001474,"Parkgate Street, stop 1474",53.34794792,-6.292361705,12439.3.60-C5-d12-1.351.I,24:25:55,24:25:55,55, Ringsend Road,27063.01,60-C5-d12-1,C5,d12
69,8220DB001476,"Sarsfield Quay, stop 1476",53.34707369,-6.284676275,12439.3.60-C5-d12-1.351.I,24:27:11,24:27:11,56, Ringsend Road,27591.27,60-C5-d12-1,C5,d12
70,8220DB007854,"Arran Quay, stop 7854",53.34636761,-6.278711665,12439.3.60-C5-d12-1.351.I,24:28:29,24:28:29,57, Ringsend Road,27994.01,60-C5-d12-1,C5,d12
71,8220DB007856,"Four Courts, stop 7856",53.34562262,-6.273184391,12439.3.60-C5-d12-1.351.I,24:29:22,24:29:22,58, Ringsend Road,28373.43,60-C5-d12-1,C5,d12
72,8220DB007883,"Ormond Quay, stop 7883",53.346058,-6.268495617,12439.3.60-C5-d12-1.351.I,24:30:50,24:30:50,59, Ringsend Road,28692.67,60-C5-d12-1,C5,d12
73,8220DB000315,"Bachelors Walk, stop 315",53.34702829,-6.261667155,12439.3.60-C5-d12-1.351.I,24:32:59,24:32:59,60, Ringsend Road,29162.87,60-C5-d12-1,C5,d12
74,8220DB000340,"Townsend Street, stop 340",53.34597512,-6.256017478,12439.3.60-C5-d12-1.351.I,24:36:27,24:36:27,61, Ringsend Road,29653.59,60-C5-d12-1,C5,d12
75,8220DB007861,"Prince's St South, stop 7861",53.34561679,-6.249348317,12439.3.60-C5-d12-1.351.I,24:37:35,24:37:35,62, Ringsend Road,30097.69,60-C5-d12-1,C5,d12
76,8220DB000351,"Erne Street, stop 351",53.34341826,-6.245308174,12439.3.60-C5-d12-1.351.I,24:38:35,24:38:35,63, Ringsend Road,30464.26,60-C5-d12-1,C5,d12
77,8220DB000352,"Pearse Square, stop 352",53.34298915,-6.24241214,12439.3.60-C5-d12-1.351.I,24:39:10,24:39:10,64, Ringsend Road,30665.32,60-C5-d12-1,C5,d12
78,8220DB000353,"Grand Canal Quay, stop 353",53.34264501,-6.239798018,12439.3.60-C5-d12-1.351.I,24:39:41,24:39:41,65, Ringsend Road,30841.59,60-C5-d12-1,C5,d12
79,8220DB000354,"Ringsend Road, stop 354",53.34223583,-6.23643569,12439.3.60-C5-d12-1.351.I,24:40:06,24:40:06,66, Ringsend Road,31069.64,60-C5-d12-1,C5,d12
80,8260DB003999,"Cooldrinagh Terrace, stop 3999",53.36183677,-6.483482274,12441.3.60-C5-b12-1.351.I,27:02:09,27:02:09,27, Ringsend Road,13514.85,60-C5-b12-1,C5,b12
81,8260DB004000,"Springfield Hotel, stop 4000",53.36053966,-6.478314833,12441.3.60-C5-b12-1.351.I,27:02:37,27:02:37,28, Ringsend Road,13887.04,60-C5-b12-1,C5,b12
82,8230DB004001,"Liffey Valley Golf, stop 4001",53.35892285,-6.472062381,12441.3.60-C5-b12-1.351.I,27:03:12,27:03:12,29, Ringsend Road,14348.24,60-C5-b12-1,C5,b12
83,8230DB003949,"Leixlip Road, stop 3949",53.35551692,-6.460211074,12441.3.60-C5-b12-1.351.I,27:04:31,27:04:31,30, Ringsend Road,15229.92,60-C5-b12-1,C5,b12
84,8230DB003950,"Ball Alley House, stop 3950",53.35560249,-6.455010094,12441.3.60-C5-b12-1.351.I,27:05:04,27:05:04,31, Ringsend Road,15587.87,60-C5-b12-1,C5,b12
85,8230DB003372,"Lucan Village, stop 3372",53.35656433,-6.448094691,12441.3.60-C5-b12-1.351.I,27:05:47,27:05:47,32, Ringsend Road,16059.48,60-C5-b12-1,C5,b12
86,8230DB003373,"Lucan Heights, stop 3373",53.35808279,-6.441849744,12441.3.60-C5-b12-1.351.I,27:06:38,27:06:38,33, Ringsend Road,16533.07,60-C5-b12-1,C5,b12
87,8230DB003374,"St Mary's Church, stop 3374",53.35963427,-6.439524473,12441.3.60-C5-b12-1.351.I,27:07:03,27:07:03,34, Ringsend Road,16764.42,60-C5-b12-1,C5,b12
88,8230DB002233,"Chalet Gardens, stop 2233",53.3600895,-6.435165776,12441.3.60-C5-b12-1.351.I,27:07:35,27:07:35,35, Ringsend Road,17060.36,60-C5-b12-1,C5,b12
89,8230DB002232,"Ballydowd Grove, stop 2232",53.35973763,-6.430956834,12441.3.60-C5-b12-1.351.I,27:08:23,27:08:23,36, Ringsend Road,17345.86,60-C5-b12-1,C5,b12
90,8230DB002234,"Lucan Retail Park, stop 2234",53.35933655,-6.424390974,12441.3.60-C5-b12-1.351.I,27:09:37,27:09:37,37, Ringsend Road,17783.18,60-C5-b12-1,C5,b12
91,8230DB002236,"Hermitage Bridge, stop 2236",53.35886946,-6.410856513,12441.3.60-C5-b12-1.351.I,27:10:46,27:10:46,38, Ringsend Road,18702.92,60-C5-b12-1,C5,b12
92,8230DB005056,"Hermitage Clinic, stop 5056",53.35752149,-6.402793928,12441.3.60-C5-b12-1.351.I,27:11:28,27:11:28,39, Ringsend Road,19261.59,60-C5-b12-1,C5,b12
93,8230DB002239,"Liffey Valley SC, stop 2239",53.35616847,-6.3917274,12441.3.60-C5-b12-1.351.I,27:12:37,27:12:37,40, Ringsend Road,20080.83,60-C5-b12-1,C5,b12
94,8230DB002241,"Kennelsfort Road, stop 2241",53.35492926,-6.371268023,12441.3.60-C5-b12-1.351.I,27:14:28,27:14:28,41, Ringsend Road,21500.25,60-C5-b12-1,C5,b12
95,8230DB002242,"The Oval, stop 2242",53.35392732,-6.367009818,12441.3.60-C5-b12-1.351.I,27:14:53,27:14:53,42, Ringsend Road,21805.65,60-C5-b12-1,C5,b12
96,8220DB002243,"Glenaulin, stop 2243",53.35197438,-6.355697995,12441.3.60-C5-b12-1.351.I,27:16:29,27:16:29,43, Ringsend Road,22599.29,60-C5-b12-1,C5,b12
97,8220DB002244,"Belgrove Park, stop 2244",53.35088435,-6.351609074,12441.3.60-C5-b12-1.351.I,27:17:05,27:17:05,44, Ringsend Road,22896.4,60-C5-b12-1,C5,b12
98,8220DB002245,"Laurence Brook, stop 2245",53.3494632,-6.348284211,12441.3.60-C5-b12-1.351.I,27:17:33,27:17:33,45, Ringsend Road,23168.74,60-C5-b12-1,C5,b12
99,8220DB002246,"Chapelizod, stop 2246",53.34831131,-6.343642354,12441.3.60-C5-b12-1.351.I,27:18:15,27:18:15,46, Ringsend Road,23581.76,60-C5-b12-1,C5,b12
100,8220DB002247,"St Mary's Hospital, stop 2247",53.34675286,-6.336282916,12441.3.60-C5-b12-1.351.I,27:18:50,27:18:50,47, Ringsend Road,24118.23,60-C5-b12-1,C5,b12
101,8220DB002248,"Military Road, stop 2248",53.34632093,-6.327888637,12441.3.60-C5-b12-1.351.I,27:19:26,27:19:26,48, Ringsend Road,24676.76,60-C5-b12-1,C5,b12
102,8220DB002249,"Garda Boat Club, stop 2249",53.3465317,-6.321136449,12441.3.60-C5-b12-1.351.I,27:19:49,27:19:49,49, Ringsend Road,25127.94,60-C5-b12-1,C5,b12
103,8220DB002250,"Salmon Pool, stop 2250",53.34743859,-6.31533304,12441.3.60-C5-b12-1.351.I,27:20:10,27:20:10,50, Ringsend Road,25526.81,60-C5-b12-1,C5,b12
104,8220DB002251,"Islandbridge Gate, stop 2251",53.34813204,-6.310979792,12441.3.60-C5-b12-1.351.I,27:20:32,27:20:32,51, Ringsend Road,25825.23,60-C5-b12-1,C5,b12
105,8220DB001472,"Conyngham Road, stop 1472",53.34842947,-6.30596617,12441.3.60-C5-b12-1.351.I,27:20:56,27:20:56,52, Ringsend Road,26159.14,60-C5-b12-1,C5,b12
106,8220DB004408,"Phoenix House, stop 4408",53.34833336,-6.30110331,12441.3.60-C5-b12-1.351.I,27:21:16,27:21:16,53, Ringsend Road,26481.18,60-C5-b12-1,C5,b12
107,8220DB001473,"Phoenix Park Gate, stop 1473",53.34830598,-6.298550899,12441.3.60-C5-b12-1.351.I,27:21:26,27:21:26,54, Ringsend Road,26650.63,60-C5-b12-1,C5,b12
108,8220DB001474,"Parkgate Street, stop 1474",53.34794792,-6.292361705,12441.3.60-C5-b12-1.351.I,27:22:18,27:22:18,55, Ringsend Road,27063.01,60-C5-b12-1,C5,b12
109,8220DB001476,"Sarsfield Quay, stop 1476",53.34707369,-6.284676275,12441.3.60-C5-b12-1.351.I,27:23:24,27:23:24,56, Ringsend Road,27591.27,60-C5-b12-1,C5,b12
110,8220DB007854,"Arran Quay, stop 7854",53.34636761,-6.278711665,12441.3.60-C5-b12-1.351.I,27:25:06,27:25:06,57, Ringsend Road,27994.01,60-C5-b12-1,C5,b12
111,8220DB007856,"Four Courts, stop 7856",53.34562262,-6.273184391,12441.3.60-C5-b12-1.351.I,27:25:39,27:25:39,58, Ringsend Road,28373.43,60-C5-b12-1,C5,b12
112,8220DB007883,"Ormond Quay, stop 7883",53.346058,-6.268495617,12441.3.60-C5-b12-1.351.I,27:27:17,27:27:17,59, Ringsend Road,28692.67,60-C5-b12-1,C5,b12
113,8220DB000315,"Bachelors Walk, stop 315",53.34702829,-6.261667155,12441.3.60-C5-b12-1.351.I,27:29:41,27:29:41,60, Ringsend Road,29162.87,60-C5-b12-1,C5,b12
114,8220DB000340,"Townsend Street, stop 340",53.34597512,-6.256017478,12441.3.60-C5-b12-1.351.I,27:33:59,27:33:59,61, Ringsend Road,29653.59,60-C5-b12-1,C5,b12
115,8220DB007861,"Prince's St South, stop 7861",53.34561679,-6.249348317,12441.3.60-C5-b12-1.351.I,27:35:03,27:35:03,62, Ringsend Road,30097.69,60-C5-b12-1,C5,b12
116,8220DB000351,"Erne Street, stop 351",53.34341826,-6.245308174,12441.3.60-C5-b12-1.351.I,27:35:59,27:35:59,63, Ringsend Road,30464.26,60-C5-b12-1,C5,b12
117,8220DB000352,"Pearse Square, stop 352",53.34298915,-6.24241214,12441.3.60-C5-b12-1.351.I,27:36:31,27:36:31,64, Ringsend Road,30665.32,60-C5-b12-1,C5,b12
118,8220DB000353,"Grand Canal Quay, stop 353",53.34264501,-6.239798018,12441.3.60-C5-b12-1.351.I,27:36:59,27:36:59,65, Ringsend Road,30841.59,60-C5-b12-1,C5,b12
119,8220DB000354,"Ringsend Road, stop 354",53.34223583,-6.23643569,12441.3.60-C5-b12-1.351.I,27:37:25,27:37:25,66, Ringsend Road,31069.64,60-C5-b12-1,C5,b12
120,8260DB003999,"Cooldrinagh Terrace, stop 3999",53.36183677,-6.483482274,12441.3.60-C5-d12-1.351.I,27:02:09,27:02:09,27, Ringsend Road,13514.85,60-C5-d12-1,C5,d12
121,8260DB004000,"Springfield Hotel, stop 4000",53.36053966,-6.478314833,12441.3.60-C5-d12-1.351.I,27:02:37,27:02:37,28, Ringsend Road,13887.04,60-C5-d12-1,C5,d12
122,8230DB004001,"Liffey Valley Golf, stop 4001",53.35892285,-6.472062381,12441.3.60-C5-d12-1.351.I,27:03:12,27:03:12,29, Ringsend Road,14348.24,60-C5-d12-1,C5,d12
123,8230DB003949,"Leixlip Road, stop 3949",53.35551692,-6.460211074,12441.3.60-C5-d12-1.351.I,27:04:31,27:04:31,30, Ringsend Road,15229.92,60-C5-d12-1,C5,d12
124,8230DB003950,"Ball Alley House, stop 3950",53.35560249,-6.455010094,12441.3.60-C5-d12-1.351.I,27:05:04,27:05:04,31, Ringsend Road,15587.87,60-C5-d12-1,C5,d12
125,8230DB003372,"Lucan Village, stop 3372",53.35656433,-6.448094691,12441.3.60-C5-d12-1.351.I,27:05:47,27:05:47,32, Ringsend Road,16059.48,60-C5-d12-1,C5,d12
126,8230DB003373,"Lucan Heights, stop 3373",53.35808279,-6.441849744,12441.3.60-C5-d12-1.351.I,27:06:38,27:06:38,33, Ringsend Road,16533.07,60-C5-d12-1,C5,d12
127,8230DB003374,"St Mary's Church, stop 3374",53.35963427,-6.439524473,12441.3.60-C5-d12-1.351.I,27:07:03,27:07:03,34, Ringsend Road,16764.42,60-C5-d12-1,C5,d12
128,8230DB002233,"Chalet Gardens, stop 2233",53.3600895,-6.435165776,12441.3.60-C5-d12-1.351.I,27:07:35,27:07:35,35, Ringsend Road,17060.36,60-C5-d12-1,C5,d12
129,8230DB002232,"Ballydowd Grove, stop 2232",53.35973763,-6.430956834,12441.3.60-C5-d12-1.351.I,27:08:23,27:08:23,36, Ringsend Road,17345.86,60-C5-d12-1,C5,d12
130,8230DB002234,"Lucan Retail Park, stop 2234",53.35933655,-6.424390974,12441.3.60-C5-d12-1.351.I,27:09:37,27:09:37,37, Ringsend Road,17783.18,60-C5-d12-1,C5,d12
131,8230DB002236,"Hermitage Bridge, stop 2236",53.35886946,-6.410856513,12441.3.60-C5-d12-1.351.I,27:10:46,27:10:46,38, Ringsend Road,18702.92,60-C5-d12-1,C5,d12
132,8230DB005056,"Hermitage Clinic, stop 5056",53.35752149,-6.402793928,12441.3.60-C5-d12-1.351.I,27:11:28,27:11:28,39, Ringsend Road,19261.59,60-C5-d12-1,C5,d12
133,8230DB002239,"Liffey Valley SC, stop 2239",53.35616847,-6.3917274,12441.3.60-C5-d12-1.351.I,27:12:37,27:12:37,40, Ringsend Road,20080.83,60-C5-d12-1,C5,d12
134,8230DB002241,"Kennelsfort Road, stop 2241",53.35492926,-6.371268023,12441.3.60-C5-d12-1.351.I,27:14:28,27:14:28,41, Ringsend Road,21500.25,60-C5-d12-1,C5,d12
135,8230DB002242,"The Oval, stop 2242",53.35392732,-6.367009818,12441.3.60-C5-d12-1.351.I,27:14:53,27:14:53,42, Ringsend Road,21805.65,60-C5-d12-1,C5,d12
136,8220DB002243,"Glenaulin, stop 2243",53.35197438,-6.355697995,12441.3.60-C5-d12-1.351.I,27:16:29,27:16:29,43, Ringsend Road,22599.29,60-C5-d12-1,C5,d12
137,8220DB002244,"Belgrove Park, stop 2244",53.35088435,-6.351609074,12441.3.60-C5-d12-1.351.I,27:17:05,27:17:05,44, Ringsend Road,22896.4,60-C5-d12-1,C5,d12
138,8220DB002245,"Laurence Brook, stop 2245",53.3494632,-6.348284211,12441.3.60-C5-d12-1.351.I,27:17:33,27:17:33,45, Ringsend Road,23168.74,60-C5-d12-1,C5,d12
139,8220DB002246,"Chapelizod, stop 2246",53.34831131,-6.343642354,12441.3.60-C5-d12-1.351.I,27:18:15,27:18:15,46, Ringsend Road,23581.76,60-C5-d12-1,C5,d12
140,8220DB002247,"St Mary's Hospital, stop 2247",53.34675286,-6.336282916,12441.3.60-C5-d12-1.351.I,27:18:50,27:18:50,47, Ringsend Road,24118.23,60-C5-d12-1,C5,d12
141,8220DB002248,"Military Road, stop 2248",53.34632093,-6.327888637,12441.3.60-C5-d12-1.351.I,27:19:26,27:19:26,48, Ringsend Road,24676.76,60-C5-d12-1,C5,d12
142,8220DB002249,"Garda Boat Club, stop 2249",53.3465317,-6.321136449,12441.3.60-C5-d12-1.351.I,27:19:49,27:19:49,49, Ringsend Road,25127.94,60-C5-d12-1,C5,d12
143,8220DB002250,"Salmon Pool, stop 2250",53.34743859,-6.31533304,12441.3.60-C5-d12-1.351.I,27:20:10,27:20:10,50, Ringsend Road,25526.81,60-C5-d12-1,C5,d12
144,8220DB002251,"Islandbridge Gate, stop 2251",53.34813204,-6.310979792,12441.3.60-C5-d12-1.351.I,27:20:32,27:20:32,51, Ringsend Road,25825.23,60-C5-d12-1,C5,d12
145,8220DB001472,"Conyngham Road, stop 1472",53.34842947,-6.30596617,12441.3.60-C5-d12-1.351.I,27:20:56,27:20:56,52, Ringsend Road,26159.14,60-C5-d12-1,C5,d12
146,8220DB004408,"Phoenix House, stop 4408",53.34833336,-6.30110331,12441.3.60-C5-d12-1.351.I,27:21:16,27:21:16,53, Ringsend Road,26481.18,60-C5-d12-1,C5,d12
147,8220DB001473,"Phoenix Park Gate, stop 1473",53.34830598,-6.298550899,12441.3.60-C5-d12-1.351.I,27:21:26,27:21:26,54, Ringsend Road,26650.63,60-C5-d12-1,C5,d12
148,8220DB001474,"Parkgate Street, stop 1474",53.34794792,-6.292361705,12441.3.60-C5-d12-1.351.I,27:22:18,27:22:18,55, Ringsend Road,27063.01,60-C5-d12-1,C5,d12
149,8220DB001476,"Sarsfield Quay, stop 1476",53.34707369,-6.284676275,12441.3.60-C5-d12-1.351.I,27:23:24,27:23:24,56, Ringsend Road,27591.27,60-C5-d12-1,C5,d12
150,8220DB007854,"Arran Quay, stop 7854",53.34636761,-6.278711665,12441.3.60-C5-d12-1.351.I,27:25:06,27:25:06,57, Ringsend Road,27994.01,60-C5-d12-1,C5,d12
151,8220DB007856,"Four Courts, stop 7856",53.34562262,-6.273184391,12441.3.60-C5-d12-1.351.I,27:25:39,27:25:39,58, Ringsend Road,28373.43,60-C5-d12-1,C5,d12
152,8220DB007883,"Ormond Quay, stop 7883",53.346058,-6.268495617,12441.3.60-C5-d12-1.351.I,27:27:17,27:27:17,59, Ringsend Road,28692.67,60-C5-d12-1,C5,d12
153,8220DB000315,"Bachelors Walk, stop 315",53.34702829,-6.261667155,12441.3.60-C5-d12-1.351.I,27:29:41,27:29:41,60, Ringsend Road,29162.87,60-C5-d12-1,C5,d12
154,8220DB000340,"Townsend Street, stop 340",53.34597512,-6.256017478,12441.3.60-C5-d12-1.351.I,27:33:59,27:33:59,61, Ringsend Road,29653.59,60-C5-d12-1,C5,d12
155,8220DB007861,"Prince's St South, stop 7861",53.34561679,-6.249348317,12441.3.60-C5-d12-1.351.I,27:35:03,27:35:03,62, Ringsend Road,30097.69,60-C5-d12-1,C5,d12
156,8220DB000351,"Erne Street, stop 351",53.34341826,-6.245308174,12441.3.60-C5-d12-1.351.I,27:35:59,27:35:59,63, Ringsend Road,30464.26,60-C5-d12-1,C5,d12
157,8220DB000352,"Pearse Square, stop 352",53.34298915,-6.24241214,12441.3.60-C5-d12-1.351.I,27:36:31,27:36:31,64, Ringsend Road,30665.32,60-C5-d12-1,C5,d12
158,8220DB000353,"Grand Canal Quay, stop 353",53.34264501,-6.239798018,12441.3.60-C5-d12-1.351.I,27:36:59,27:36:59,65, Ringsend Road,30841.59,60-C5-d12-1,C5,d12
159,8220DB000354,"Ringsend Road, stop 354",53.34223583,-6.23643569,12441.3.60-C5-d12-1.351.I,27:37:25,27:37:25,66, Ringsend Road,31069.64,60-C5-d12-1,C5,d12
344,8260DB003999,"Cooldrinagh Terrace, stop 3999",53.36183677,-6.483482274,12449.3.60-C5-b12-1.351.I,26:02:09,26:02:09,27, Ringsend Road,13514.85,60-C5-b12-1,C5,b12
345,8260DB004000,"Springfield Hotel, stop 4000",53.36053966,-6.478314833,12449.3.60-C5-b12-1.351.I,26:02:37,26:02:37,28, Ringsend Road,13887.04,60-C5-b12-1,C5,b12
346,8230DB004001,"Liffey Valley Golf, stop 4001",53.35892285,-6.472062381,12449.3.60-C5-b12-1.351.I,26:03:12,26:03:12,29, Ringsend Road,14348.24,60-C5-b12-1,C5,b12
347,8230DB003949,"Leixlip Road, stop 3949",53.35551692,-6.460211074,12449.3.60-C5-b12-1.351.I,26:04:31,26:04:31,30, Ringsend Road,15229.92,60-C5-b12-1,C5,b12
348,8230DB003950,"Ball Alley House, stop 3950",53.35560249,-6.455010094,12449.3.60-C5-b12-1.351.I,26:05:04,26:05:04,31, Ringsend Road,15587.87,60-C5-b12-1,C5,b12
349,8230DB003372,"Lucan Village, stop 3372",53.35656433,-6.448094691,12449.3.60-C5-b12-1.351.I,26:05:47,26:05:47,32, Ringsend Road,16059.48,60-C5-b12-1,C5,b12
350,8230DB003373,"Lucan Heights, stop 3373",53.35808279,-6.441849744,12449.3.60-C5-b12-1.351.I,26:06:38,26:06:38,33, Ringsend Road,16533.07,60-C5-b12-1,C5,b12
351,8230DB003374,"St Mary's Church, stop 3374",53.35963427,-6.439524473,12449.3.60-C5-b12-1.351.I,26:07:03,26:07:03,34, Ringsend Road,16764.42,60-C5-b12-1,C5,b12
352,8230DB002233,"Chalet Gardens, stop 2233",53.3600895,-6.435165776,12449.3.60-C5-b12-1.351.I,26:07:35,26:07:35,35, Ringsend Road,17060.36,60-C5-b12-1,C5,b12
353,8230DB002232,"Ballydowd Grove, stop 2232",53.35973763,-6.430956834,12449.3.60-C5-b12-1.351.I,26:08:23,26:08:23,36, Ringsend Road,17345.86,60-C5-b12-1,C5,b12
354,8230DB002234,"Lucan Retail Park, stop 2234",53.35933655,-6.424390974,12449.3.60-C5-b12-1.351.I,26:09:37,26:09:37,37, Ringsend Road,17783.18,60-C5-b12-1,C5,b12
355,8230DB002236,"Hermitage Bridge, stop 2236",53.35886946,-6.410856513,12449.3.60-C5-b12-1.351.I,26:10:46,26:10:46,38, Ringsend Road,18702.92,60-C5-b12-1,C5,b12
356,8230DB005056,"Hermitage Clinic, stop 5056",53.35752149,-6.402793928,12449.3.60-C5-b12-1.351.I,26:11:28,26:11:28,39, Ringsend Road,19261.59,60-C5-b12-1,C5,b12
357,8230DB002239,"Liffey Valley SC, stop 2239",53.35616847,-6.3917274,12449.3.60-C5-b12-1.351.I,26:12:37,26:12:37,40, Ringsend Road,20080.83,60-C5-b12-1,C5,b12
358,8230DB002241,"Kennelsfort Road, stop 2241",53.35492926,-6.371268023,12449.3.60-C5-b12-1.351.I,26:14:28,26:14:28,41, Ringsend Road,21500.25,60-C5-b12-1,C5,b12
359,8230DB002242,"The Oval, stop 2242",53.35392732,-6.367009818,12449.3.60-C5-b12-1.351.I,26:14:53,26:14:53,42, Ringsend Road,21805.65,60-C5-b12-1,C5,b12
360,8220DB002243,"Glenaulin, stop 2243",53.35197438,-6.355697995,12449.3.60-C5-b12-1.351.I,26:16:29,26:16:29,43, Ringsend Road,22599.29,60-C5-b12-1,C5,b12
361,8220DB002244,"Belgrove Park, stop 2244",53.35088435,-6.351609074,12449.3.60-C5-b12-1.351.I,26:17:05,26:17:05,44, Ringsend Road,22896.4,60-C5-b12-1,C5,b12
362,8220DB002245,"Laurence Brook, stop 2245",53.3494632,-6.348284211,12449.3.60-C5-b12-1.351.I,26:17:33,26:17:33,45, Ringsend Road,23168.74,60-C5-b12-1,C5,b12
363,8220DB002246,"Chapelizod, stop 2246",53.34831131,-6.343642354,12449.3.60-C5-b12-1.351.I,26:18:15,26:18:15,46, Ringsend Road,23581.76,60-C5-b12-1,C5,b12
364,8220DB002247,"St Mary's Hospital, stop 2247",53.34675286,-6.336282916,12449.3.60-C5-b12-1.351.I,26:18:50,26:18:50,47, Ringsend Road,24118.23,60-C5-b12-1,C5,b12
365,8220DB002248,"Military Road, stop 2248",53.34632093,-6.327888637,12449.3.60-C5-b12-1.351.I,26:19:26,26:19:26,48, Ringsend Road,24676.76,60-C5-b12-1,C5,b12
366,8220DB002249,"Garda Boat Club, stop 2249",53.3465317,-6.321136449,12449.3.60-C5-b12-1.351.I,26:19:49,26:19:49,49, Ringsend Road,25127.94,60-C5-b12-1,C5,b12
367,8220DB002250,"Salmon Pool, stop 2250",53.34743859,-6.31533304,12449.3.60-C5-b12-1.351.I,26:20:10,26:20:10,50, Ringsend Road,25526.81,60-C5-b12-1,C5,b12
368,8220DB002251,"Islandbridge Gate, stop 2251",53.34813204,-6.310979792,12449.3.60-C5-b12-1.351.I,26:20:32,26:20:32,51, Ringsend Road,25825.23,60-C5-b12-1,C5,b12
369,8220DB001472,"Conyngham Road, stop 1472",53.34842947,-6.30596617,12449.3.60-C5-b12-1.351.I,26:20:56,26:20:56,52, Ringsend Road,26159.14,60-C5-b12-1,C5,b12
370,8220DB004408,"Phoenix House, stop 4408",53.34833336,-6.30110331,12449.3.60-C5-b12-1.351.I,26:21:16,26:21:16,53, Ringsend Road,26481.18,60-C5-b12-1,C5,b12
371,8220DB001473,"Phoenix Park Gate, stop 1473",53.34830598,-6.298550899,12449.3.60-C5-b12-1.351.I,26:21:26,26:21:26,54, Ringsend Road,26650.63,60-C5-b12-1,C5,b12
372,8220DB001474,"Parkgate Street, stop 1474",53.34794792,-6.292361705,12449.3.60-C5-b12-1.351.I,26:22:18,26:22:18,55, Ringsend Road,27063.01,60-C5-b12-1,C5,b12
373,8220DB001476,"Sarsfield Quay, stop 1476",53.34707369,-6.284676275,12449.3.60-C5-b12-1.351.I,26:23:24,26:23:24,56, Ringsend Road,27591.27,60-C5-b12-1,C5,b12
374,8220DB007854,"Arran Quay, stop 7854",53.34636761,-6.278711665,12449.3.60-C5-b12-1.351.I,26:25:06,26:25:06,57, Ringsend Road,27994.01,60-C5-b12-1,C5,b12
375,8220DB007856,"Four Courts, stop 7856",53.34562262,-6.273184391,12449.3.60-C5-b12-1.351.I,26:25:39,26:25:39,58, Ringsend Road,28373.43,60-C5-b12-1,C5,b12
376,8220DB007883,"Ormond Quay, stop 7883",53.346058,-6.268495617,12449.3.60-C5-b12-1.351.I,26:27:17,26:27:17,59, Ringsend Road,28692.67,60-C5-b12-1,C5,b12
377,8220DB000315,"Bachelors Walk, stop 315",53.34702829,-6.261667155,12449.3.60-C5-b12-1.351.I,26:29:41,26:29:41,60, Ringsend Road,29162.87,60-C5-b12-1,C5,b12
378,8220DB000340,"Townsend Street, stop 340",53.34597512,-6.256017478,12449.3.60-C5-b12-1.351.I,26:33:59,26:33:59,61, Ringsend Road,29653.59,60-C5-b12-1,C5,b12
379,8220DB007861,"Prince's St South, stop 7861",53.34561679,-6.249348317,12449.3.60-C5-b12-1.351.I,26:35:03,26:35:03,62, Ringsend Road,30097.69,60-C5-b12-1,C5,b12
380,8220DB000351,"Erne Street, stop 351",53.34341826,-6.245308174,12449.3.60-C5-b12-1.351.I,26:35:59,26:35:59,63, Ringsend Road,30464.26,60-C5-b12-1,C5,b12
381,8220DB000352,"Pearse Square, stop 352",53.34298915,-6.24241214,12449.3.60-C5-b12-1.351.I,26:36:31,26:36:31,64, Ringsend Road,30665.32,60-C5-b12-1,C5,b12
382,8220DB000353,"Grand Canal Quay, stop 353",53.34264501,-6.239798018,12449.3.60-C5-b12-1.351.I,26:36:59,26:36:59,65, Ringsend Road,30841.59,60-C5-b12-1,C5,b12
383,8220DB000354,"Ringsend Road, stop 354",53.34223583,-6.23643569,12449.3.60-C5-b12-1.351.I,26:37:25,26:37:25,66, Ringsend Road,31069.64,60-C5-b12-1,C5,b12
384,8260DB003999,"Cooldrinagh Terrace, stop 3999",53.36183677,-6.483482274,12449.3.60-C5-d12-1.351.I,26:02:09,26:02:09,27, Ringsend Road,13514.85,60-C5-d12-1,C5,d12
385,8260DB004000,"Springfield Hotel, stop 4000",53.36053966,-6.478314833,12449.3.60-C5-d12-1.351.I,26:02:37,26:02:37,28, Ringsend Road,13887.04,60-C5-d12-1,C5,d12
386,8230DB004001,"Liffey Valley Golf, stop 4001",53.35892285,-6.472062381,12449.3.60-C5-d12-1.351.I,26:03:12,26:03:12,29, Ringsend Road,14348.24,60-C5-d12-1,C5,d12
387,8230DB003949,"Leixlip Road, stop 3949",53.35551692,-6.460211074,12449.3.60-C5-d12-1.351.I,26:04:31,26:04:31,30, Ringsend Road,15229.92,60-C5-d12-1,C5,d12
388,8230DB003950,"Ball Alley House, stop 3950",53.35560249,-6.455010094,12449.3.60-C5-d12-1.351.I,26:05:04,26:05:04,31, Ringsend Road,15587.87,60-C5-d12-1,C5,d12
389,8230DB003372,"Lucan Village, stop 3372",53.35656433,-6.448094691,12449.3.60-C5-d12-1.351.I,26:05:47,26:05:47,32, Ringsend Road,16059.48,60-C5-d12-1,C5,d12
390,8230DB003373,"Lucan Heights, stop 3373",53.35808279,-6.441849744,12449.3.60-C5-d12-1.351.I,26:06:38,26:06:38,33, Ringsend Road,16533.07,60-C5-d12-1,C5,d12
391,8230DB003374,"St Mary's Church, stop 3374",53.35963427,-6.439524473,12449.3.60-C5-d12-1.351.I,26:07:03,26:07:03,34, Ringsend Road,16764.42,60-C5-d12-1,C5,d12
392,8230DB002233,"Chalet Gardens, stop 2233",53.3600895,-6.435165776,12449.3.60-C5-d12-1.351.I,26:07:35,26:07:35,35, Ringsend Road,17060.36,60-C5-d12-1,C5,d12
393,8230DB002232,"Ballydowd Grove, stop 2232",53.35973763,-6.430956834,12449.3.60-C5-d12-1.351.I,26:08:23,26:08:23,36, Ringsend Road,17345.86,60-C5-d12-1,C5,d12
394,8230DB002234,"Lucan Retail Park, stop 2234",53.35933655,-6.424390974,12449.3.60-C5-d12-1.351.I,26:09:37,26:09:37,37, Ringsend Road,17783.18,60-C5-d12-1,C5,d12
395,8230DB002236,"Hermitage Bridge, stop 2236",53.35886946,-6.410856513,12449.3.60-C5-d12-1.351.I,26:10:46,26:10:46,38, Ringsend Road,18702.92,60-C5-d12-1,C5,d12
396,8230DB005056,"Hermitage Clinic, stop 5056",53.35752149,-6.402793928,12449.3.60-C5-d12-1.351.I,26:11:28,26:11:28,39, Ringsend Road,19261.59,60-C5-d12-1,C5,d12
397,8230DB002239,"Liffey Valley SC, stop 2239",53.35616847,-6.3917274,12449.3.60-C5-d12-1.351.I,26:12:37,26:12:37,40, Ringsend Road,20080.83,60-C5-d12-1,C5,d12
398,8230DB002241,"Kennelsfort Road, stop 2241",53.35492926,-6.371268023,12449.3.60-C5-d12-1.351.I,26:14:28,26:14:28,41, Ringsend Road,21500.25,60-C5-d12-1,C5,d12
399,8230DB002242,"The Oval, stop 2242",53.35392732,-6.367009818,12449.3.60-C5-d12-1.351.I,26:14:53,26:14:53,42, Ringsend Road,21805.65,60-C5-d12-1,C5,d12
400,8220DB002243,"Glenaulin, stop 2243",53.35197438,-6.355697995,12449.3.60-C5-d12-1.351.I,26:16:29,26:16:29,43, Ringsend Road,22599.29,60-C5-d12-1,C5,d12
401,8220DB002244,"Belgrove Park, stop 2244",53.35088435,-6.351609074,12449.3.60-C5-d12-1.351.I,26:17:05,26:17:05,44, Ringsend Road,22896.4,60-C5-d12-1,C5,d12
402,8220DB002245,"Laurence Brook, stop 2245",53.3494632,-6.348284211,12449.3.60-C5-d12-1.351.I,26:17:33,26:17:33,45, Ringsend Road,23168.74,60-C5-d12-1,C5,d12
403,8220DB002246,"Chapelizod, stop 2246",53.34831131,-6.343642354,12449.3.60-C5-d12-1.351.I,26:18:15,26:18:15,46, Ringsend Road,23581.76,60-C5-d12-1,C5,d12
404,8220DB002247,"St Mary's Hospital, stop 2247",53.34675286,-6.336282916,12449.3.60-C5-d12-1.351.I,26:18:50,26:18:50,47, Ringsend Road,24118.23,60-C5-d12-1,C5,d12
405,8220DB002248,"Military Road, stop 2248",53.34632093,-6.327888637,12449.3.60-C5-d12-1.351.I,26:19:26,26:19:26,48, Ringsend Road,24676.76,60-C5-d12-1,C5,d12
406,8220DB002249,"Garda Boat Club, stop 2249",53.3465317,-6.321136449,12449.3.60-C5-d12-1.351.I,26:19:49,26:19:49,49, Ringsend Road,25127.94,60-C5-d12-1,C5,d12
407,8220DB002250,"Salmon Pool, stop 2250",53.34743859,-6.31533304,12449.3.60-C5-d12-1.351.I,26:20:10,26:20:10,50, Ringsend Road,25526.81,60-C5-d12-1,C5,d12
408,8220DB002251,"Islandbridge Gate, stop 2251",53.34813204,-6.310979792,12449.3.60-C5-d12-1.351.I,26:20:32,26:20:32,51, Ringsend Road,25825.23,60-C5-d12-1,C5,d12
409,8220DB001472,"Conyngham Road, stop 1472",53.34842947,-6.30596617,12449.3.60-C5-d12-1.351.I,26:20:56,26:20:56,52, Ringsend Road,26159.14,60-C5-d12-1,C5,d12
410,8220DB004408,"Phoenix House, stop 4408",53.34833336,-6.30110331,12449.3.60-C5-d12-1.351.I,26:21:16,26:21:16,53, Ringsend Road,26481.18,60-C5-d12-1,C5,d12
411,8220DB001473,"Phoenix Park Gate, stop 1473",53.34830598,-6.298550899,12449.3.60-C5-d12-1.351.I,26:21:26,26:21:26,54, Ringsend Road,26650.63,60-C5-d12-1,C5,d12
412,8220DB001474,"Parkgate Street, stop 1474",53.34794792,-6.292361705,12449.3.60-C5-d12-1.351.I,26:22:18,26:22:18,55, Ringsend Road,27063.01,60-C5-d12-1,C5,d12
413,8220DB001476,"Sarsfield Quay, stop 1476",53.34707369,-6.284676275,12449.3.60-C5-d12-1.351.I,26:23:24,26:23:24,56, Ringsend Road,27591.27,60-C5-d12-1,C5,d12
414,8220DB007854,"Arran Quay, stop 7854",53.34636761,-6.278711665,12449.3.60-C5-d12-1.351.I,26:25:06,26:25:06,57, Ringsend Road,27994.01,60-C5-d12-1,C5,d12
415,8220DB007856,"Four Courts, stop 7856",53.34562262,-6.273184391,12449.3.60-C5-d12-1.351.I,26:25:39,26:25:39,58, Ringsend Road,28373.43,60-C5-d12-1,C5,d12
416,8220DB007883,"Ormond Quay, stop 7883",53.346058,-6.268495617,12449.3.60-C5-d12-1.351.I,26:27:17,26:27:17,59, Ringsend Road,28692.67,60-C5-d12-1,C5,d12
417,8220DB000315,"Bachelors Walk, stop 315",53.34702829,-6.261667155,12449.3.60-C5-d12-1.351.I,26:29:41,26:29:41,60, Ringsend Road,29162.87,60-C5-d12-1,C5,d12
418,8220DB000340,"Townsend Street, stop 340",53.34597512,-6.256017478,12449.3.60-C5-d12-1.351.I,26:33:59,26:33:59,61, Ringsend Road,29653.59,60-C5-d12-1,C5,d12
419,8220DB007861,"Prince's St South, stop 7861",53.34561679,-6.249348317,12449.3.60-C5-d12-1.351.I,26:35:03,26:35:03,62, Ringsend Road,30097.69,60-C5-d12-1,C5,d12
420,8220DB000351,"Erne Street, stop 351",53.34341826,-6.245308174,12449.3.60-C5-d12-1.351.I,26:35:59,26:35:59,63, Ringsend Road,30464.26,60-C5-d12-1,C5,d12
421,8220DB000352,"Pearse Square, stop 352",53.34298915,-6.24241214,12449.3.60-C5-d12-1.351.I,26:36:31,26:36:31,64, Ringsend Road,30665.32,60-C5-d12-1,C5,d12
422,8220DB000353,"Grand Canal Quay, stop 353",53.34264501,-6.239798018,12449.3.60-C5-d12-1.351.I,26:36:59,26:36:59,65, Ringsend Road,30841.59,60-C5-d12-1,C5,d12
423,8220DB000354,"Ringsend Road, stop 354",53.34223583,-6.23643569,12449.3.60-C5-d12-1.351.I,26:37:25,26:37:25,66, Ringsend Road,31069.64,60-C5-d12-1,C5,d12
424,8260DB003999,"Cooldrinagh Terrace, stop 3999",53.36183677,-6.483482274,12470.3.60-C5-b12-1.351.I,25:03:37,25:03:37,27, Ringsend Road,13514.85,60-C5-b12-1,C5,b12
425,8260DB004000,"Springfield Hotel, stop 4000",53.36053966,-6.478314833,12470.3.60-C5-b12-1.351.I,25:04:09,25:04:09,28, Ringsend Road,13887.04,60-C5-b12-1,C5,b12
426,8230DB004001,"Liffey Valley Golf, stop 4001",53.35892285,-6.472062381,12470.3.60-C5-b12-1.351.I,25:04:49,25:04:49,29, Ringsend Road,14348.24,60-C5-b12-1,C5,b12
427,8230DB003949,"Leixlip Road, stop 3949",53.35551692,-6.460211074,12470.3.60-C5-b12-1.351.I,25:06:09,25:06:09,30, Ringsend Road,15229.92,60-C5-b12-1,C5,b12
428,8230DB003950,"Ball Alley House, stop 3950",53.35560249,-6.455010094,12470.3.60-C5-b12-1.351.I,25:06:59,25:06:59,31, Ringsend Road,15587.87,60-C5-b12-1,C5,b12
429,8230DB003372,"Lucan Village, stop 3372",53.35656433,-6.448094691,12470.3.60-C5-b12-1.351.I,25:08:05,25:08:05,32, Ringsend Road,16059.48,60-C5-b12-1,C5,b12
430,8230DB003373,"Lucan Heights, stop 3373",53.35808279,-6.441849744,12470.3.60-C5-b12-1.351.I,25:09:04,25:09:04,33, Ringsend Road,16533.07,60-C5-b12-1,C5,b12
431,8230DB003374,"St Mary's Church, stop 3374",53.35963427,-6.439524473,12470.3.60-C5-b12-1.351.I,25:09:29,25:09:29,34, Ringsend Road,16764.42,60-C5-b12-1,C5,b12
432,8230DB002233,"Chalet Gardens, stop 2233",53.3600895,-6.435165776,12470.3.60-C5-b12-1.351.I,25:10:02,25:10:02,35, Ringsend Road,17060.36,60-C5-b12-1,C5,b12
433,8230DB002232,"Ballydowd Grove, stop 2232",53.35973763,-6.430956834,12470.3.60-C5-b12-1.351.I,25:10:32,25:10:32,36, Ringsend Road,17345.86,60-C5-b12-1,C5,b12
434,8230DB002234,"Lucan Retail Park, stop 2234",53.35933655,-6.424390974,12470.3.60-C5-b12-1.351.I,25:11:19,25:11:19,37, Ringsend Road,17783.18,60-C5-b12-1,C5,b12
435,8230DB002236,"Hermitage Bridge, stop 2236",53.35886946,-6.410856513,12470.3.60-C5-b12-1.351.I,25:12:43,25:12:43,38, Ringsend Road,18702.92,60-C5-b12-1,C5,b12
436,8230DB005056,"Hermitage Clinic, stop 5056",53.35752149,-6.402793928,12470.3.60-C5-b12-1.351.I,25:13:35,25:13:35,39, Ringsend Road,19261.59,60-C5-b12-1,C5,b12
437,8230DB002239,"Liffey Valley SC, stop 2239",53.35616847,-6.3917274,12470.3.60-C5-b12-1.351.I,25:14:44,25:14:44,40, Ringsend Road,20080.83,60-C5-b12-1,C5,b12
438,8230DB002241,"Kennelsfort Road, stop 2241",53.35492926,-6.371268023,12470.3.60-C5-b12-1.351.I,25:16:40,25:16:40,41, Ringsend Road,21500.25,60-C5-b12-1,C5,b12
439,8230DB002242,"The Oval, stop 2242",53.35392732,-6.367009818,12470.3.60-C5-b12-1.351.I,25:17:08,25:17:08,42, Ringsend Road,21805.65,60-C5-b12-1,C5,b12
440,8220DB002243,"Glenaulin, stop 2243",53.35197438,-6.355697995,12470.3.60-C5-b12-1.351.I,25:18:40,25:18:40,43, Ringsend Road,22599.29,60-C5-b12-1,C5,b12
441,8220DB002244,"Belgrove Park, stop 2244",53.35088435,-6.351609074,12470.3.60-C5-b12-1.351.I,25:19:14,25:19:14,44, Ringsend Road,22896.4,60-C5-b12-1,C5,b12
442,8220DB002245,"Laurence Brook, stop 2245",53.3494632,-6.348284211,12470.3.60-C5-b12-1.351.I,25:19:57,25:19:57,45, Ringsend Road,23168.74,60-C5-b12-1,C5,b12
443,8220DB002246,"Chapelizod, stop 2246",53.34831131,-6.343642354,12470.3.60-C5-b12-1.351.I,25:21:01,25:21:01,46, Ringsend Road,23581.76,60-C5-b12-1,C5,b12
444,8220DB002247,"St Mary's Hospital, stop 2247",53.34675286,-6.336282916,12470.3.60-C5-b12-1.351.I,25:21:46,25:21:46,47, Ringsend Road,24118.23,60-C5-b12-1,C5,b12
445,8220DB002248,"Military Road, stop 2248",53.34632093,-6.327888637,12470.3.60-C5-b12-1.351.I,25:22:33,25:22:33,48, Ringsend Road,24676.76,60-C5-b12-1,C5,b12
446,8220DB002249,"Garda Boat Club, stop 2249",53.3465317,-6.321136449,12470.3.60-C5-b12-1.351.I,25:23:00,25:23:00,49, Ringsend Road,25127.94,60-C5-b12-1,C5,b12
447,8220DB002250,"Salmon Pool, stop 2250",53.34743859,-6.31533304,12470.3.60-C5-b12-1.351.I,25:23:23,25:23:23,50, Ringsend Road,25526.81,60-C5-b12-1,C5,b12
448,8220DB002251,"Islandbridge Gate, stop 2251",53.34813204,-6.310979792,12470.3.60-C5-b12-1.351.I,25:23:51,25:23:51,51, Ringsend Road,25825.23,60-C5-b12-1,C5,b12
449,8220DB001472,"Conyngham Road, stop 1472",53.34842947,-6.30596617,12470.3.60-C5-b12-1.351.I,25:24:22,25:24:22,52, Ringsend Road,26159.14,60-C5-b12-1,C5,b12
450,8220DB004408,"Phoenix House, stop 4408",53.34833336,-6.30110331,12470.3.60-C5-b12-1.351.I,25:24:44,25:24:44,53, Ringsend Road,26481.18,60-C5-b12-1,C5,b12
451,8220DB001473,"Phoenix Park Gate, stop 1473",53.34830598,-6.298550899,12470.3.60-C5-b12-1.351.I,25:24:55,25:24:55,54, Ringsend Road,26650.63,60-C5-b12-1,C5,b12
452,8220DB001474,"Parkgate Street, stop 1474",53.34794792,-6.292361705,12470.3.60-C5-b12-1.351.I,25:25:55,25:25:55,55, Ringsend Road,27063.01,60-C5-b12-1,C5,b12
453,8220DB001476,"Sarsfield Quay, stop 1476",53.34707369,-6.284676275,12470.3.60-C5-b12-1.351.I,25:27:11,25:27:11,56, Ringsend Road,27591.27,60-C5-b12-1,C5,b12
454,8220DB007854,"Arran Quay, stop 7854",53.34636761,-6.278711665,12470.3.60-C5-b12-1.351.I,25:28:29,25:28:29,57, Ringsend Road,27994.01,60-C5-b12-1,C5,b12
455,8220DB007856,"Four Courts, stop 7856",53.34562262,-6.273184391,12470.3.60-C5-b12-1.351.I,25:29:22,25:29:22,58, Ringsend Road,28373.43,60-C5-b12-1,C5,b12
456,8220DB007883,"Ormond Quay, stop 7883",53.346058,-6.268495617,12470.3.60-C5-b12-1.351.I,25:30:50,25:30:50,59, Ringsend Road,28692.67,60-C5-b12-1,C5,b12
457,8220DB000315,"Bachelors Walk, stop 315",53.34702829,-6.261667155,12470.3.60-C5-b12-1.351.I,25:32:59,25:32:59,60, Ringsend Road,29162.87,60-C5-b12-1,C5,b12
458,8220DB000340,"Townsend Street, stop 340",53.34597512,-6.256017478,12470.3.60-C5-b12-1.351.I,25:36:27,25:36:27,61, Ringsend Road,29653.59,60-C5-b12-1,C5,b12
459,8220DB007861,"Prince's St South, stop 7861",53.34561679,-6.249348317,12470.3.60-C5-b12-1.351.I,25:37:35,25:37:35,62, Ringsend Road,30097.69,60-C5-b12-1,C5,b12
460,8220DB000351,"Erne Street, stop 351",53.34341826,-6.245308174,12470.3.60-C5-b12-1.351.I,25:38:35,25:38:35,63, Ringsend Road,30464.26,60-C5-b12-1,C5,b12
461,8220DB000352,"Pearse Square, stop 352",53.34298915,-6.24241214,12470.3.60-C5-b12-1.351.I,25:39:10,25:39:10,64, Ringsend Road,30665.32,60-C5-b12-1,C5,b12
462,8220DB000353,"Grand Canal Quay, stop 353",53.34264501,-6.239798018,12470.3.60-C5-b12-1.351.I,25:39:41,25:39:41,65, Ringsend Road,30841.59,60-C5-b12-1,C5,b12
463,8220DB000354,"Ringsend Road, stop 354",53.34223583,-6.23643569,12470.3.60-C5-b12-1.351.I,25:40:06,25:40:06,66, Ringsend Road,31069.64,60-C5-b12-1,C5,b12
464,8260DB003999,"Cooldrinagh Terrace, stop 3999",53.36183677,-6.483482274,12470.3.60-C5-d12-1.351.I,25:03:37,25:03:37,27, Ringsend Road,13514.85,60-C5-d12-1,C5,d12
465,8260DB004000,"Springfield Hotel, stop 4000",53.36053966,-6.478314833,12470.3.60-C5-d12-1.351.I,25:04:09,25:04:09,28, Ringsend Road,13887.04,60-C5-d12-1,C5,d12
466,8230DB004001,"Liffey Valley Golf, stop 4001",53.35892285,-6.472062381,12470.3.60-C5-d12-1.351.I,25:04:49,25:04:49,29, Ringsend Road,14348.24,60-C5-d12-1,C5,d12
467,8230DB003949,"Leixlip Road, stop 3949",53.35551692,-6.460211074,12470.3.60-C5-d12-1.351.I,25:06:09,25:06:09,30, Ringsend Road,15229.92,60-C5-d12-1,C5,d12
468,8230DB003950,"Ball Alley House, stop 3950",53.35560249,-6.455010094,12470.3.60-C5-d12-1.351.I,25:06:59,25:06:59,31, Ringsend Road,15587.87,60-C5-d12-1,C5,d12
469,8230DB003372,"Lucan Village, stop 3372",53.35656433,-6.448094691,12470.3.60-C5-d12-1.351.I,25:08:05,25:08:05,32, Ringsend Road,16059.48,60-C5-d12-1,C5,d12
470,8230DB003373,"Lucan Heights, stop 3373",53.35808279,-6.441849744,12470.3.60-C5-d12-1.351.I,25:09:04,25:09:04,33, Ringsend Road,16533.07,60-C5-d12-1,C5,d12
471,8230DB003374,"St Mary's Church, stop 3374",53.35963427,-6.439524473,12470.3.60-C5-d12-1.351.I,25:09:29,25:09:29,34, Ringsend Road,16764.42,60-C5-d12-1,C5,d12
472,8230DB002233,"Chalet Gardens, stop 2233",53.3600895,-6.435165776,12470.3.60-C5-d12-1.351.I,25:10:02,25:10:02,35, Ringsend Road,17060.36,60-C5-d12-1,C5,d12
473,8230DB002232,"Ballydowd Grove, stop 2232",53.35973763,-6.430956834,12470.3.60-C5-d12-1.351.I,25:10:32,25:10:32,36, Ringsend Road,17345.86,60-C5-d12-1,C5,d12
474,8230DB002234,"Lucan Retail Park, stop 2234",53.35933655,-6.424390974,12470.3.60-C5-d12-1.351.I,25:11:19,25:11:19,37, Ringsend Road,17783.18,60-C5-d12-1,C5,d12
475,8230DB002236,"Hermitage Bridge, stop 2236",53.35886946,-6.410856513,12470.3.60-C5-d12-1.351.I,25:12:43,25:12:43,38, Ringsend Road,18702.92,60-C5-d12-1,C5,d12
476,8230DB005056,"Hermitage Clinic, stop 5056",53.35752149,-6.402793928,12470.3.60-C5-d12-1.351.I,25:13:35,25:13:35,39, Ringsend Road,19261.59,60-C5-d12-1,C5,d12
477,8230DB002239,"Liffey Valley SC, stop 2239",53.35616847,-6.3917274,12470.3.60-C5-d12-1.351.I,25:14:44,25:14:44,40, Ringsend Road,20080.83,60-C5-d12-1,C5,d12
478,8230DB002241,"Kennelsfort Road, stop 2241",53.35492926,-6.371268023,12470.3.60-C5-d12-1.351.I,25:16:40,25:16:40,41, Ringsend Road,21500.25,60-C5-d12-1,C5,d12
479,8230DB002242,"The Oval, stop 2242",53.35392732,-6.367009818,12470.3.60-C5-d12-1.351.I,25:17:08,25:17:08,42, Ringsend Road,21805.65,60-C5-d12-1,C5,d12
480,8220DB002243,"Glenaulin, stop 2243",53.35197438,-6.355697995,12470.3.60-C5-d12-1.351.I,25:18:40,25:18:40,43, Ringsend Road,22599.29,60-C5-d12-1,C5,d12
481,8220DB002244,"Belgrove Park, stop 2244",53.35088435,-6.351609074,12470.3.60-C5-d12-1.351.I,25:19:14,25:19:14,44, Ringsend Road,22896.4,60-C5-d12-1,C5,d12
482,8220DB002245,"Laurence Brook, stop 2245",53.3494632,-6.348284211,12470.3.60-C5-d12-1.351.I,25:19:57,25:19:57,45, Ringsend Road,23168.74,60-C5-d12-1,C5,d12
483,8220DB002246,"Chapelizod, stop 2246",53.34831131,-6.343642354,12470.3.60-C5-d12-1.351.I,25:21:01,25:21:01,46, Ringsend Road,23581.76,60-C5-d12-1,C5,d12
484,8220DB002247,"St Mary's Hospital, stop 2247",53.34675286,-6.336282916,12470.3.60-C5-d12-1.351.I,25:21:46,25:21:46,47, Ringsend Road,24118.23,60-C5-d12-1,C5,d12
485,8220DB002248,"Military Road, stop 2248",53.34632093,-6.327888637,12470.3.60-C5-d12-1.351.I,25:22:33,25:22:33,48, Ringsend Road,24676.76,60-C5-d12-1,C5,d12
486,8220DB002249,"Garda Boat Club, stop 2249",53.3465317,-6.321136449,12470.3.60-C5-d12-1.351.I,25:23:00,25:23:00,49, Ringsend Road,25127.94,60-C5-d12-1,C5,d12
487,8220DB002250,"Salmon Pool, stop 2250",53.34743859,-6.31533304,12470.3.60-C5-d12-1.351.I,25:23:23,25:23:23,50, Ringsend Road,25526.81,60-C5-d12-1,C5,d12
488,8220DB002251,"Islandbridge Gate, stop 2251",53.34813204,-6.310979792,12470.3.60-C5-d12-1.351.I,25:23:51,25:23:51,51, Ringsend Road,25825.23,60-C5-d12-1,C5,d12
489,8220DB001472,"Conyngham Road, stop 1472",53.34842947,-6.30596617,12470.3.60-C5-d12-1.351.I,25:24:22,25:24:22,52, Ringsend Road,26159.14,60-C5-d12-1,C5,d12
490,8220DB004408,"Phoenix House, stop 4408",53.34833336,-6.30110331,12470.3.60-C5-d12-1.351.I,25:24:44,25:24:44,53, Ringsend Road,26481.18,60-C5-d12-1,C5,d12
491,8220DB001473,"Phoenix Park Gate, stop 1473",53.34830598,-6.298550899,12470.3.60-C5-d12-1.351.I,25:24:55,25:24:55,54, Ringsend Road,26650.63,60-C5-d12-1,C5,d12
492,8220DB001474,"Parkgate Street, stop 1474",53.34794792,-6.292361705,12470.3.60-C5-d12-1.351.I,25:25:55,25:25:55,55, Ringsend Road,27063.01,60-C5-d12-1,C5,d12
493,8220DB001476,"Sarsfield Quay, stop 1476",53.34707369,-6.284676275,12470.3.60-C5-d12-1.351.I,25:27:11,25:27:11,56, Ringsend Road,27591.27,60-C5-d12-1,C5,d12
494,8220DB007854,"Arran Quay, stop 7854",53.34636761,-6.278711665,12470.3.60-C5-d12-1.351.I,25:28:29,25:28:29,57, Ringsend Road,27994.01,60-C5-d12-1,C5,d12
495,8220DB007856,"Four Courts, stop 7856",53.34562262,-6.273184391,12470.3.60-C5-d12-1.351.I,25:29:22,25:29:22,58, Ringsend Road,28373.43,60-C5-d12-1,C5,d12
496,8220DB007883,"Ormond Quay, stop 7883",53.346058,-6.268495617,12470.3.60-C5-d12-1.351.I,25:30:50,25:30:50,59, Ringsend Road,28692.67,60-C5-d12-1,C5,d12
497,8220DB000315,"Bachelors Walk, stop 315",53.34702829,-6.261667155,12470.3.60-C5-d12-1.351.I,25:32:59,25:32:59,60, Ringsend Road,29162.87,60-C5-d12-1,C5,d12
498,8220DB000340,"Townsend Street, stop 340",53.34597512,-6.256017478,12470.3.60-C5-d12-1.351.I,25:36:27,25:36:27,61, Ringsend Road,29653.59,60-C5-d12-1,C5,d12
499,8220DB007861,"Prince's St South, stop 7861",53.34561679,-6.249348317,12470.3.60-C5-d12-1.351.I,25:37:35,25:37:35,62, Ringsend Road,30097.69,60-C5-d12-1,C5,d12
500,8220DB000351,"Erne Street, stop 351",53.34341826,-6.245308174,12470.3.60-C5-d12-1.351.I,25:38:35,25:38:35,63, Ringsend Road,30464.26,60-C5-d12-1,C5,d12
501,8220DB000352,"Pearse Square, stop 352",53.34298915,-6.24241214,12470.3.60-C5-d12-1.351.I,25:39:10,25:39:10,64, Ringsend Road,30665.32,60-C5-d12-1,C5,d12
502,8220DB000353,"Grand Canal Quay, stop 353",53.34264501,-6.239798018,12470.3.60-C5-d12-1.351.I,25:39:41,25:39:41,65, Ringsend Road,30841.59,60-C5-d12-1,C5,d12
503,8220DB000354,"Ringsend Road, stop 354",53.34223583,-6.23643569,12470.3.60-C5-d12-1.351.I,25:40:06,25:40:06,66, Ringsend Road,31069.64,60-C5-d12-1,C5,d12
504,8260DB003999,"Cooldrinagh Terrace, stop 3999",53.36183677,-6.483482274,12472.3.60-C5-b12-1.351.I,28:00:34,28:00:34,27, Ringsend Road,13514.85,60-C5-b12-1,C5,b12
505,8260DB004000,"Springfield Hotel, stop 4000",53.36053966,-6.478314833,12472.3.60-C5-b12-1.351.I,28:01:01,28:01:01,28, Ringsend Road,13887.04,60-C5-b12-1,C5,b12
506,8230DB004001,"Liffey Valley Golf, stop 4001",53.35892285,-6.472062381,12472.3.60-C5-b12-1.351.I,28:01:34,28:01:34,29, Ringsend Road,14348.24,60-C5-b12-1,C5,b12
507,8230DB003949,"Leixlip Road, stop 3949",53.35551692,-6.460211074,12472.3.60-C5-b12-1.351.I,28:02:51,28:02:51,30, Ringsend Road,15229.92,60-C5-b12-1,C5,b12
508,8230DB003950,"Ball Alley House, stop 3950",53.35560249,-6.455010094,12472.3.60-C5-b12-1.351.I,28:03:20,28:03:20,31, Ringsend Road,15587.87,60-C5-b12-1,C5,b12
509,8230DB003372,"Lucan Village, stop 3372",53.35656433,-6.448094691,12472.3.60-C5-b12-1.351.I,28:03:59,28:03:59,32, Ringsend Road,16059.48,60-C5-b12-1,C5,b12
510,8230DB003373,"Lucan Heights, stop 3373",53.35808279,-6.441849744,12472.3.60-C5-b12-1.351.I,28:04:32,28:04:32,33, Ringsend Road,16533.07,60-C5-b12-1,C5,b12
511,8230DB003374,"St Mary's Church, stop 3374",53.35963427,-6.439524473,12472.3.60-C5-b12-1.351.I,28:04:54,28:04:54,34, Ringsend Road,16764.42,60-C5-b12-1,C5,b12
512,8230DB002233,"Chalet Gardens, stop 2233",53.3600895,-6.435165776,12472.3.60-C5-b12-1.351.I,28:05:21,28:05:21,35, Ringsend Road,17060.36,60-C5-b12-1,C5,b12
513,8230DB002232,"Ballydowd Grove, stop 2232",53.35973763,-6.430956834,12472.3.60-C5-b12-1.351.I,28:05:46,28:05:46,36, Ringsend Road,17345.86,60-C5-b12-1,C5,b12
514,8230DB002234,"Lucan Retail Park, stop 2234",53.35933655,-6.424390974,12472.3.60-C5-b12-1.351.I,28:06:24,28:06:24,37, Ringsend Road,17783.18,60-C5-b12-1,C5,b12
515,8230DB002236,"Hermitage Bridge, stop 2236",53.35886946,-6.410856513,12472.3.60-C5-b12-1.351.I,28:07:34,28:07:34,38, Ringsend Road,18702.92,60-C5-b12-1,C5,b12
516,8230DB005056,"Hermitage Clinic, stop 5056",53.35752149,-6.402793928,12472.3.60-C5-b12-1.351.I,28:08:17,28:08:17,39, Ringsend Road,19261.59,60-C5-b12-1,C5,b12
517,8230DB002239,"Liffey Valley SC, stop 2239",53.35616847,-6.3917274,12472.3.60-C5-b12-1.351.I,28:09:23,28:09:23,40, Ringsend Road,20080.83,60-C5-b12-1,C5,b12
518,8230DB002241,"Kennelsfort Road, stop 2241",53.35492926,-6.371268023,12472.3.60-C5-b12-1.351.I,28:10:52,28:10:52,41, Ringsend Road,21500.25,60-C5-b12-1,C5,b12
519,8230DB002242,"The Oval, stop 2242",53.35392732,-6.367009818,12472.3.60-C5-b12-1.351.I,28:11:10,28:11:10,42, Ringsend Road,21805.65,60-C5-b12-1,C5,b12
520,8220DB002243,"Glenaulin, stop 2243",53.35197438,-6.355697995,12472.3.60-C5-b12-1.351.I,28:12:32,28:12:32,43, Ringsend Road,22599.29,60-C5-b12-1,C5,b12
521,8220DB002244,"Belgrove Park, stop 2244",53.35088435,-6.351609074,12472.3.60-C5-b12-1.351.I,28:13:03,28:13:03,44, Ringsend Road,22896.4,60-C5-b12-1,C5,b12
522,8220DB002245,"Laurence Brook, stop 2245",53.3494632,-6.348284211,12472.3.60-C5-b12-1.351.I,28:13:37,28:13:37,45, Ringsend Road,23168.74,60-C5-b12-1,C5,b12
523,8220DB002246,"Chapelizod, stop 2246",53.34831131,-6.343642354,12472.3.60-C5-b12-1.351.I,28:14:27,28:14:27,46, Ringsend Road,23581.76,60-C5-b12-1,C5,b12
524,8220DB002247,"St Mary's Hospital, stop 2247",53.34675286,-6.336282916,12472.3.60-C5-b12-1.351.I,28:15:06,28:15:06,47, Ringsend Road,24118.23,60-C5-b12-1,C5,b12
525,8220DB002248,"Military Road, stop 2248",53.34632093,-6.327888637,12472.3.60-C5-b12-1.351.I,28:15:47,28:15:47,48, Ringsend Road,24676.76,60-C5-b12-1,C5,b12
526,8220DB002249,"Garda Boat Club, stop 2249",53.3465317,-6.321136449,12472.3.60-C5-b12-1.351.I,28:16:14,28:16:14,49, Ringsend Road,25127.94,60-C5-b12-1,C5,b12
527,8220DB002250,"Salmon Pool, stop 2250",53.34743859,-6.31533304,12472.3.60-C5-b12-1.351.I,28:16:38,28:16:38,50, Ringsend Road,25526.81,60-C5-b12-1,C5,b12
528,8220DB002251,"Islandbridge Gate, stop 2251",53.34813204,-6.310979792,12472.3.60-C5-b12-1.351.I,28:17:05,28:17:05,51, Ringsend Road,25825.23,60-C5-b12-1,C5,b12
529,8220DB001472,"Conyngham Road, stop 1472",53.34842947,-6.30596617,12472.3.60-C5-b12-1.351.I,28:17:36,28:17:36,52, Ringsend Road,26159.14,60-C5-b12-1,C5,b12
530,8220DB004408,"Phoenix House, stop 4408",53.34833336,-6.30110331,12472.3.60-C5-b12-1.351.I,28:17:58,28:17:58,53, Ringsend Road,26481.18,60-C5-b12-1,C5,b12
531,8220DB001473,"Phoenix Park Gate, stop 1473",53.34830598,-6.298550899,12472.3.60-C5-b12-1.351.I,28:18:09,28:18:09,54, Ringsend Road,26650.63,60-C5-b12-1,C5,b12
532,8220DB001474,"Parkgate Street, stop 1474",53.34794792,-6.292361705,12472.3.60-C5-b12-1.351.I,28:18:46,28:18:46,55, Ringsend Road,27063.01,60-C5-b12-1,C5,b12
533,8220DB001476,"Sarsfield Quay, stop 1476",53.34707369,-6.284676275,12472.3.60-C5-b12-1.351.I,28:19:34,28:19:34,56, Ringsend Road,27591.27,60-C5-b12-1,C5,b12
534,8220DB007854,"Arran Quay, stop 7854",53.34636761,-6.278711665,12472.3.60-C5-b12-1.351.I,28:20:44,28:20:44,57, Ringsend Road,27994.01,60-C5-b12-1,C5,b12
535,8220DB007856,"Four Courts, stop 7856",53.34562262,-6.273184391,12472.3.60-C5-b12-1.351.I,28:21:18,28:21:18,58, Ringsend Road,28373.43,60-C5-b12-1,C5,b12
536,8220DB007883,"Ormond Quay, stop 7883",53.346058,-6.268495617,12472.3.60-C5-b12-1.351.I,28:22:14,28:22:14,59, Ringsend Road,28692.67,60-C5-b12-1,C5,b12
537,8220DB000315,"Bachelors Walk, stop 315",53.34702829,-6.261667155,12472.3.60-C5-b12-1.351.I,28:23:37,28:23:37,60, Ringsend Road,29162.87,60-C5-b12-1,C5,b12
538,8220DB000340,"Townsend Street, stop 340",53.34597512,-6.256017478,12472.3.60-C5-b12-1.351.I,28:25:34,28:25:34,61, Ringsend Road,29653.59,60-C5-b12-1,C5,b12
539,8220DB007861,"Prince's St South, stop 7861",53.34561679,-6.249348317,12472.3.60-C5-b12-1.351.I,28:26:37,28:26:37,62, Ringsend Road,30097.69,60-C5-b12-1,C5,b12
540,8220DB000351,"Erne Street, stop 351",53.34341826,-6.245308174,12472.3.60-C5-b12-1.351.I,28:27:33,28:27:33,63, Ringsend Road,30464.26,60-C5-b12-1,C5,b12
541,8220DB000352,"Pearse Square, stop 352",53.34298915,-6.24241214,12472.3.60-C5-b12-1.351.I,28:27:55,28:27:55,64, Ringsend Road,30665.32,60-C5-b12-1,C5,b12
542,8220DB000353,"Grand Canal Quay, stop 353",53.34264501,-6.239798018,12472.3.60-C5-b12-1.351.I,28:28:15,28:28:15,65, Ringsend Road,30841.59,60-C5-b12-1,C5,b12
543,8220DB000354,"Ringsend Road, stop 354",53.34223583,-6.23643569,12472.3.60-C5-b12-1.351.I,28:28:38,28:28:38,66, Ringsend Road,31069.64,60-C5-b12-1,C5,b12
544,8260DB003999,"Cooldrinagh Terrace, stop 3999",53.36183677,-6.483482274,12472.3.60-C5-d12-1.351.I,28:00:34,28:00:34,27, Ringsend Road,13514.85,60-C5-d12-1,C5,d12
545,8260DB004000,"Springfield Hotel, stop 4000",53.36053966,-6.478314833,12472.3.60-C5-d12-1.351.I,28:01:01,28:01:01,28, Ringsend Road,13887.04,60-C5-d12-1,C5,d12
546,8230DB004001,"Liffey Valley Golf, stop 4001",53.35892285,-6.472062381,12472.3.60-C5-d12-1.351.I,28:01:34,28:01:34,29, Ringsend Road,14348.24,60-C5-d12-1,C5,d12
547,8230DB003949,"Leixlip Road, stop 3949",53.35551692,-6.460211074,12472.3.60-C5-d12-1.351.I,28:02:51,28:02:51,30, Ringsend Road,15229.92,60-C5-d12-1,C5,d12
548,8230DB003950,"Ball Alley House, stop 3950",53.35560249,-6.455010094,12472.3.60-C5-d12-1.351.I,28:03:20,28:03:20,31, Ringsend Road,15587.87,60-C5-d12-1,C5,d12
549,8230DB003372,"Lucan Village, stop 3372",53.35656433,-6.448094691,12472.3.60-C5-d12-1.351.I,28:03:59,28:03:59,32, Ringsend Road,16059.48,60-C5-d12-1,C5,d12
550,8230DB003373,"Lucan Heights, stop 3373",53.35808279,-6.441849744,12472.3.60-C5-d12-1.351.I,28:04:32,28:04:32,33, Ringsend Road,16533.07,60-C5-d12-1,C5,d12
551,8230DB003374,"St Mary's Church, stop 3374",53.35963427,-6.439524473,12472.3.60-C5-d12-1.351.I,28:04:54,28:04:54,34, Ringsend Road,16764.42,60-C5-d12-1,C5,d12
552,8230DB002233,"Chalet Gardens, stop 2233",53.3600895,-6.435165776,12472.3.60-C5-d12-1.351.I,28:05:21,28:05:21,35, Ringsend Road,17060.36,60-C5-d12-1,C5,d12
553,8230DB002232,"Ballydowd Grove, stop 2232",53.35973763,-6.430956834,12472.3.60-C5-d12-1.351.I,28:05:46,28:05:46,36, Ringsend Road,17345.86,60-C5-d12-1,C5,d12
554,8230DB002234,"Lucan Retail Park, stop 2234",53.35933655,-6.424390974,12472.3.60-C5-d12-1.351.I,28:06:24,28:06:24,37, Ringsend Road,17783.18,60-C5-d12-1,C5,d12
555,8230DB002236,"Hermitage Bridge, stop 2236",53.35886946,-6.410856513,12472.3.60-C5-d12-1.351.I,28:07:34,28:07:34,38, Ringsend Road,18702.92,60-C5-d12-1,C5,d12
556,8230DB005056,"Hermitage Clinic, stop 5056",53.35752149,-6.402793928,12472.3.60-C5-d12-1.351.I,28:08:17,28:08:17,39, Ringsend Road,19261.59,60-C5-d12-1,C5,d12
557,8230DB002239,"Liffey Valley SC, stop 2239",53.35616847,-6.3917274,12472.3.60-C5-d12-1.351.I,28:09:23,28:09:23,40, Ringsend Road,20080.83,60-C5-d12-1,C5,d12
558,8230DB002241,"Kennelsfort Road, stop 2241",53.35492926,-6.371268023,12472.3.60-C5-d12-1.351.I,28:10:52,28:10:52,41, Ringsend Road,21500.25,60-C5-d12-1,C5,d12
559,8230DB002242,"The Oval, stop 2242",53.35392732,-6.367009818,12472.3.60-C5-d12-1.351.I,28:11:10,28:11:10,42, Ringsend Road,21805.65,60-C5-d12-1,C5,d12
560,8220DB002243,"Glenaulin, stop 2243",53.35197438,-6.355697995,12472.3.60-C5-d12-1.351.I,28:12:32,28:12:32,43, Ringsend Road,22599.29,60-C5-d12-1,C5,d12
561,8220DB002244,"Belgrove Park, stop 2244",53.35088435,-6.351609074,12472.3.60-C5-d12-1.351.I,28:13:03,28:13:03,44, Ringsend Road,22896.4,60-C5-d12-1,C5,d12
562,8220DB002245,"Laurence Brook, stop 2245",53.3494632,-6.348284211,12472.3.60-C5-d12-1.351.I,28:13:37,28:13:37,45, Ringsend Road,23168.74,60-C5-d12-1,C5,d12
563,8220DB002246,"Chapelizod, stop 2246",53.34831131,-6.343642354,12472.3.60-C5-d12-1.351.I,28:14:27,28:14:27,46, Ringsend Road,23581.76,60-C5-d12-1,C5,d12
564,8220DB002247,"St Mary's Hospital, stop 2247",53.34675286,-6.336282916,12472.3.60-C5-d12-1.351.I,28:15:06,28:15:06,47, Ringsend Road,24118.23,60-C5-d12-1,C5,d12
565,8220DB002248,"Military Road, stop 2248",53.34632093,-6.327888637,12472.3.60-C5-d12-1.351.I,28:15:47,28:15:47,48, Ringsend Road,24676.76,60-C5-d12-1,C5,d12
566,8220DB002249,"Garda Boat Club, stop 2249",53.3465317,-6.321136449,12472.3.60-C5-d12-1.351.I,28:16:14,28:16:14,49, Ringsend Road,25127.94,60-C5-d12-1,C5,d12
567,8220DB002250,"Salmon Pool, stop 2250",53.34743859,-6.31533304,12472.3.60-C5-d12-1.351.I,28:16:38,28:16:38,50, Ringsend Road,25526.81,60-C5-d12-1,C5,d12
568,8220DB002251,"Islandbridge Gate, stop 2251",53.34813204,-6.310979792,12472.3.60-C5-d12-1.351.I,28:17:05,28:17:05,51, Ringsend Road,25825.23,60-C5-d12-1,C5,d12
569,8220DB001472,"Conyngham Road, stop 1472",53.34842947,-6.30596617,12472.3.60-C5-d12-1.351.I,28:17:36,28:17:36,52, Ringsend Road,26159.14,60-C5-d12-1,C5,d12
570,8220DB004408,"Phoenix House, stop 4408",53.34833336,-6.30110331,12472.3.60-C5-d12-1.351.I,28:17:58,28:17:58,53, Ringsend Road,26481.18,60-C5-d12-1,C5,d12
571,8220DB001473,"Phoenix Park Gate, stop 1473",53.34830598,-6.298550899,12472.3.60-C5-d12-1.351.I,28:18:09,28:18:09,54, Ringsend Road,26650.63,60-C5-d12-1,C5,d12
572,8220DB001474,"Parkgate Street, stop 1474",53.34794792,-6.292361705,12472.3.60-C5-d12-1.351.I,28:18:46,28:18:46,55, Ringsend Road,27063.01,60-C5-d12-1,C5,d12
573,8220DB001476,"Sarsfield Quay, stop 1476",53.34707369,-6.284676275,12472.3.60-C5-d12-1.351.I,28:19:34,28:19:34,56, Ringsend Road,27591.27,60-C5-d12-1,C5,d12
574,8220DB007854,"Arran Quay, stop 7854",53.34636761,-6.278711665,12472.3.60-C5-d12-1.351.I,28:20:44,28:20:44,57, Ringsend Road,27994.01,60-C5-d12-1,C5,d12
575,8220DB007856,"Four Courts, stop 7856",53.34562262,-6.273184391,12472.3.60-C5-d12-1.351.I,28:21:18,28:21:18,58, Ringsend Road,28373.43,60-C5-d12-1,C5,d12
576,8220DB007883,"Ormond Quay, stop 7883",53.346058,-6.268495617,12472.3.60-C5-d12-1.351.I,28:22:14,28:22:14,59, Ringsend Road,28692.67,60-C5-d12-1,C5,d12
577,8220DB000315,"Bachelors Walk, stop 315",53.34702829,-6.261667155,12472.3.60-C5-d12-1.351.I,28:23:37,28:23:37,60, Ringsend Road,29162.87,60-C5-d12-1,C5,d12
578,8220DB000340,"Townsend Street, stop 340",53.34597512,-6.256017478,12472.3.60-C5-d12-1.351.I,28:25:34,28:25:34,61, Ringsend Road,29653.59,60-C5-d12-1,C5,d12
579,8220DB007861,"Prince's St South, stop 7861",53.34561679,-6.249348317,12472.3.60-C5-d12-1.351.I,28:26:37,28:26:37,62, Ringsend Road,30097.69,60-C5-d12-1,C5,d12
580,8220DB000351,"Erne Street, stop 351",53.34341826,-6.245308174,12472.3.60-C5-d12-1.351.I,28:27:33,28:27:33,63, Ringsend Road,30464.26,60-C5-d12-1,C5,d12
581,8220DB000352,"Pearse Square, stop 352",53.34298915,-6.24241214,12472.3.60-C5-d12-1.351.I,28:27:55,28:27:55,64, Ringsend Road,30665.32,60-C5-d12-1,C5,d12
582,8220DB000353,"Grand Canal Quay, stop 353",53.34264501,-6.239798018,12472.3.60-C5-d12-1.351.I,28:28:15,28:28:15,65, Ringsend Road,30841.59,60-C5-d12-1,C5,d12
583,8220DB000354,"Ringsend Road, stop 354",53.34223583,-6.23643569,12472.3.60-C5-d12-1.351.I,28:28:38,28:28:38,66, Ringsend Road,31069.64,60-C5-d12-1,C5,d12
860,8260DB003999,"Cooldrinagh Terrace, stop 3999",53.36183677,-6.483482274,17442.2.60-C5-b12-1.351.I,24:03:48,24:03:48,27, Ringsend Road,13514.85,60-C5-b12-1,C5,b12
861,8260DB004000,"Springfield Hotel, stop 4000",53.36053966,-6.478314833,17442.2.60-C5-b12-1.351.I,24:04:17,24:04:17,28, Ringsend Road,13887.04,60-C5-b12-1,C5,b12
862,8230DB004001,"Liffey Valley Golf, stop 4001",53.35892285,-6.472062381,17442.2.60-C5-b12-1.351.I,24:04:53,24:04:53,29, Ringsend Road,14348.24,60-C5-b12-1,C5,b12
863,8230DB003949,"Leixlip Road, stop 3949",53.35551692,-6.460211074,17442.2.60-C5-b12-1.351.I,24:06:14,24:06:14,30, Ringsend Road,15229.92,60-C5-b12-1,C5,b12
864,8230DB003950,"Ball Alley House, stop 3950",53.35560249,-6.455010094,17442.2.60-C5-b12-1.351.I,24:06:53,24:06:53,31, Ringsend Road,15587.87,60-C5-b12-1,C5,b12
865,8230DB003372,"Lucan Village, stop 3372",53.35656433,-6.448094691,17442.2.60-C5-b12-1.351.I,24:07:44,24:07:44,32, Ringsend Road,16059.48,60-C5-b12-1,C5,b12
866,8230DB003373,"Lucan Heights, stop 3373",53.35808279,-6.441849744,17442.2.60-C5-b12-1.351.I,24:08:22,24:08:22,33, Ringsend Road,16533.07,60-C5-b12-1,C5,b12
867,8230DB003374,"St Mary's Church, stop 3374",53.35963427,-6.439524473,17442.2.60-C5-b12-1.351.I,24:08:44,24:08:44,34, Ringsend Road,16764.42,60-C5-b12-1,C5,b12
868,8230DB002233,"Chalet Gardens, stop 2233",53.3600895,-6.435165776,17442.2.60-C5-b12-1.351.I,24:09:13,24:09:13,35, Ringsend Road,17060.36,60-C5-b12-1,C5,b12
869,8230DB002232,"Ballydowd Grove, stop 2232",53.35973763,-6.430956834,17442.2.60-C5-b12-1.351.I,24:09:39,24:09:39,36, Ringsend Road,17345.86,60-C5-b12-1,C5,b12
870,8230DB002234,"Lucan Retail Park, stop 2234",53.35933655,-6.424390974,17442.2.60-C5-b12-1.351.I,24:10:19,24:10:19,37, Ringsend Road,17783.18,60-C5-b12-1,C5,b12
871,8230DB002236,"Hermitage Bridge, stop 2236",53.35886946,-6.410856513,17442.2.60-C5-b12-1.351.I,24:11:29,24:11:29,38, Ringsend Road,18702.92,60-C5-b12-1,C5,b12
872,8230DB005056,"Hermitage Clinic, stop 5056",53.35752149,-6.402793928,17442.2.60-C5-b12-1.351.I,24:12:12,24:12:12,39, Ringsend Road,19261.59,60-C5-b12-1,C5,b12
873,8230DB002239,"Liffey Valley SC, stop 2239",53.35616847,-6.3917274,17442.2.60-C5-b12-1.351.I,24:13:31,24:13:31,40, Ringsend Road,20080.83,60-C5-b12-1,C5,b12
874,8230DB002241,"Kennelsfort Road, stop 2241",53.35492926,-6.371268023,17442.2.60-C5-b12-1.351.I,24:15:18,24:15:18,41, Ringsend Road,21500.25,60-C5-b12-1,C5,b12
875,8230DB002242,"The Oval, stop 2242",53.35392732,-6.367009818,17442.2.60-C5-b12-1.351.I,24:16:00,24:16:00,42, Ringsend Road,21805.65,60-C5-b12-1,C5,b12
876,8220DB002243,"Glenaulin, stop 2243",53.35197438,-6.355697995,17442.2.60-C5-b12-1.351.I,24:17:33,24:17:33,43, Ringsend Road,22599.29,60-C5-b12-1,C5,b12
877,8220DB002244,"Belgrove Park, stop 2244",53.35088435,-6.351609074,17442.2.60-C5-b12-1.351.I,24:18:08,24:18:08,44, Ringsend Road,22896.4,60-C5-b12-1,C5,b12
878,8220DB002245,"Laurence Brook, stop 2245",53.3494632,-6.348284211,17442.2.60-C5-b12-1.351.I,24:18:31,24:18:31,45, Ringsend Road,23168.74,60-C5-b12-1,C5,b12
879,8220DB002246,"Chapelizod, stop 2246",53.34831131,-6.343642354,17442.2.60-C5-b12-1.351.I,24:19:06,24:19:06,46, Ringsend Road,23581.76,60-C5-b12-1,C5,b12
880,8220DB002247,"St Mary's Hospital, stop 2247",53.34675286,-6.336282916,17442.2.60-C5-b12-1.351.I,24:19:47,24:19:47,47, Ringsend Road,24118.23,60-C5-b12-1,C5,b12
881,8220DB002248,"Military Road, stop 2248",53.34632093,-6.327888637,17442.2.60-C5-b12-1.351.I,24:20:31,24:20:31,48, Ringsend Road,24676.76,60-C5-b12-1,C5,b12
882,8220DB002249,"Garda Boat Club, stop 2249",53.3465317,-6.321136449,17442.2.60-C5-b12-1.351.I,24:20:59,24:20:59,49, Ringsend Road,25127.94,60-C5-b12-1,C5,b12
883,8220DB002250,"Salmon Pool, stop 2250",53.34743859,-6.31533304,17442.2.60-C5-b12-1.351.I,24:21:24,24:21:24,50, Ringsend Road,25526.81,60-C5-b12-1,C5,b12
884,8220DB002251,"Islandbridge Gate, stop 2251",53.34813204,-6.310979792,17442.2.60-C5-b12-1.351.I,24:21:53,24:21:53,51, Ringsend Road,25825.23,60-C5-b12-1,C5,b12
885,8220DB001472,"Conyngham Road, stop 1472",53.34842947,-6.30596617,17442.2.60-C5-b12-1.351.I,24:22:26,24:22:26,52, Ringsend Road,26159.14,60-C5-b12-1,C5,b12
886,8220DB004408,"Phoenix House, stop 4408",53.34833336,-6.30110331,17442.2.60-C5-b12-1.351.I,24:22:50,24:22:50,53, Ringsend Road,26481.18,60-C5-b12-1,C5,b12
887,8220DB001473,"Phoenix Park Gate, stop 1473",53.34830598,-6.298550899,17442.2.60-C5-b12-1.351.I,24:23:02,24:23:02,54, Ringsend Road,26650.63,60-C5-b12-1,C5,b12
888,8220DB001474,"Parkgate Street, stop 1474",53.34794792,-6.292361705,17442.2.60-C5-b12-1.351.I,24:23:58,24:23:58,55, Ringsend Road,27063.01,60-C5-b12-1,C5,b12
889,8220DB001476,"Sarsfield Quay, stop 1476",53.34707369,-6.284676275,17442.2.60-C5-b12-1.351.I,24:25:09,24:25:09,56, Ringsend Road,27591.27,60-C5-b12-1,C5,b12
890,8220DB007854,"Arran Quay, stop 7854",53.34636761,-6.278711665,17442.2.60-C5-b12-1.351.I,24:26:15,24:26:15,57, Ringsend Road,27994.01,60-C5-b12-1,C5,b12
891,8220DB007856,"Four Courts, stop 7856",53.34562262,-6.273184391,17442.2.60-C5-b12-1.351.I,24:27:46,24:27:46,58, Ringsend Road,28373.43,60-C5-b12-1,C5,b12
892,8220DB007883,"Ormond Quay, stop 7883",53.346058,-6.268495617,17442.2.60-C5-b12-1.351.I,24:28:39,24:28:39,59, Ringsend Road,28692.67,60-C5-b12-1,C5,b12
893,8220DB000315,"Bachelors Walk, stop 315",53.34702829,-6.261667155,17442.2.60-C5-b12-1.351.I,24:29:57,24:29:57,60, Ringsend Road,29162.87,60-C5-b12-1,C5,b12
894,8220DB000340,"Townsend Street, stop 340",53.34597512,-6.256017478,17442.2.60-C5-b12-1.351.I,24:33:02,24:33:02,61, Ringsend Road,29653.59,60-C5-b12-1,C5,b12
895,8220DB007861,"Prince's St South, stop 7861",53.34561679,-6.249348317,17442.2.60-C5-b12-1.351.I,24:34:07,24:34:07,62, Ringsend Road,30097.69,60-C5-b12-1,C5,b12
896,8220DB000351,"Erne Street, stop 351",53.34341826,-6.245308174,17442.2.60-C5-b12-1.351.I,24:35:04,24:35:04,63, Ringsend Road,30464.26,60-C5-b12-1,C5,b12
897,8220DB000352,"Pearse Square, stop 352",53.34298915,-6.24241214,17442.2.60-C5-b12-1.351.I,24:35:28,24:35:28,64, Ringsend Road,30665.32,60-C5-b12-1,C5,b12
898,8220DB000353,"Grand Canal Quay, stop 353",53.34264501,-6.239798018,17442.2.60-C5-b12-1.351.I,24:35:49,24:35:49,65, Ringsend Road,30841.59,60-C5-b12-1,C5,b12
899,8220DB000354,"Ringsend Road, stop 354",53.34223583,-6.23643569,17442.2.60-C5-b12-1.351.I,24:36:14,24:36:14,66, Ringsend Road,31069.64,60-C5-b12-1,C5,b12
900,8260DB003999,"Cooldrinagh Terrace, stop 3999",53.36183677,-6.483482274,17442.2.60-C5-d12-1.351.I,24:03:48,24:03:48,27, Ringsend Road,13514.85,60-C5-d12-1,C5,d12
901,8260DB004000,"Springfield Hotel, stop 4000",53.36053966,-6.478314833,17442.2.60-C5-d12-1.351.I,24:04:17,24:04:17,28, Ringsend Road,13887.04,60-C5-d12-1,C5,d12
902,8230DB004001,"Liffey Valley Golf, stop 4001",53.35892285,-6.472062381,17442.2.60-C5-d12-1.351.I,24:04:53,24:04:53,29, Ringsend Road,14348.24,60-C5-d12-1,C5,d12
903,8230DB003949,"Leixlip Road, stop 3949",53.35551692,-6.460211074,17442.2.60-C5-d12-1.351.I,24:06:14,24:06:14,30, Ringsend Road,15229.92,60-C5-d12-1,C5,d12
904,8230DB003950,"Ball Alley House, stop 3950",53.35560249,-6.455010094,17442.2.60-C5-d12-1.351.I,24:06:53,24:06:53,31, Ringsend Road,15587.87,60-C5-d12-1,C5,d12
905,8230DB003372,"Lucan Village, stop 3372",53.35656433,-6.448094691,17442.2.60-C5-d12-1.351.I,24:07:44,24:07:44,32, Ringsend Road,16059.48,60-C5-d12-1,C5,d12
906,8230DB003373,"Lucan Heights, stop 3373",53.35808279,-6.441849744,17442.2.60-C5-d12-1.351.I,24:08:22,24:08:22,33, Ringsend Road,16533.07,60-C5-d12-1,C5,d12
907,8230DB003374,"St Mary's Church, stop 3374",53.35963427,-6.439524473,17442.2.60-C5-d12-1.351.I,24:08:44,24:08:44,34, Ringsend Road,16764.42,60-C5-d12-1,C5,d12
908,8230DB002233,"Chalet Gardens, stop 2233",53.3600895,-6.435165776,17442.2.60-C5-d12-1.351.I,24:09:13,24:09:13,35, Ringsend Road,17060.36,60-C5-d12-1,C5,d12
909,8230DB002232,"Ballydowd Grove, stop 2232",53.35973763,-6.430956834,17442.2.60-C5-d12-1.351.I,24:09:39,24:09:39,36, Ringsend Road,17345.86,60-C5-d12-1,C5,d12
910,8230DB002234,"Lucan Retail Park, stop 2234",53.35933655,-6.424390974,17442.2.60-C5-d12-1.351.I,24:10:19,24:10:19,37, Ringsend Road,17783.18,60-C5-d12-1,C5,d12
911,8230DB002236,"Hermitage Bridge, stop 2236",53.35886946,-6.410856513,17442.2.60-C5-d12-1.351.I,24:11:29,24:11:29,38, Ringsend Road,18702.92,60-C5-d12-1,C5,d12
912,8230DB005056,"Hermitage Clinic, stop 5056",53.35752149,-6.402793928,17442.2.60-C5-d12-1.351.I,24:12:12,24:12:12,39, Ringsend Road,19261.59,60-C5-d12-1,C5,d12
913,8230DB002239,"Liffey Valley SC, stop 2239",53.35616847,-6.3917274,17442.2.60-C5-d12-1.351.I,24:13:31,24:13:31,40, Ringsend Road,20080.83,60-C5-d12-1,C5,d12
914,8230DB002241,"Kennelsfort Road, stop 2241",53.35492926,-6.371268023,17442.2.60-C5-d12-1.351.I,24:15:18,24:15:18,41, Ringsend Road,21500.25,60-C5-d12-1,C5,d12
915,8230DB002242,"The Oval, stop 2242",53.35392732,-6.367009818,17442.2.60-C5-d12-1.351.I,24:16:00,24:16:00,42, Ringsend Road,21805.65,60-C5-d12-1,C5,d12
916,8220DB002243,"Glenaulin, stop 2243",53.35197438,-6.355697995,17442.2.60-C5-d12-1.351.I,24:17:33,24:17:33,43, Ringsend Road,22599.29,60-C5-d12-1,C5,d12
917,8220DB002244,"Belgrove Park, stop 2244",53.35088435,-6.351609074,17442.2.60-C5-d12-1.351.I,24:18:08,24:18:08,44, Ringsend Road,22896.4,60-C5-d12-1,C5,d12
918,8220DB002245,"Laurence Brook, stop 2245",53.3494632,-6.348284211,17442.2.60-C5-d12-1.351.I,24:18:31,24:18:31,45, Ringsend Road,23168.74,60-C5-d12-1,C5,d12
919,8220DB002246,"Chapelizod, stop 2246",53.34831131,-6.343642354,17442.2.60-C5-d12-1.351.I,24:19:06,24:19:06,46, Ringsend Road,23581.76,60-C5-d12-1,C5,d12
920,8220DB002247,"St Mary's Hospital, stop 2247",53.34675286,-6.336282916,17442.2.60-C5-d12-1.351.I,24:19:47,24:19:47,47, Ringsend Road,24118.23,60-C5-d12-1,C5,d12
921,8220DB002248,"Military Road, stop 2248",53.34632093,-6.327888637,17442.2.60-C5-d12-1.351.I,24:20:31,24:20:31,48, Ringsend Road,24676.76,60-C5-d12-1,C5,d12
922,8220DB002249,"Garda Boat Club, stop 2249",53.3465317,-6.321136449,17442.2.60-C5-d12-1.351.I,24:20:59,24:20:59,49, Ringsend Road,25127.94,60-C5-d12-1,C5,d12
923,8220DB002250,"Salmon Pool, stop 2250",53.34743859,-6.31533304,17442.2.60-C5-d12-1.351.I,24:21:24,24:21:24,50, Ringsend Road,25526.81,60-C5-d12-1,C5,d12
924,8220DB002251,"Islandbridge Gate, stop 2251",53.34813204,-6.310979792,17442.2.60-C5-d12-1.351.I,24:21:53,24:21:53,51, Ringsend Road,25825.23,60-C5-d12-1,C5,d12
925,8220DB001472,"Conyngham Road, stop 1472",53.34842947,-6.30596617,17442.2.60-C5-d12-1.351.I,24:22:26,24:22:26,52, Ringsend Road,26159.14,60-C5-d12-1,C5,d12
926,8220DB004408,"Phoenix House, stop 4408",53.34833336,-6.30110331,17442.2.60-C5-d12-1.351.I,24:22:50,24:22:50,53, Ringsend Road,26481.18,60-C5-d12-1,C5,d12
927,8220DB001473,"Phoenix Park Gate, stop 1473",53.34830598,-6.298550899,17442.2.60-C5-d12-1.351.I,24:23:02,24:23:02,54, Ringsend Road,26650.63,60-C5-d12-1,C5,d12
928,8220DB001474,"Parkgate Street, stop 1474",53.34794792,-6.292361705,17442.2.60-C5-d12-1.351.I,24:23:58,24:23:58,55, Ringsend Road,27063.01,60-C5-d12-1,C5,d12
929,8220DB001476,"Sarsfield Quay, stop 1476",53.34707369,-6.284676275,17442.2.60-C5-d12-1.351.I,24:25:09,24:25:09,56, Ringsend Road,27591.27,60-C5-d12-1,C5,d12
930,8220DB007854,"Arran Quay, stop 7854",53.34636761,-6.278711665,17442.2.60-C5-d12-1.351.I,24:26:15,24:26:15,57, Ringsend Road,27994.01,60-C5-d12-1,C5,d12
931,8220DB007856,"Four Courts, stop 7856",53.34562262,-6.273184391,17442.2.60-C5-d12-1.351.I,24:27:46,24:27:46,58, Ringsend Road,28373.43,60-C5-d12-1,C5,d12
932,8220DB007883,"Ormond Quay, stop 7883",53.346058,-6.268495617,17442.2.60-C5-d12-1.351.I,24:28:39,24:28:39,59, Ringsend Road,28692.67,60-C5-d12-1,C5,d12
933,8220DB000315,"Bachelors Walk, stop 315",53.34702829,-6.261667155,17442.2.60-C5-d12-1.351.I,24:29:57,24:29:57,60, Ringsend Road,29162.87,60-C5-d12-1,C5,d12
934,8220DB000340,"Townsend Street, stop 340",53.34597512,-6.256017478,17442.2.60-C5-d12-1.351.I,24:33:02,24:33:02,61, Ringsend Road,29653.59,60-C5-d12-1,C5,d12
935,8220DB007861,"Prince's St South, stop 7861",53.34561679,-6.249348317,17442.2.60-C5-d12-1.351.I,24:34:07,24:34:07,62, Ringsend Road,30097.69,60-C5-d12-1,C5,d12
936,8220DB000351,"Erne Street, stop 351",53.34341826,-6.245308174,17442.2.60-C5-d12-1.351.I,24:35:04,24:35:04,63, Ringsend Road,30464.26,60-C5-d12-1,C5,d12
937,8220DB000352,"Pearse Square, stop 352",53.34298915,-6.24241214,17442.2.60-C5-d12-1.351.I,24:35:28,24:35:28,64, Ringsend Road,30665.32,60-C5-d12-1,C5,d12
938,8220DB000353,"Grand Canal Quay, stop 353",53.34264501,-6.239798018,17442.2.60-C5-d12-1.351.I,24:35:49,24:35:49,65, Ringsend Road,30841.59,60-C5-d12-1,C5,d12
939,8220DB000354,"Ringsend Road, stop 354",53.34223583,-6.23643569,17442.2.60-C5-d12-1.351.I,24:36:14,24:36:14,66, Ringsend Road,31069.64,60-C5-d12-1,C5,d12
940,8260DB003999,"Cooldrinagh Terrace, stop 3999",53.36183677,-6.483482274,17444.2.60-C5-b12-1.351.I,27:01:12,27:01:12,27, Ringsend Road,13514.85,60-C5-b12-1,C5,b12
941,8260DB004000,"Springfield Hotel, stop 4000",53.36053966,-6.478314833,17444.2.60-C5-b12-1.351.I,27:01:40,27:01:40,28, Ringsend Road,13887.04,60-C5-b12-1,C5,b12
942,8230DB004001,"Liffey Valley Golf, stop 4001",53.35892285,-6.472062381,17444.2.60-C5-b12-1.351.I,27:02:14,27:02:14,29, Ringsend Road,14348.24,60-C5-b12-1,C5,b12
943,8230DB003949,"Leixlip Road, stop 3949",53.35551692,-6.460211074,17444.2.60-C5-b12-1.351.I,27:03:23,27:03:23,30, Ringsend Road,15229.92,60-C5-b12-1,C5,b12
944,8230DB003950,"Ball Alley House, stop 3950",53.35560249,-6.455010094,17444.2.60-C5-b12-1.351.I,27:03:52,27:03:52,31, Ringsend Road,15587.87,60-C5-b12-1,C5,b12
945,8230DB003372,"Lucan Village, stop 3372",53.35656433,-6.448094691,17444.2.60-C5-b12-1.351.I,27:04:30,27:04:30,32, Ringsend Road,16059.48,60-C5-b12-1,C5,b12
946,8230DB003373,"Lucan Heights, stop 3373",53.35808279,-6.441849744,17444.2.60-C5-b12-1.351.I,27:05:05,27:05:05,33, Ringsend Road,16533.07,60-C5-b12-1,C5,b12
947,8230DB003374,"St Mary's Church, stop 3374",53.35963427,-6.439524473,17444.2.60-C5-b12-1.351.I,27:05:25,27:05:25,34, Ringsend Road,16764.42,60-C5-b12-1,C5,b12
948,8230DB002233,"Chalet Gardens, stop 2233",53.3600895,-6.435165776,17444.2.60-C5-b12-1.351.I,27:05:51,27:05:51,35, Ringsend Road,17060.36,60-C5-b12-1,C5,b12
949,8230DB002232,"Ballydowd Grove, stop 2232",53.35973763,-6.430956834,17444.2.60-C5-b12-1.351.I,27:06:14,27:06:14,36, Ringsend Road,17345.86,60-C5-b12-1,C5,b12
950,8230DB002234,"Lucan Retail Park, stop 2234",53.35933655,-6.424390974,17444.2.60-C5-b12-1.351.I,27:06:49,27:06:49,37, Ringsend Road,17783.18,60-C5-b12-1,C5,b12
951,8230DB002236,"Hermitage Bridge, stop 2236",53.35886946,-6.410856513,17444.2.60-C5-b12-1.351.I,27:07:52,27:07:52,38, Ringsend Road,18702.92,60-C5-b12-1,C5,b12
952,8230DB005056,"Hermitage Clinic, stop 5056",53.35752149,-6.402793928,17444.2.60-C5-b12-1.351.I,27:08:31,27:08:31,39, Ringsend Road,19261.59,60-C5-b12-1,C5,b12
953,8230DB002239,"Liffey Valley SC, stop 2239",53.35616847,-6.3917274,17444.2.60-C5-b12-1.351.I,27:09:31,27:09:31,40, Ringsend Road,20080.83,60-C5-b12-1,C5,b12
954,8230DB002241,"Kennelsfort Road, stop 2241",53.35492926,-6.371268023,17444.2.60-C5-b12-1.351.I,27:10:59,27:10:59,41, Ringsend Road,21500.25,60-C5-b12-1,C5,b12
955,8230DB002242,"The Oval, stop 2242",53.35392732,-6.367009818,17444.2.60-C5-b12-1.351.I,27:11:20,27:11:20,42, Ringsend Road,21805.65,60-C5-b12-1,C5,b12
956,8220DB002243,"Glenaulin, stop 2243",53.35197438,-6.355697995,17444.2.60-C5-b12-1.351.I,27:12:44,27:12:44,43, Ringsend Road,22599.29,60-C5-b12-1,C5,b12
957,8220DB002244,"Belgrove Park, stop 2244",53.35088435,-6.351609074,17444.2.60-C5-b12-1.351.I,27:13:15,27:13:15,44, Ringsend Road,22896.4,60-C5-b12-1,C5,b12
958,8220DB002245,"Laurence Brook, stop 2245",53.3494632,-6.348284211,17444.2.60-C5-b12-1.351.I,27:13:41,27:13:41,45, Ringsend Road,23168.74,60-C5-b12-1,C5,b12
959,8220DB002246,"Chapelizod, stop 2246",53.34831131,-6.343642354,17444.2.60-C5-b12-1.351.I,27:14:19,27:14:19,46, Ringsend Road,23581.76,60-C5-b12-1,C5,b12
960,8220DB002247,"St Mary's Hospital, stop 2247",53.34675286,-6.336282916,17444.2.60-C5-b12-1.351.I,27:15:04,27:15:04,47, Ringsend Road,24118.23,60-C5-b12-1,C5,b12
961,8220DB002248,"Military Road, stop 2248",53.34632093,-6.327888637,17444.2.60-C5-b12-1.351.I,27:15:51,27:15:51,48, Ringsend Road,24676.76,60-C5-b12-1,C5,b12
962,8220DB002249,"Garda Boat Club, stop 2249",53.3465317,-6.321136449,17444.2.60-C5-b12-1.351.I,27:16:18,27:16:18,49, Ringsend Road,25127.94,60-C5-b12-1,C5,b12
963,8220DB002250,"Salmon Pool, stop 2250",53.34743859,-6.31533304,17444.2.60-C5-b12-1.351.I,27:16:42,27:16:42,50, Ringsend Road,25526.81,60-C5-b12-1,C5,b12
964,8220DB002251,"Islandbridge Gate, stop 2251",53.34813204,-6.310979792,17444.2.60-C5-b12-1.351.I,27:17:10,27:17:10,51, Ringsend Road,25825.23,60-C5-b12-1,C5,b12
965,8220DB001472,"Conyngham Road, stop 1472",53.34842947,-6.30596617,17444.2.60-C5-b12-1.351.I,27:17:41,27:17:41,52, Ringsend Road,26159.14,60-C5-b12-1,C5,b12
966,8220DB004408,"Phoenix House, stop 4408",53.34833336,-6.30110331,17444.2.60-C5-b12-1.351.I,27:18:03,27:18:03,53, Ringsend Road,26481.18,60-C5-b12-1,C5,b12
967,8220DB001473,"Phoenix Park Gate, stop 1473",53.34830598,-6.298550899,17444.2.60-C5-b12-1.351.I,27:18:14,27:18:14,54, Ringsend Road,26650.63,60-C5-b12-1,C5,b12
968,8220DB001474,"Parkgate Street, stop 1474",53.34794792,-6.292361705,17444.2.60-C5-b12-1.351.I,27:18:52,27:18:52,55, Ringsend Road,27063.01,60-C5-b12-1,C5,b12
969,8220DB001476,"Sarsfield Quay, stop 1476",53.34707369,-6.284676275,17444.2.60-C5-b12-1.351.I,27:19:41,27:19:41,56, Ringsend Road,27591.27,60-C5-b12-1,C5,b12
970,8220DB007854,"Arran Quay, stop 7854",53.34636761,-6.278711665,17444.2.60-C5-b12-1.351.I,27:20:49,27:20:49,57, Ringsend Road,27994.01,60-C5-b12-1,C5,b12
971,8220DB007856,"Four Courts, stop 7856",53.34562262,-6.273184391,17444.2.60-C5-b12-1.351.I,27:21:45,27:21:45,58, Ringsend Road,28373.43,60-C5-b12-1,C5,b12
972,8220DB007883,"Ormond Quay, stop 7883",53.346058,-6.268495617,17444.2.60-C5-b12-1.351.I,27:22:37,27:22:37,59, Ringsend Road,28692.67,60-C5-b12-1,C5,b12
973,8220DB000315,"Bachelors Walk, stop 315",53.34702829,-6.261667155,17444.2.60-C5-b12-1.351.I,27:23:54,27:23:54,60, Ringsend Road,29162.87,60-C5-b12-1,C5,b12
974,8220DB000340,"Townsend Street, stop 340",53.34597512,-6.256017478,17444.2.60-C5-b12-1.351.I,27:26:14,27:26:14,61, Ringsend Road,29653.59,60-C5-b12-1,C5,b12
975,8220DB007861,"Prince's St South, stop 7861",53.34561679,-6.249348317,17444.2.60-C5-b12-1.351.I,27:27:15,27:27:15,62, Ringsend Road,30097.69,60-C5-b12-1,C5,b12
976,8220DB000351,"Erne Street, stop 351",53.34341826,-6.245308174,17444.2.60-C5-b12-1.351.I,27:28:09,27:28:09,63, Ringsend Road,30464.26,60-C5-b12-1,C5,b12
977,8220DB000352,"Pearse Square, stop 352",53.34298915,-6.24241214,17444.2.60-C5-b12-1.351.I,27:28:28,27:28:28,64, Ringsend Road,30665.32,60-C5-b12-1,C5,b12
978,8220DB000353,"Grand Canal Quay, stop 353",53.34264501,-6.239798018,17444.2.60-C5-b12-1.351.I,27:28:45,27:28:45,65, Ringsend Road,30841.59,60-C5-b12-1,C5,b12
979,8220DB000354,"Ringsend Road, stop 354",53.34223583,-6.23643569,17444.2.60-C5-b12-1.351.I,27:29:08,27:29:08,66, Ringsend Road,31069.64,60-C5-b12-1,C5,b12
980,8260DB003999,"Cooldrinagh Terrace, stop 3999",53.36183677,-6.483482274,17444.2.60-C5-d12-1.351.I,27:01:12,27:01:12,27, Ringsend Road,13514.85,60-C5-d12-1,C5,d12
981,8260DB004000,"Springfield Hotel, stop 4000",53.36053966,-6.478314833,17444.2.60-C5-d12-1.351.I,27:01:40,27:01:40,28, Ringsend Road,13887.04,60-C5-d12-1,C5,d12
982,8230DB004001,"Liffey Valley Golf, stop 4001",53.35892285,-6.472062381,17444.2.60-C5-d12-1.351.I,27:02:14,27:02:14,29, Ringsend Road,14348.24,60-C5-d12-1,C5,d12
983,8230DB003949,"Leixlip Road, stop 3949",53.35551692,-6.460211074,17444.2.60-C5-d12-1.351.I,27:03:23,27:03:23,30, Ringsend Road,15229.92,60-C5-d12-1,C5,d12
984,8230DB003950,"Ball Alley House, stop 3950",53.35560249,-6.455010094,17444.2.60-C5-d12-1.351.I,27:03:52,27:03:52,31, Ringsend Road,15587.87,60-C5-d12-1,C5,d12
985,8230DB003372,"Lucan Village, stop 3372",53.35656433,-6.448094691,17444.2.60-C5-d12-1.351.I,27:04:30,27:04:30,32, Ringsend Road,16059.48,60-C5-d12-1,C5,d12
986,8230DB003373,"Lucan Heights, stop 3373",53.35808279,-6.441849744,17444.2.60-C5-d12-1.351.I,27:05:05,27:05:05,33, Ringsend Road,16533.07,60-C5-d12-1,C5,d12
987,8230DB003374,"St Mary's Church, stop 3374",53.35963427,-6.439524473,17444.2.60-C5-d12-1.351.I,27:05:25,27:05:25,34, Ringsend Road,16764.42,60-C5-d12-1,C5,d12
988,8230DB002233,"Chalet Gardens, stop 2233",53.3600895,-6.435165776,17444.2.60-C5-d12-1.351.I,27:05:51,27:05:51,35, Ringsend Road,17060.36,60-C5-d12-1,C5,d12
989,8230DB002232,"Ballydowd Grove, stop 2232",53.35973763,-6.430956834,17444.2.60-C5-d12-1.351.I,27:06:14,27:06:14,36, Ringsend Road,17345.86,60-C5-d12-1,C5,d12
990,8230DB002234,"Lucan Retail Park, stop 2234",53.35933655,-6.424390974,17444.2.60-C5-d12-1.351.I,27:06:49,27:06:49,37, Ringsend Road,17783.18,60-C5-d12-1,C5,d12
991,8230DB002236,"Hermitage Bridge, stop 2236",53.35886946,-6.410856513,17444.2.60-C5-d12-1.351.I,27:07:52,27:07:52,38, Ringsend Road,18702.92,60-C5-d12-1,C5,d12
992,8230DB005056,"Hermitage Clinic, stop 5056",53.35752149,-6.402793928,17444.2.60-C5-d12-1.351.I,27:08:31,27:08:31,39, Ringsend Road,19261.59,60-C5-d12-1,C5,d12
993,8230DB002239,"Liffey Valley SC, stop 2239",53.35616847,-6.3917274,17444.2.60-C5-d12-1.351.I,27:09:31,27:09:31,40, Ringsend Road,20080.83,60-C5-d12-1,C5,d12
994,8230DB002241,"Kennelsfort Road, stop 2241",53.35492926,-6.371268023,17444.2.60-C5-d12-1.351.I,27:10:59,27:10:59,41, Ringsend Road,21500.25,60-C5-d12-1,C5,d12
995,8230DB002242,"The Oval, stop 2242",53.35392732,-6.367009818,17444.2.60-C5-d12-1.351.I,27:11:20,27:11:20,42, Ringsend Road,21805.65,60-C5-d12-1,C5,d12
996,8220DB002243,"Glenaulin, stop 2243",53.35197438,-6.355697995,17444.2.60-C5-d12-1.351.I,27:12:44,27:12:44,43, Ringsend Road,22599.29,60-C5-d12-1,C5,d12
997,8220DB002244,"Belgrove Park, stop 2244",53.35088435,-6.351609074,17444.2.60-C5-d12-1.351.I,27:13:15,27:13:15,44, Ringsend Road,22896.4,60-C5-d12-1,C5,d12
998,8220DB002245,"Laurence Brook, stop 2245",53.3494632,-6.348284211,17444.2.60-C5-d12-1.351.I,27:13:41,27:13:41,45, Ringsend Road,23168.74,60-C5-d12-1,C5,d12
999,8220DB002246,"Chapelizod, stop 2246",53.34831131,-6.343642354,17444.2.60-C5-d12-1.351.I,27:14:19,27:14:19,46, Ringsend Road,23581.76,60-C5-d12-1,C5,d12
1000,8220DB002247,"St Mary's Hospital, stop 2247",53.34675286,-6.336282916,17444.2.60-C5-d12-1.351.I,27:15:04,27:15:04,47, Ringsend Road,24118.23,60-C5-d12-1,C5,d12
1001,8220DB002248,"Military Road, stop 2248",53.34632093,-6.327888637,17444.2.60-C5-d12-1.351.I,27:15:51,27:15:51,48, Ringsend Road,24676.76,60-C5-d12-1,C5,d12
1002,8220DB002249,"Garda Boat Club, stop 2249",53.3465317,-6.321136449,17444.2.60-C5-d12-1.351.I,27:16:18,27:16:18,49, Ringsend Road,25127.94,60-C5-d12-1,C5,d12
1003,8220DB002250,"Salmon Pool, stop 2250",53.34743859,-6.31533304,17444.2.60-C5-d12-1.351.I,27:16:42,27:16:42,50, Ringsend Road,25526.81,60-C5-d12-1,C5,d12
1004,8220DB002251,"Islandbridge Gate, stop 2251",53.34813204,-6.310979792,17444.2.60-C5-d12-1.351.I,27:17:10,27:17:10,51, Ringsend Road,25825.23,60-C5-d12-1,C5,d12
1005,8220DB001472,"Conyngham Road, stop 1472",53.34842947,-6.30596617,17444.2.60-C5-d12-1.351.I,27:17:41,27:17:41,52, Ringsend Road,26159.14,60-C5-d12-1,C5,d12
1006,8220DB004408,"Phoenix House, stop 4408",53.34833336,-6.30110331,17444.2.60-C5-d12-1.351.I,27:18:03,27:18:03,53, Ringsend Road,26481.18,60-C5-d12-1,C5,d12
1007,8220DB001473,"Phoenix Park Gate, stop 1473",53.34830598,-6.298550899,17444.2.60-C5-d12-1.351.I,27:18:14,27:18:14,54, Ringsend Road,26650.63,60-C5-d12-1,C5,d12
1008,8220DB001474,"Parkgate Street, stop 1474",53.34794792,-6.292361705,17444.2.60-C5-d12-1.351.I,27:18:52,27:18:52,55, Ringsend Road,27063.01,60-C5-d12-1,C5,d12
1009,8220DB001476,"Sarsfield Quay, stop 1476",53.34707369,-6.284676275,17444.2.60-C5-d12-1.351.I,27:19:41,27:19:41,56, Ringsend Road,27591.27,60-C5-d12-1,C5,d12
1010,8220DB007854,"Arran Quay, stop 7854",53.34636761,-6.278711665,17444.2.60-C5-d12-1.351.I,27:20:49,27:20:49,57, Ringsend Road,27994.01,60-C5-d12-1,C5,d12
1011,8220DB007856,"Four Courts, stop 7856",53.34562262,-6.273184391,17444.2.60-C5-d12-1.351.I,27:21:45,27:21:45,58, Ringsend Road,28373.43,60-C5-d12-1,C5,d12
1012,8220DB007883,"Ormond Quay, stop 7883",53.346058,-6.268495617,17444.2.60-C5-d12-1.351.I,27:22:37,27:22:37,59, Ringsend Road,28692.67,60-C5-d12-1,C5,d12
1013,8220DB000315,"Bachelors Walk, stop 315",53.34702829,-6.261667155,17444.2.60-C5-d12-1.351.I,27:23:54,27:23:54,60, Ringsend Road,29162.87,60-C5-d12-1,C5,d12
1014,8220DB000340,"Townsend Street, stop 340",53.34597512,-6.256017478,17444.2.60-C5-d12-1.351.I,27:26:14,27:26:14,61, Ringsend Road,29653.59,60-C5-d12-1,C5,d12
1015,8220DB007861,"Prince's St South, stop 7861",53.34561679,-6.249348317,17444.2.60-C5-d12-1.351.I,27:27:15,27:27:15,62, Ringsend Road,30097.69,60-C5-d12-1,C5,d12
1016,8220DB000351,"Erne Street, stop 351",53.34341826,-6.245308174,17444.2.60-C5-d12-1.351.I,27:28:09,27:28:09,63, Ringsend Road,30464.26,60-C5-d12-1,C5,d12
1017,8220DB000352,"Pearse Square, stop 352",53.34298915,-6.24241214,17444.2.60-C5-d12-1.351.I,27:28:28,27:28:28,64, Ringsend Road,30665.32,60-C5-d12-1,C5,d12
1018,8220DB000353,"Grand Canal Quay, stop 353",53.34264501,-6.239798018,17444.2.60-C5-d12-1.351.I,27:28:45,27:28:45,65, Ringsend Road,30841.59,60-C5-d12-1,C5,d12
1019,8220DB000354,"Ringsend Road, stop 354",53.34223583,-6.23643569,17444.2.60-C5-d12-1.351.I,27:29:08,27:29:08,66, Ringsend Road,31069.64,60-C5-d12-1,C5,d12
1480,8260DB003999,"Cooldrinagh Terrace, stop 3999",53.36183677,-6.483482274,17499.2.60-C5-b12-1.351.I,25:01:12,25:01:12,27, Ringsend Road,13514.85,60-C5-b12-1,C5,b12
1481,8260DB004000,"Springfield Hotel, stop 4000",53.36053966,-6.478314833,17499.2.60-C5-b12-1.351.I,25:01:40,25:01:40,28, Ringsend Road,13887.04,60-C5-b12-1,C5,b12
1482,8230DB004001,"Liffey Valley Golf, stop 4001",53.35892285,-6.472062381,17499.2.60-C5-b12-1.351.I,25:02:14,25:02:14,29, Ringsend Road,14348.24,60-C5-b12-1,C5,b12
1483,8230DB003949,"Leixlip Road, stop 3949",53.35551692,-6.460211074,17499.2.60-C5-b12-1.351.I,25:03:23,25:03:23,30, Ringsend Road,15229.92,60-C5-b12-1,C5,b12
1484,8230DB003950,"Ball Alley House, stop 3950",53.35560249,-6.455010094,17499.2.60-C5-b12-1.351.I,25:03:52,25:03:52,31, Ringsend Road,15587.87,60-C5-b12-1,C5,b12
1485,8230DB003372,"Lucan Village, stop 3372",53.35656433,-6.448094691,17499.2.60-C5-b12-1.351.I,25:04:30,25:04:30,32, Ringsend Road,16059.48,60-C5-b12-1,C5,b12
1486,8230DB003373,"Lucan Heights, stop 3373",53.35808279,-6.441849744,17499.2.60-C5-b12-1.351.I,25:05:05,25:05:05,33, Ringsend Road,16533.07,60-C5-b12-1,C5,b12
1487,8230DB003374,"St Mary's Church, stop 3374",53.35963427,-6.439524473,17499.2.60-C5-b12-1.351.I,25:05:25,25:05:25,34, Ringsend Road,16764.42,60-C5-b12-1,C5,b12
1488,8230DB002233,"Chalet Gardens, stop 2233",53.3600895,-6.435165776,17499.2.60-C5-b12-1.351.I,25:05:51,25:05:51,35, Ringsend Road,17060.36,60-C5-b12-1,C5,b12
1489,8230DB002232,"Ballydowd Grove, stop 2232",53.35973763,-6.430956834,17499.2.60-C5-b12-1.351.I,25:06:14,25:06:14,36, Ringsend Road,17345.86,60-C5-b12-1,C5,b12
1490,8230DB002234,"Lucan Retail Park, stop 2234",53.35933655,-6.424390974,17499.2.60-C5-b12-1.351.I,25:06:49,25:06:49,37, Ringsend Road,17783.18,60-C5-b12-1,C5,b12
1491,8230DB002236,"Hermitage Bridge, stop 2236",53.35886946,-6.410856513,17499.2.60-C5-b12-1.351.I,25:07:52,25:07:52,38, Ringsend Road,18702.92,60-C5-b12-1,C5,b12
1492,8230DB005056,"Hermitage Clinic, stop 5056",53.35752149,-6.402793928,17499.2.60-C5-b12-1.351.I,25:08:31,25:08:31,39, Ringsend Road,19261.59,60-C5-b12-1,C5,b12
1493,8230DB002239,"Liffey Valley SC, stop 2239",53.35616847,-6.3917274,17499.2.60-C5-b12-1.351.I,25:09:31,25:09:31,40, Ringsend Road,20080.83,60-C5-b12-1,C5,b12
1494,8230DB002241,"Kennelsfort Road, stop 2241",53.35492926,-6.371268023,17499.2.60-C5-b12-1.351.I,25:10:59,25:10:59,41, Ringsend Road,21500.25,60-C5-b12-1,C5,b12
1495,8230DB002242,"The Oval, stop 2242",53.35392732,-6.367009818,17499.2.60-C5-b12-1.351.I,25:11:20,25:11:20,42, Ringsend Road,21805.65,60-C5-b12-1,C5,b12
1496,8220DB002243,"Glenaulin, stop 2243",53.35197438,-6.355697995,17499.2.60-C5-b12-1.351.I,25:12:44,25:12:44,43, Ringsend Road,22599.29,60-C5-b12-1,C5,b12
1497,8220DB002244,"Belgrove Park, stop 2244",53.35088435,-6.351609074,17499.2.60-C5-b12-1.351.I,25:13:15,25:13:15,44, Ringsend Road,22896.4,60-C5-b12-1,C5,b12
1498,8220DB002245,"Laurence Brook, stop 2245",53.3494632,-6.348284211,17499.2.60-C5-b12-1.351.I,25:13:41,25:13:41,45, Ringsend Road,23168.74,60-C5-b12-1,C5,b12
1499,8220DB002246,"Chapelizod, stop 2246",53.34831131,-6.343642354,17499.2.60-C5-b12-1.351.I,25:14:19,25:14:19,46, Ringsend Road,23581.76,60-C5-b12-1,C5,b12
1500,8220DB002247,"St Mary's Hospital, stop 2247",53.34675286,-6.336282916,17499.2.60-C5-b12-1.351.I,25:15:04,25:15:04,47, Ringsend Road,24118.23,60-C5-b12-1,C5,b12
1501,8220DB002248,"Military Road, stop 2248",53.34632093,-6.327888637,17499.2.60-C5-b12-1.351.I,25:15:51,25:15:51,48, Ringsend Road,24676.76,60-C5-b12-1,C5,b12
1502,8220DB002249,"Garda Boat Club, stop 2249",53.3465317,-6.321136449,17499.2.60-C5-b12-1.351.I,25:16:18,25:16:18,49, Ringsend Road,25127.94,60-C5-b12-1,C5,b12
1503,8220DB002250,"Salmon Pool, stop 2250",53.34743859,-6.31533304,17499.2.60-C5-b12-1.351.I,25:16:42,25:16:42,50, Ringsend Road,25526.81,60-C5-b12-1,C5,b12
1504,8220DB002251,"Islandbridge Gate, stop 2251",53.34813204,-6.310979792,17499.2.60-C5-b12-1.351.I,25:17:10,25:17:10,51, Ringsend Road,25825.23,60-C5-b12-1,C5,b12
1505,8220DB001472,"Conyngham Road, stop 1472",53.34842947,-6.30596617,17499.2.60-C5-b12-1.351.I,25:17:41,25:17:41,52, Ringsend Road,26159.14,60-C5-b12-1,C5,b12
1506,8220DB004408,"Phoenix House, stop 4408",53.34833336,-6.30110331,17499.2.60-C5-b12-1.351.I,25:18:03,25:18:03,53, Ringsend Road,26481.18,60-C5-b12-1,C5,b12
1507,8220DB001473,"Phoenix Park Gate, stop 1473",53.34830598,-6.298550899,17499.2.60-C5-b12-1.351.I,25:18:14,25:18:14,54, Ringsend Road,26650.63,60-C5-b12-1,C5,b12
1508,8220DB001474,"Parkgate Street, stop 1474",53.34794792,-6.292361705,17499.2.60-C5-b12-1.351.I,25:18:52,25:18:52,55, Ringsend Road,27063.01,60-C5-b12-1,C5,b12
1509,8220DB001476,"Sarsfield Quay, stop 1476",53.34707369,-6.284676275,17499.2.60-C5-b12-1.351.I,25:19:41,25:19:41,56, Ringsend Road,27591.27,60-C5-b12-1,C5,b12
1510,8220DB007854,"Arran Quay, stop 7854",53.34636761,-6.278711665,17499.2.60-C5-b12-1.351.I,25:20:49,25:20:49,57, Ringsend Road,27994.01,60-C5-b12-1,C5,b12
1511,8220DB007856,"Four Courts, stop 7856",53.34562262,-6.273184391,17499.2.60-C5-b12-1.351.I,25:21:45,25:21:45,58, Ringsend Road,28373.43,60-C5-b12-1,C5,b12
1512,8220DB007883,"Ormond Quay, stop 7883",53.346058,-6.268495617,17499.2.60-C5-b12-1.351.I,25:22:37,25:22:37,59, Ringsend Road,28692.67,60-C5-b12-1,C5,b12
1513,8220DB000315,"Bachelors Walk, stop 315",53.34702829,-6.261667155,17499.2.60-C5-b12-1.351.I,25:23:54,25:23:54,60, Ringsend Road,29162.87,60-C5-b12-1,C5,b12
1514,8220DB000340,"Townsend Street, stop 340",53.34597512,-6.256017478,17499.2.60-C5-b12-1.351.I,25:26:14,25:26:14,61, Ringsend Road,29653.59,60-C5-b12-1,C5,b12
1515,8220DB007861,"Prince's St South, stop 7861",53.34561679,-6.249348317,17499.2.60-C5-b12-1.351.I,25:27:15,25:27:15,62, Ringsend Road,30097.69,60-C5-b12-1,C5,b12
1516,8220DB000351,"Erne Street, stop 351",53.34341826,-6.245308174,17499.2.60-C5-b12-1.351.I,25:28:09,25:28:09,63, Ringsend Road,30464.26,60-C5-b12-1,C5,b12
1517,8220DB000352,"Pearse Square, stop 352",53.34298915,-6.24241214,17499.2.60-C5-b12-1.351.I,25:28:28,25:28:28,64, Ringsend Road,30665.32,60-C5-b12-1,C5,b12
1518,8220DB000353,"Grand Canal Quay, stop 353",53.34264501,-6.239798018,17499.2.60-C5-b12-1.351.I,25:28:45,25:28:45,65, Ringsend Road,30841.59,60-C5-b12-1,C5,b12
1519,8220DB000354,"Ringsend Road, stop 354",53.34223583,-6.23643569,17499.2.60-C5-b12-1.351.I,25:29:08,25:29:08,66, Ringsend Road,31069.64,60-C5-b12-1,C5,b12
1520,8260DB003999,"Cooldrinagh Terrace, stop 3999",53.36183677,-6.483482274,17499.2.60-C5-d12-1.351.I,25:01:12,25:01:12,27, Ringsend Road,13514.85,60-C5-d12-1,C5,d12
1521,8260DB004000,"Springfield Hotel, stop 4000",53.36053966,-6.478314833,17499.2.60-C5-d12-1.351.I,25:01:40,25:01:40,28, Ringsend Road,13887.04,60-C5-d12-1,C5,d12
1522,8230DB004001,"Liffey Valley Golf, stop 4001",53.35892285,-6.472062381,17499.2.60-C5-d12-1.351.I,25:02:14,25:02:14,29, Ringsend Road,14348.24,60-C5-d12-1,C5,d12
1523,8230DB003949,"Leixlip Road, stop 3949",53.35551692,-6.460211074,17499.2.60-C5-d12-1.351.I,25:03:23,25:03:23,30, Ringsend Road,15229.92,60-C5-d12-1,C5,d12
1524,8230DB003950,"Ball Alley House, stop 3950",53.35560249,-6.455010094,17499.2.60-C5-d12-1.351.I,25:03:52,25:03:52,31, Ringsend Road,15587.87,60-C5-d12-1,C5,d12
1525,8230DB003372,"Lucan Village, stop 3372",53.35656433,-6.448094691,17499.2.60-C5-d12-1.351.I,25:04:30,25:04:30,32, Ringsend Road,16059.48,60-C5-d12-1,C5,d12
1526,8230DB003373,"Lucan Heights, stop 3373",53.35808279,-6.441849744,17499.2.60-C5-d12-1.351.I,25:05:05,25:05:05,33, Ringsend Road,16533.07,60-C5-d12-1,C5,d12
1527,8230DB003374,"St Mary's Church, stop 3374",53.35963427,-6.439524473,17499.2.60-C5-d12-1.351.I,25:05:25,25:05:25,34, Ringsend Road,16764.42,60-C5-d12-1,C5,d12
1528,8230DB002233,"Chalet Gardens, stop 2233",53.3600895,-6.435165776,17499.2.60-C5-d12-1.351.I,25:05:51,25:05:51,35, Ringsend Road,17060.36,60-C5-d12-1,C5,d12
1529,8230DB002232,"Ballydowd Grove, stop 2232",53.35973763,-6.430956834,17499.2.60-C5-d12-1.351.I,25:06:14,25:06:14,36, Ringsend Road,17345.86,60-C5-d12-1,C5,d12
1530,8230DB002234,"Lucan Retail Park, stop 2234",53.35933655,-6.424390974,17499.2.60-C5-d12-1.351.I,25:06:49,25:06:49,37, Ringsend Road,17783.18,60-C5-d12-1,C5,d12
1531,8230DB002236,"Hermitage Bridge, stop 2236",53.35886946,-6.410856513,17499.2.60-C5-d12-1.351.I,25:07:52,25:07:52,38, Ringsend Road,18702.92,60-C5-d12-1,C5,d12
1532,8230DB005056,"Hermitage Clinic, stop 5056",53.35752149,-6.402793928,17499.2.60-C5-d12-1.351.I,25:08:31,25:08:31,39, Ringsend Road,19261.59,60-C5-d12-1,C5,d12
1533,8230DB002239,"Liffey Valley SC, stop 2239",53.35616847,-6.3917274,17499.2.60-C5-d12-1.351.I,25:09:31,25:09:31,40, Ringsend Road,20080.83,60-C5-d12-1,C5,d12
1534,8230DB002241,"Kennelsfort Road, stop 2241",53.35492926,-6.371268023,17499.2.60-C5-d12-1.351.I,25:10:59,25:10:59,41, Ringsend Road,21500.25,60-C5-d12-1,C5,d12
1535,8230DB002242,"The Oval, stop 2242",53.35392732,-6.367009818,17499.2.60-C5-d12-1.351.I,25:11:20,25:11:20,42, Ringsend Road,21805.65,60-C5-d12-1,C5,d12
1536,8220DB002243,"Glenaulin, stop 2243",53.35197438,-6.355697995,17499.2.60-C5-d12-1.351.I,25:12:44,25:12:44,43, Ringsend Road,22599.29,60-C5-d12-1,C5,d12
1537,8220DB002244,"Belgrove Park, stop 2244",53.35088435,-6.351609074,17499.2.60-C5-d12-1.351.I,25:13:15,25:13:15,44, Ringsend Road,22896.4,60-C5-d12-1,C5,d12
1538,8220DB002245,"Laurence Brook, stop 2245",53.3494632,-6.348284211,17499.2.60-C5-d12-1.351.I,25:13:41,25:13:41,45, Ringsend Road,23168.74,60-C5-d12-1,C5,d12
1539,8220DB002246,"Chapelizod, stop 2246",53.34831131,-6.343642354,17499.2.60-C5-d12-1.351.I,25:14:19,25:14:19,46, Ringsend Road,23581.76,60-C5-d12-1,C5,d12
1540,8220DB002247,"St Mary's Hospital, stop 2247",53.34675286,-6.336282916,17499.2.60-C5-d12-1.351.I,25:15:04,25:15:04,47, Ringsend Road,24118.23,60-C5-d12-1,C5,d12
1541,8220DB002248,"Military Road, stop 2248",53.34632093,-6.327888637,17499.2.60-C5-d12-1.351.I,25:15:51,25:15:51,48, Ringsend Road,24676.76,60-C5-d12-1,C5,d12
1542,8220DB002249,"Garda Boat Club, stop 2249",53.3465317,-6.321136449,17499.2.60-C5-d12-1.351.I,25:16:18,25:16:18,49, Ringsend Road,25127.94,60-C5-d12-1,C5,d12
1543,8220DB002250,"Salmon Pool, stop 2250",53.34743859,-6.31533304,17499.2.60-C5-d12-1.351.I,25:16:42,25:16:42,50, Ringsend Road,25526.81,60-C5-d12-1,C5,d12
1544,8220DB002251,"Islandbridge Gate, stop 2251",53.34813204,-6.310979792,17499.2.60-C5-d12-1.351.I,25:17:10,25:17:10,51, Ringsend Road,25825.23,60-C5-d12-1,C5,d12
1545,8220DB001472,"Conyngham Road, stop 1472",53.34842947,-6.30596617,17499.2.60-C5-d12-1.351.I,25:17:41,25:17:41,52, Ringsend Road,26159.14,60-C5-d12-1,C5,d12
1546,8220DB004408,"Phoenix House, stop 4408",53.34833336,-6.30110331,17499.2.60-C5-d12-1.351.I,25:18:03,25:18:03,53, Ringsend Road,26481.18,60-C5-d12-1,C5,d12
1547,8220DB001473,"Phoenix Park Gate, stop 1473",53.34830598,-6.298550899,17499.2.60-C5-d12-1.351.I,25:18:14,25:18:14,54, Ringsend Road,26650.63,60-C5-d12-1,C5,d12
1548,8220DB001474,"Parkgate Street, stop 1474",53.34794792,-6.292361705,17499.2.60-C5-d12-1.351.I,25:18:52,25:18:52,55, Ringsend Road,27063.01,60-C5-d12-1,C5,d12
1549,8220DB001476,"Sarsfield Quay, stop 1476",53.34707369,-6.284676275,17499.2.60-C5-d12-1.351.I,25:19:41,25:19:41,56, Ringsend Road,27591.27,60-C5-d12-1,C5,d12
1550,8220DB007854,"Arran Quay, stop 7854",53.34636761,-6.278711665,17499.2.60-C5-d12-1.351.I,25:20:49,25:20:49,57, Ringsend Road,27994.01,60-C5-d12-1,C5,d12
1551,8220DB007856,"Four Courts, stop 7856",53.34562262,-6.273184391,17499.2.60-C5-d12-1.351.I,25:21:45,25:21:45,58, Ringsend Road,28373.43,60-C5-d12-1,C5,d12
1552,8220DB007883,"Ormond Quay, stop 7883",53.346058,-6.268495617,17499.2.60-C5-d12-1.351.I,25:22:37,25:22:37,59, Ringsend Road,28692.67,60-C5-d12-1,C5,d12
1553,8220DB000315,"Bachelors Walk, stop 315",53.34702829,-6.261667155,17499.2.60-C5-d12-1.351.I,25:23:54,25:23:54,60, Ringsend Road,29162.87,60-C5-d12-1,C5,d12
1554,8220DB000340,"Townsend Street, stop 340",53.34597512,-6.256017478,17499.2.60-C5-d12-1.351.I,25:26:14,25:26:14,61, Ringsend Road,29653.59,60-C5-d12-1,C5,d12
1555,8220DB007861,"Prince's St South, stop 7861",53.34561679,-6.249348317,17499.2.60-C5-d12-1.351.I,25:27:15,25:27:15,62, Ringsend Road,30097.69,60-C5-d12-1,C5,d12
1556,8220DB000351,"Erne Street, stop 351",53.34341826,-6.245308174,17499.2.60-C5-d12-1.351.I,25:28:09,25:28:09,63, Ringsend Road,30464.26,60-C5-d12-1,C5,d12
1557,8220DB000352,"Pearse Square, stop 352",53.34298915,-6.24241214,17499.2.60-C5-d12-1.351.I,25:28:28,25:28:28,64, Ringsend Road,30665.32,60-C5-d12-1,C5,d12
1558,8220DB000353,"Grand Canal Quay, stop 353",53.34264501,-6.239798018,17499.2.60-C5-d12-1.351.I,25:28:45,25:28:45,65, Ringsend Road,30841.59,60-C5-d12-1,C5,d12
1559,8220DB000354,"Ringsend Road, stop 354",53.34223583,-6.23643569,17499.2.60-C5-d12-1.351.I,25:29:08,25:29:08,66, Ringsend Road,31069.64,60-C5-d12-1,C5,d12
1560,8260DB003999,"Cooldrinagh Terrace, stop 3999",53.36183677,-6.483482274,17501.2.60-C5-b12-1.351.I,27:57:10,27:57:10,27, Ringsend Road,13514.85,60-C5-b12-1,C5,b12
1561,8260DB004000,"Springfield Hotel, stop 4000",53.36053966,-6.478314833,17501.2.60-C5-b12-1.351.I,27:57:34,27:57:34,28, Ringsend Road,13887.04,60-C5-b12-1,C5,b12
1562,8230DB004001,"Liffey Valley Golf, stop 4001",53.35892285,-6.472062381,17501.2.60-C5-b12-1.351.I,27:58:04,27:58:04,29, Ringsend Road,14348.24,60-C5-b12-1,C5,b12
1563,8230DB003949,"Leixlip Road, stop 3949",53.35551692,-6.460211074,17501.2.60-C5-b12-1.351.I,27:59:15,27:59:15,30, Ringsend Road,15229.92,60-C5-b12-1,C5,b12
1564,8230DB003950,"Ball Alley House, stop 3950",53.35560249,-6.455010094,17501.2.60-C5-b12-1.351.I,27:59:41,27:59:41,31, Ringsend Road,15587.87,60-C5-b12-1,C5,b12
1565,8230DB003372,"Lucan Village, stop 3372",53.35656433,-6.448094691,17501.2.60-C5-b12-1.351.I,28:00:14,28:00:14,32, Ringsend Road,16059.48,60-C5-b12-1,C5,b12
1566,8230DB003373,"Lucan Heights, stop 3373",53.35808279,-6.441849744,17501.2.60-C5-b12-1.351.I,28:00:42,28:00:42,33, Ringsend Road,16533.07,60-C5-b12-1,C5,b12
1567,8230DB003374,"St Mary's Church, stop 3374",53.35963427,-6.439524473,17501.2.60-C5-b12-1.351.I,28:01:02,28:01:02,34, Ringsend Road,16764.42,60-C5-b12-1,C5,b12
1568,8230DB002233,"Chalet Gardens, stop 2233",53.3600895,-6.435165776,17501.2.60-C5-b12-1.351.I,28:01:27,28:01:27,35, Ringsend Road,17060.36,60-C5-b12-1,C5,b12
1569,8230DB002232,"Ballydowd Grove, stop 2232",53.35973763,-6.430956834,17501.2.60-C5-b12-1.351.I,28:01:50,28:01:50,36, Ringsend Road,17345.86,60-C5-b12-1,C5,b12
1570,8230DB002234,"Lucan Retail Park, stop 2234",53.35933655,-6.424390974,17501.2.60-C5-b12-1.351.I,28:02:25,28:02:25,37, Ringsend Road,17783.18,60-C5-b12-1,C5,b12
1571,8230DB002236,"Hermitage Bridge, stop 2236",53.35886946,-6.410856513,17501.2.60-C5-b12-1.351.I,28:03:25,28:03:25,38, Ringsend Road,18702.92,60-C5-b12-1,C5,b12
1572,8230DB005056,"Hermitage Clinic, stop 5056",53.35752149,-6.402793928,17501.2.60-C5-b12-1.351.I,28:04:02,28:04:02,39, Ringsend Road,19261.59,60-C5-b12-1,C5,b12
1573,8230DB002239,"Liffey Valley SC, stop 2239",53.35616847,-6.3917274,17501.2.60-C5-b12-1.351.I,28:05:00,28:05:00,40, Ringsend Road,20080.83,60-C5-b12-1,C5,b12
1574,8230DB002241,"Kennelsfort Road, stop 2241",53.35492926,-6.371268023,17501.2.60-C5-b12-1.351.I,28:06:54,28:06:54,41, Ringsend Road,21500.25,60-C5-b12-1,C5,b12
1575,8230DB002242,"The Oval, stop 2242",53.35392732,-6.367009818,17501.2.60-C5-b12-1.351.I,28:07:18,28:07:18,42, Ringsend Road,21805.65,60-C5-b12-1,C5,b12
1576,8220DB002243,"Glenaulin, stop 2243",53.35197438,-6.355697995,17501.2.60-C5-b12-1.351.I,28:08:44,28:08:44,43, Ringsend Road,22599.29,60-C5-b12-1,C5,b12
1577,8220DB002244,"Belgrove Park, stop 2244",53.35088435,-6.351609074,17501.2.60-C5-b12-1.351.I,28:09:16,28:09:16,44, Ringsend Road,22896.4,60-C5-b12-1,C5,b12
1578,8220DB002245,"Laurence Brook, stop 2245",53.3494632,-6.348284211,17501.2.60-C5-b12-1.351.I,28:09:41,28:09:41,45, Ringsend Road,23168.74,60-C5-b12-1,C5,b12
1579,8220DB002246,"Chapelizod, stop 2246",53.34831131,-6.343642354,17501.2.60-C5-b12-1.351.I,28:10:18,28:10:18,46, Ringsend Road,23581.76,60-C5-b12-1,C5,b12
1580,8220DB002247,"St Mary's Hospital, stop 2247",53.34675286,-6.336282916,17501.2.60-C5-b12-1.351.I,28:10:56,28:10:56,47, Ringsend Road,24118.23,60-C5-b12-1,C5,b12
1581,8220DB002248,"Military Road, stop 2248",53.34632093,-6.327888637,17501.2.60-C5-b12-1.351.I,28:11:35,28:11:35,48, Ringsend Road,24676.76,60-C5-b12-1,C5,b12
1582,8220DB002249,"Garda Boat Club, stop 2249",53.3465317,-6.321136449,17501.2.60-C5-b12-1.351.I,28:12:00,28:12:00,49, Ringsend Road,25127.94,60-C5-b12-1,C5,b12
1583,8220DB002250,"Salmon Pool, stop 2250",53.34743859,-6.31533304,17501.2.60-C5-b12-1.351.I,28:12:22,28:12:22,50, Ringsend Road,25526.81,60-C5-b12-1,C5,b12
1584,8220DB002251,"Islandbridge Gate, stop 2251",53.34813204,-6.310979792,17501.2.60-C5-b12-1.351.I,28:12:52,28:12:52,51, Ringsend Road,25825.23,60-C5-b12-1,C5,b12
1585,8220DB001472,"Conyngham Road, stop 1472",53.34842947,-6.30596617,17501.2.60-C5-b12-1.351.I,28:13:25,28:13:25,52, Ringsend Road,26159.14,60-C5-b12-1,C5,b12
1586,8220DB004408,"Phoenix House, stop 4408",53.34833336,-6.30110331,17501.2.60-C5-b12-1.351.I,28:13:50,28:13:50,53, Ringsend Road,26481.18,60-C5-b12-1,C5,b12
1587,8220DB001473,"Phoenix Park Gate, stop 1473",53.34830598,-6.298550899,17501.2.60-C5-b12-1.351.I,28:14:03,28:14:03,54, Ringsend Road,26650.63,60-C5-b12-1,C5,b12
1588,8220DB001474,"Parkgate Street, stop 1474",53.34794792,-6.292361705,17501.2.60-C5-b12-1.351.I,28:14:40,28:14:40,55, Ringsend Road,27063.01,60-C5-b12-1,C5,b12
1589,8220DB001476,"Sarsfield Quay, stop 1476",53.34707369,-6.284676275,17501.2.60-C5-b12-1.351.I,28:15:26,28:15:26,56, Ringsend Road,27591.27,60-C5-b12-1,C5,b12
1590,8220DB007854,"Arran Quay, stop 7854",53.34636761,-6.278711665,17501.2.60-C5-b12-1.351.I,28:16:19,28:16:19,57, Ringsend Road,27994.01,60-C5-b12-1,C5,b12
1591,8220DB007856,"Four Courts, stop 7856",53.34562262,-6.273184391,17501.2.60-C5-b12-1.351.I,28:17:03,28:17:03,58, Ringsend Road,28373.43,60-C5-b12-1,C5,b12
1592,8220DB007883,"Ormond Quay, stop 7883",53.346058,-6.268495617,17501.2.60-C5-b12-1.351.I,28:17:42,28:17:42,59, Ringsend Road,28692.67,60-C5-b12-1,C5,b12
1593,8220DB000315,"Bachelors Walk, stop 315",53.34702829,-6.261667155,17501.2.60-C5-b12-1.351.I,28:18:40,28:18:40,60, Ringsend Road,29162.87,60-C5-b12-1,C5,b12
1594,8220DB000340,"Townsend Street, stop 340",53.34597512,-6.256017478,17501.2.60-C5-b12-1.351.I,28:20:47,28:20:47,61, Ringsend Road,29653.59,60-C5-b12-1,C5,b12
1595,8220DB007861,"Prince's St South, stop 7861",53.34561679,-6.249348317,17501.2.60-C5-b12-1.351.I,28:21:58,28:21:58,62, Ringsend Road,30097.69,60-C5-b12-1,C5,b12
1596,8220DB000351,"Erne Street, stop 351",53.34341826,-6.245308174,17501.2.60-C5-b12-1.351.I,28:23:00,28:23:00,63, Ringsend Road,30464.26,60-C5-b12-1,C5,b12
1597,8220DB000352,"Pearse Square, stop 352",53.34298915,-6.24241214,17501.2.60-C5-b12-1.351.I,28:23:25,28:23:25,64, Ringsend Road,30665.32,60-C5-b12-1,C5,b12
1598,8220DB000353,"Grand Canal Quay, stop 353",53.34264501,-6.239798018,17501.2.60-C5-b12-1.351.I,28:23:48,28:23:48,65, Ringsend Road,30841.59,60-C5-b12-1,C5,b12
1599,8220DB000354,"Ringsend Road, stop 354",53.34223583,-6.23643569,17501.2.60-C5-b12-1.351.I,28:24:05,28:24:05,66, Ringsend Road,31069.64,60-C5-b12-1,C5,b12
1600,8260DB003999,"Cooldrinagh Terrace, stop 3999",53.36183677,-6.483482274,17501.2.60-C5-d12-1.351.I,27:57:10,27:57:10,27, Ringsend Road,13514.85,60-C5-d12-1,C5,d12
1601,8260DB004000,"Springfield Hotel, stop 4000",53.36053966,-6.478314833,17501.2.60-C5-d12-1.351.I,27:57:34,27:57:34,28, Ringsend Road,13887.04,60-C5-d12-1,C5,d12
1602,8230DB004001,"Liffey Valley Golf, stop 4001",53.35892285,-6.472062381,17501.2.60-C5-d12-1.351.I,27:58:04,27:58:04,29, Ringsend Road,14348.24,60-C5-d12-1,C5,d12
1603,8230DB003949,"Leixlip Road, stop 3949",53.35551692,-6.460211074,17501.2.60-C5-d12-1.351.I,27:59:15,27:59:15,30, Ringsend Road,15229.92,60-C5-d12-1,C5,d12
1604,8230DB003950,"Ball Alley House, stop 3950",53.35560249,-6.455010094,17501.2.60-C5-d12-1.351.I,27:59:41,27:59:41,31, Ringsend Road,15587.87,60-C5-d12-1,C5,d12
1605,8230DB003372,"Lucan Village, stop 3372",53.35656433,-6.448094691,17501.2.60-C5-d12-1.351.I,28:00:14,28:00:14,32, Ringsend Road,16059.48,60-C5-d12-1,C5,d12
1606,8230DB003373,"Lucan Heights, stop 3373",53.35808279,-6.441849744,17501.2.60-C5-d12-1.351.I,28:00:42,28:00:42,33, Ringsend Road,16533.07,60-C5-d12-1,C5,d12
1607,8230DB003374,"St Mary's Church, stop 3374",53.35963427,-6.439524473,17501.2.60-C5-d12-1.351.I,28:01:02,28:01:02,34, Ringsend Road,16764.42,60-C5-d12-1,C5,d12
1608,8230DB002233,"Chalet Gardens, stop 2233",53.3600895,-6.435165776,17501.2.60-C5-d12-1.351.I,28:01:27,28:01:27,35, Ringsend Road,17060.36,60-C5-d12-1,C5,d12
1609,8230DB002232,"Ballydowd Grove, stop 2232",53.35973763,-6.430956834,17501.2.60-C5-d12-1.351.I,28:01:50,28:01:50,36, Ringsend Road,17345.86,60-C5-d12-1,C5,d12
1610,8230DB002234,"Lucan Retail Park, stop 2234",53.35933655,-6.424390974,17501.2.60-C5-d12-1.351.I,28:02:25,28:02:25,37, Ringsend Road,17783.18,60-C5-d12-1,C5,d12
1611,8230DB002236,"Hermitage Bridge, stop 2236",53.35886946,-6.410856513,17501.2.60-C5-d12-1.351.I,28:03:25,28:03:25,38, Ringsend Road,18702.92,60-C5-d12-1,C5,d12
1612,8230DB005056,"Hermitage Clinic, stop 5056",53.35752149,-6.402793928,17501.2.60-C5-d12-1.351.I,28:04:02,28:04:02,39, Ringsend Road,19261.59,60-C5-d12-1,C5,d12
1613,8230DB002239,"Liffey Valley SC, stop 2239",53.35616847,-6.3917274,17501.2.60-C5-d12-1.351.I,28:05:00,28:05:00,40, Ringsend Road,20080.83,60-C5-d12-1,C5,d12
1614,8230DB002241,"Kennelsfort Road, stop 2241",53.35492926,-6.371268023,17501.2.60-C5-d12-1.351.I,28:06:54,28:06:54,41, Ringsend Road,21500.25,60-C5-d12-1,C5,d12
1615,8230DB002242,"The Oval, stop 2242",53.35392732,-6.367009818,17501.2.60-C5-d12-1.351.I,28:07:18,28:07:18,42, Ringsend Road,21805.65,60-C5-d12-1,C5,d12
1616,8220DB002243,"Glenaulin, stop 2243",53.35197438,-6.355697995,17501.2.60-C5-d12-1.351.I,28:08:44,28:08:44,43, Ringsend Road,22599.29,60-C5-d12-1,C5,d12
1617,8220DB002244,"Belgrove Park, stop 2244",53.35088435,-6.351609074,17501.2.60-C5-d12-1.351.I,28:09:16,28:09:16,44, Ringsend Road,22896.4,60-C5-d12-1,C5,d12
1618,8220DB002245,"Laurence Brook, stop 2245",53.3494632,-6.348284211,17501.2.60-C5-d12-1.351.I,28:09:41,28:09:41,45, Ringsend Road,23168.74,60-C5-d12-1,C5,d12
1619,8220DB002246,"Chapelizod, stop 2246",53.34831131,-6.343642354,17501.2.60-C5-d12-1.351.I,28:10:18,28:10:18,46, Ringsend Road,23581.76,60-C5-d12-1,C5,d12
1620,8220DB002247,"St Mary's Hospital, stop 2247",53.34675286,-6.336282916,17501.2.60-C5-d12-1.351.I,28:10:56,28:10:56,47, Ringsend Road,24118.23,60-C5-d12-1,C5,d12
1621,8220DB002248,"Military Road, stop 2248",53.34632093,-6.327888637,17501.2.60-C5-d12-1.351.I,28:11:35,28:11:35,48, Ringsend Road,24676.76,60-C5-d12-1,C5,d12
1622,8220DB002249,"Garda Boat Club, stop 2249",53.3465317,-6.321136449,17501.2.60-C5-d12-1.351.I,28:12:00,28:12:00,49, Ringsend Road,25127.94,60-C5-d12-1,C5,d12
1623,8220DB002250,"Salmon Pool, stop 2250",53.34743859,-6.31533304,17501.2.60-C5-d12-1.351.I,28:12:22,28:12:22,50, Ringsend Road,25526.81,60-C5-d12-1,C5,d12
1624,8220DB002251,"Islandbridge Gate, stop 2251",53.34813204,-6.310979792,17501.2.60-C5-d12-1.351.I,28:12:52,28:12:52,51, Ringsend Road,25825.23,60-C5-d12-1,C5,d12
1625,8220DB001472,"Conyngham Road, stop 1472",53.34842947,-6.30596617,17501.2.60-C5-d12-1.351.I,28:13:25,28:13:25,52, Ringsend Road,26159.14,60-C5-d12-1,C5,d12
1626,8220DB004408,"Phoenix House, stop 4408",53.34833336,-6.30110331,17501.2.60-C5-d12-1.351.I,28:13:50,28:13:50,53, Ringsend Road,26481.18,60-C5-d12-1,C5,d12
1627,8220DB001473,"Phoenix Park Gate, stop 1473",53.34830598,-6.298550899,17501.2.60-C5-d12-1.351.I,28:14:03,28:14:03,54, Ringsend Road,26650.63,60-C5-d12-1,C5,d12
1628,8220DB001474,"Parkgate Street, stop 1474",53.34794792,-6.292361705,17501.2.60-C5-d12-1.351.I,28:14:40,28:14:40,55, Ringsend Road,27063.01,60-C5-d12-1,C5,d12
1629,8220DB001476,"Sarsfield Quay, stop 1476",53.34707369,-6.284676275,17501.2.60-C5-d12-1.351.I,28:15:26,28:15:26,56, Ringsend Road,27591.27,60-C5-d12-1,C5,d12
1630,8220DB007854,"Arran Quay, stop 7854",53.34636761,-6.278711665,17501.2.60-C5-d12-1.351.I,28:16:19,28:16:19,57, Ringsend Road,27994.01,60-C5-d12-1,C5,d12
1631,8220DB007856,"Four Courts, stop 7856",53.34562262,-6.273184391,17501.2.60-C5-d12-1.351.I,28:17:03,28:17:03,58, Ringsend Road,28373.43,60-C5-d12-1,C5,d12
1632,8220DB007883,"Ormond Quay, stop 7883",53.346058,-6.268495617,17501.2.60-C5-d12-1.351.I,28:17:42,28:17:42,59, Ringsend Road,28692.67,60-C5-d12-1,C5,d12
1633,8220DB000315,"Bachelors Walk, stop 315",53.34702829,-6.261667155,17501.2.60-C5-d12-1.351.I,28:18:40,28:18:40,60, Ringsend Road,29162.87,60-C5-d12-1,C5,d12
1634,8220DB000340,"Townsend Street, stop 340",53.34597512,-6.256017478,17501.2.60-C5-d12-1.351.I,28:20:47,28:20:47,61, Ringsend Road,29653.59,60-C5-d12-1,C5,d12
1635,8220DB007861,"Prince's St South, stop 7861",53.34561679,-6.249348317,17501.2.60-C5-d12-1.351.I,28:21:58,28:21:58,62, Ringsend Road,30097.69,60-C5-d12-1,C5,d12
1636,8220DB000351,"Erne Street, stop 351",53.34341826,-6.245308174,17501.2.60-C5-d12-1.351.I,28:23:00,28:23:00,63, Ringsend Road,30464.26,60-C5-d12-1,C5,d12
1637,8220DB000352,"Pearse Square, stop 352",53.34298915,-6.24241214,17501.2.60-C5-d12-1.351.I,28:23:25,28:23:25,64, Ringsend Road,30665.32,60-C5-d12-1,C5,d12
1638,8220DB000353,"Grand Canal Quay, stop 353",53.34264501,-6.239798018,17501.2.60-C5-d12-1.351.I,28:23:48,28:23:48,65, Ringsend Road,30841.59,60-C5-d12-1,C5,d12
1639,8220DB000354,"Ringsend Road, stop 354",53.34223583,-6.23643569,17501.2.60-C5-d12-1.351.I,28:24:05,28:24:05,66, Ringsend Road,31069.64,60-C5-d12-1,C5,d12
1640,8260DB003999,"Cooldrinagh Terrace, stop 3999",53.36183677,-6.483482274,17503.2.60-C5-b12-1.351.I,26:01:12,26:01:12,27, Ringsend Road,13514.85,60-C5-b12-1,C5,b12
1641,8260DB004000,"Springfield Hotel, stop 4000",53.36053966,-6.478314833,17503.2.60-C5-b12-1.351.I,26:01:40,26:01:40,28, Ringsend Road,13887.04,60-C5-b12-1,C5,b12
1642,8230DB004001,"Liffey Valley Golf, stop 4001",53.35892285,-6.472062381,17503.2.60-C5-b12-1.351.I,26:02:14,26:02:14,29, Ringsend Road,14348.24,60-C5-b12-1,C5,b12
1643,8230DB003949,"Leixlip Road, stop 3949",53.35551692,-6.460211074,17503.2.60-C5-b12-1.351.I,26:03:23,26:03:23,30, Ringsend Road,15229.92,60-C5-b12-1,C5,b12
1644,8230DB003950,"Ball Alley House, stop 3950",53.35560249,-6.455010094,17503.2.60-C5-b12-1.351.I,26:03:52,26:03:52,31, Ringsend Road,15587.87,60-C5-b12-1,C5,b12
1645,8230DB003372,"Lucan Village, stop 3372",53.35656433,-6.448094691,17503.2.60-C5-b12-1.351.I,26:04:30,26:04:30,32, Ringsend Road,16059.48,60-C5-b12-1,C5,b12
1646,8230DB003373,"Lucan Heights, stop 3373",53.35808279,-6.441849744,17503.2.60-C5-b12-1.351.I,26:05:05,26:05:05,33, Ringsend Road,16533.07,60-C5-b12-1,C5,b12
1647,8230DB003374,"St Mary's Church, stop 3374",53.35963427,-6.439524473,17503.2.60-C5-b12-1.351.I,26:05:25,26:05:25,34, Ringsend Road,16764.42,60-C5-b12-1,C5,b12
1648,8230DB002233,"Chalet Gardens, stop 2233",53.3600895,-6.435165776,17503.2.60-C5-b12-1.351.I,26:05:51,26:05:51,35, Ringsend Road,17060.36,60-C5-b12-1,C5,b12
1649,8230DB002232,"Ballydowd Grove, stop 2232",53.35973763,-6.430956834,17503.2.60-C5-b12-1.351.I,26:06:14,26:06:14,36, Ringsend Road,17345.86,60-C5-b12-1,C5,b12
1650,8230DB002234,"Lucan Retail Park, stop 2234",53.35933655,-6.424390974,17503.2.60-C5-b12-1.351.I,26:06:49,26:06:49,37, Ringsend Road,17783.18,60-C5-b12-1,C5,b12
1651,8230DB002236,"Hermitage Bridge, stop 2236",53.35886946,-6.410856513,17503.2.60-C5-b12-1.351.I,26:07:52,26:07:52,38, Ringsend Road,18702.92,60-C5-b12-1,C5,b12
1652,8230DB005056,"Hermitage Clinic, stop 5056",53.35752149,-6.402793928,17503.2.60-C5-b12-1.351.I,26:08:31,26:08:31,39, Ringsend Road,19261.59,60-C5-b12-1,C5,b12
1653,8230DB002239,"Liffey Valley SC, stop 2239",53.35616847,-6.3917274,17503.2.60-C5-b12-1.351.I,26:09:31,26:09:31,40, Ringsend Road,20080.83,60-C5-b12-1,C5,b12
1654,8230DB002241,"Kennelsfort Road, stop 2241",53.35492926,-6.371268023,17503.2.60-C5-b12-1.351.I,26:10:59,26:10:59,41, Ringsend Road,21500.25,60-C5-b12-1,C5,b12
1655,8230DB002242,"The Oval, stop 2242",53.35392732,-6.367009818,17503.2.60-C5-b12-1.351.I,26:11:20,26:11:20,42, Ringsend Road,21805.65,60-C5-b12-1,C5,b12
1656,8220DB002243,"Glenaulin, stop 2243",53.35197438,-6.355697995,17503.2.60-C5-b12-1.351.I,26:12:44,26:12:44,43, Ringsend Road,22599.29,60-C5-b12-1,C5,b12
1657,8220DB002244,"Belgrove Park, stop 2244",53.35088435,-6.351609074,17503.2.60-C5-b12-1.351.I,26:13:15,26:13:15,44, Ringsend Road,22896.4,60-C5-b12-1,C5,b12
1658,8220DB002245,"Laurence Brook, stop 2245",53.3494632,-6.348284211,17503.2.60-C5-b12-1.351.I,26:13:41,26:13:41,45, Ringsend Road,23168.74,60-C5-b12-1,C5,b12
1659,8220DB002246,"Chapelizod, stop 2246",53.34831131,-6.343642354,17503.2.60-C5-b12-1.351.I,26:14:19,26:14:19,46, Ringsend Road,23581.76,60-C5-b12-1,C5,b12
1660,8220DB002247,"St Mary's Hospital, stop 2247",53.34675286,-6.336282916,17503.2.60-C5-b12-1.351.I,26:15:04,26:15:04,47, Ringsend Road,24118.23,60-C5-b12-1,C5,b12
1661,8220DB002248,"Military Road, stop 2248",53.34632093,-6.327888637,17503.2.60-C5-b12-1.351.I,26:15:51,26:15:51,48, Ringsend Road,24676.76,60-C5-b12-1,C5,b12
1662,8220DB002249,"Garda Boat Club, stop 2249",53.3465317,-6.321136449,17503.2.60-C5-b12-1.351.I,26:16:18,26:16:18,49, Ringsend Road,25127.94,60-C5-b12-1,C5,b12
1663,8220DB002250,"Salmon Pool, stop 2250",53.34743859,-6.31533304,17503.2.60-C5-b12-1.351.I,26:16:42,26:16:42,50, Ringsend Road,25526.81,60-C5-b12-1,C5,b12
1664,8220DB002251,"Islandbridge Gate, stop 2251",53.34813204,-6.310979792,17503.2.60-C5-b12-1.351.I,26:17:10,26:17:10,51, Ringsend Road,25825.23,60-C5-b12-1,C5,b12
1665,8220DB001472,"Conyngham Road, stop 1472",53.34842947,-6.30596617,17503.2.60-C5-b12-1.351.I,26:17:41,26:17:41,52, Ringsend Road,26159.14,60-C5-b12-1,C5,b12
1666,8220DB004408,"Phoenix House, stop 4408",53.34833336,-6.30110331,17503.2.60-C5-b12-1.351.I,26:18:03,26:18:03,53, Ringsend Road,26481.18,60-C5-b12-1,C5,b12
1667,8220DB001473,"Phoenix Park Gate, stop 1473",53.34830598,-6.298550899,17503.2.60-C5-b12-1.351.I,26:18:14,26:18:14,54, Ringsend Road,26650.63,60-C5-b12-1,C5,b12
1668,8220DB001474,"Parkgate Street, stop 1474",53.34794792,-6.292361705,17503.2.60-C5-b12-1.351.I,26:18:52,26:18:52,55, Ringsend Road,27063.01,60-C5-b12-1,C5,b12
1669,8220DB001476,"Sarsfield Quay, stop 1476",53.34707369,-6.284676275,17503.2.60-C5-b12-1.351.I,26:19:41,26:19:41,56, Ringsend Road,27591.27,60-C5-b12-1,C5,b12
1670,8220DB007854,"Arran Quay, stop 7854",53.34636761,-6.278711665,17503.2.60-C5-b12-1.351.I,26:20:49,26:20:49,57, Ringsend Road,27994.01,60-C5-b12-1,C5,b12
1671,8220DB007856,"Four Courts, stop 7856",53.34562262,-6.273184391,17503.2.60-C5-b12-1.351.I,26:21:45,26:21:45,58, Ringsend Road,28373.43,60-C5-b12-1,C5,b12
1672,8220DB007883,"Ormond Quay, stop 7883",53.346058,-6.268495617,17503.2.60-C5-b12-1.351.I,26:22:37,26:22:37,59, Ringsend Road,28692.67,60-C5-b12-1,C5,b12
1673,8220DB000315,"Bachelors Walk, stop 315",53.34702829,-6.261667155,17503.2.60-C5-b12-1.351.I,26:23:54,26:23:54,60, Ringsend Road,29162.87,60-C5-b12-1,C5,b12
1674,8220DB000340,"Townsend Street, stop 340",53.34597512,-6.256017478,17503.2.60-C5-b12-1.351.I,26:26:14,26:26:14,61, Ringsend Road,29653.59,60-C5-b12-1,C5,b12
1675,8220DB007861,"Prince's St South, stop 7861",53.34561679,-6.249348317,17503.2.60-C5-b12-1.351.I,26:27:15,26:27:15,62, Ringsend Road,30097.69,60-C5-b12-1,C5,b12
1676,8220DB000351,"Erne Street, stop 351",53.34341826,-6.245308174,17503.2.60-C5-b12-1.351.I,26:28:09,26:28:09,63, Ringsend Road,30464.26,60-C5-b12-1,C5,b12
1677,8220DB000352,"Pearse Square, stop 352",53.34298915,-6.24241214,17503.2.60-C5-b12-1.351.I,26:28:28,26:28:28,64, Ringsend Road,30665.32,60-C5-b12-1,C5,b12
1678,8220DB000353,"Grand Canal Quay, stop 353",53.34264501,-6.239798018,17503.2.60-C5-b12-1.351.I,26:28:45,26:28:45,65, Ringsend Road,30841.59,60-C5-b12-1,C5,b12
1679,8220DB000354,"Ringsend Road, stop 354",53.34223583,-6.23643569,17503.2.60-C5-b12-1.351.I,26:29:08,26:29:08,66, Ringsend Road,31069.64,60-C5-b12-1,C5,b12
1680,8260DB003999,"Cooldrinagh Terrace, stop 3999",53.36183677,-6.483482274,17503.2.60-C5-d12-1.351.I,26:01:12,26:01:12,27, Ringsend Road,13514.85,60-C5-d12-1,C5,d12
1681,8260DB004000,"Springfield Hotel, stop 4000",53.36053966,-6.478314833,17503.2.60-C5-d12-1.351.I,26:01:40,26:01:40,28, Ringsend Road,13887.04,60-C5-d12-1,C5,d12
1682,8230DB004001,"Liffey Valley Golf, stop 4001",53.35892285,-6.472062381,17503.2.60-C5-d12-1.351.I,26:02:14,26:02:14,29, Ringsend Road,14348.24,60-C5-d12-1,C5,d12
1683,8230DB003949,"Leixlip Road, stop 3949",53.35551692,-6.460211074,17503.2.60-C5-d12-1.351.I,26:03:23,26:03:23,30, Ringsend Road,15229.92,60-C5-d12-1,C5,d12
1684,8230DB003950,"Ball Alley House, stop 3950",53.35560249,-6.455010094,17503.2.60-C5-d12-1.351.I,26:03:52,26:03:52,31, Ringsend Road,15587.87,60-C5-d12-1,C5,d12
1685,8230DB003372,"Lucan Village, stop 3372",53.35656433,-6.448094691,17503.2.60-C5-d12-1.351.I,26:04:30,26:04:30,32, Ringsend Road,16059.48,60-C5-d12-1,C5,d12
1686,8230DB003373,"Lucan Heights, stop 3373",53.35808279,-6.441849744,17503.2.60-C5-d12-1.351.I,26:05:05,26:05:05,33, Ringsend Road,16533.07,60-C5-d12-1,C5,d12
1687,8230DB003374,"St Mary's Church, stop 3374",53.35963427,-6.439524473,17503.2.60-C5-d12-1.351.I,26:05:25,26:05:25,34, Ringsend Road,16764.42,60-C5-d12-1,C5,d12
1688,8230DB002233,"Chalet Gardens, stop 2233",53.3600895,-6.435165776,17503.2.60-C5-d12-1.351.I,26:05:51,26:05:51,35, Ringsend Road,17060.36,60-C5-d12-1,C5,d12
1689,8230DB002232,"Ballydowd Grove, stop 2232",53.35973763,-6.430956834,17503.2.60-C5-d12-1.351.I,26:06:14,26:06:14,36, Ringsend Road,17345.86,60-C5-d12-1,C5,d12
1690,8230DB002234,"Lucan Retail Park, stop 2234",53.35933655,-6.424390974,17503.2.60-C5-d12-1.351.I,26:06:49,26:06:49,37, Ringsend Road,17783.18,60-C5-d12-1,C5,d12
1691,8230DB002236,"Hermitage Bridge, stop 2236",53.35886946,-6.410856513,17503.2.60-C5-d12-1.351.I,26:07:52,26:07:52,38, Ringsend Road,18702.92,60-C5-d12-1,C5,d12
1692,8230DB005056,"Hermitage Clinic, stop 5056",53.35752149,-6.402793928,17503.2.60-C5-d12-1.351.I,26:08:31,26:08:31,39, Ringsend Road,19261.59,60-C5-d12-1,C5,d12
1693,8230DB002239,"Liffey Valley SC, stop 2239",53.35616847,-6.3917274,17503.2.60-C5-d12-1.351.I,26:09:31,26:09:31,40, Ringsend Road,20080.83,60-C5-d12-1,C5,d12
1694,8230DB002241,"Kennelsfort Road, stop 2241",53.35492926,-6.371268023,17503.2.60-C5-d12-1.351.I,26:10:59,26:10:59,41, Ringsend Road,21500.25,60-C5-d12-1,C5,d12
1695,8230DB002242,"The Oval, stop 2242",53.35392732,-6.367009818,17503.2.60-C5-d12-1.351.I,26:11:20,26:11:20,42, Ringsend Road,21805.65,60-C5-d12-1,C5,d12
1696,8220DB002243,"Glenaulin, stop 2243",53.35197438,-6.355697995,17503.2.60-C5-d12-1.351.I,26:12:44,26:12:44,43, Ringsend Road,22599.29,60-C5-d12-1,C5,d12
1697,8220DB002244,"Belgrove Park, stop 2244",53.35088435,-6.351609074,17503.2.60-C5-d12-1.351.I,26:13:15,26:13:15,44, Ringsend Road,22896.4,60-C5-d12-1,C5,d12
1698,8220DB002245,"Laurence Brook, stop 2245",53.3494632,-6.348284211,17503.2.60-C5-d12-1.351.I,26:13:41,26:13:41,45, Ringsend Road,23168.74,60-C5-d12-1,C5,d12
1699,8220DB002246,"Chapelizod, stop 2246",53.34831131,-6.343642354,17503.2.60-C5-d12-1.351.I,26:14:19,26:14:19,46, Ringsend Road,23581.76,60-C5-d12-1,C5,d12
1700,8220DB002247,"St Mary's Hospital, stop 2247",53.34675286,-6.336282916,17503.2.60-C5-d12-1.351.I,26:15:04,26:15:04,47, Ringsend Road,24118.23,60-C5-d12-1,C5,d12
1701,8220DB002248,"Military Road, stop 2248",53.34632093,-6.327888637,17503.2.60-C5-d12-1.351.I,26:15:51,26:15:51,48, Ringsend Road,24676.76,60-C5-d12-1,C5,d12
1702,8220DB002249,"Garda Boat Club, stop 2249",53.3465317,-6.321136449,17503.2.60-C5-d12-1.351.I,26:16:18,26:16:18,49, Ringsend Road,25127.94,60-C5-d12-1,C5,d12
1703,8220DB002250,"Salmon Pool, stop 2250",53.34743859,-6.31533304,17503.2.60-C5-d12-1.351.I,26:16:42,26:16:42,50, Ringsend Road,25526.81,60-C5-d12-1,C5,d12
1704,8220DB002251,"Islandbridge Gate, stop 2251",53.34813204,-6.310979792,17503.2.60-C5-d12-1.351.I,26:17:10,26:17:10,51, Ringsend Road,25825.23,60-C5-d12-1,C5,d12
1705,8220DB001472,"Conyngham Road, stop 1472",53.34842947,-6.30596617,17503.2.60-C5-d12-1.351.I,26:17:41,26:17:41,52, Ringsend Road,26159.14,60-C5-d12-1,C5,d12
1706,8220DB004408,"Phoenix House, stop 4408",53.34833336,-6.30110331,17503.2.60-C5-d12-1.351.I,26:18:03,26:18:03,53, Ringsend Road,26481.18,60-C5-d12-1,C5,d12
1707,8220DB001473,"Phoenix Park Gate, stop 1473",53.34830598,-6.298550899,17503.2.60-C5-d12-1.351.I,26:18:14,26:18:14,54, Ringsend Road,26650.63,60-C5-d12-1,C5,d12
1708,8220DB001474,"Parkgate Street, stop 1474",53.34794792,-6.292361705,17503.2.60-C5-d12-1.351.I,26:18:52,26:18:52,55, Ringsend Road,27063.01,60-C5-d12-1,C5,d12
1709,8220DB001476,"Sarsfield Quay, stop 1476",53.34707369,-6.284676275,17503.2.60-C5-d12-1.351.I,26:19:41,26:19:41,56, Ringsend Road,27591.27,60-C5-d12-1,C5,d12
1710,8220DB007854,"Arran Quay, stop 7854",53.34636761,-6.278711665,17503.2.60-C5-d12-1.351.I,26:20:49,26:20:49,57, Ringsend Road,27994.01,60-C5-d12-1,C5,d12
1711,8220DB007856,"Four Courts, stop 7856",53.34562262,-6.273184391,17503.2.60-C5-d12-1.351.I,26:21:45,26:21:45,58, Ringsend Road,28373.43,60-C5-d12-1,C5,d12
1712,8220DB007883,"Ormond Quay, stop 7883",53.346058,-6.268495617,17503.2.60-C5-d12-1.351.I,26:22:37,26:22:37,59, Ringsend Road,28692.67,60-C5-d12-1,C5,d12
1713,8220DB000315,"Bachelors Walk, stop 315",53.34702829,-6.261667155,17503.2.60-C5-d12-1.351.I,26:23:54,26:23:54,60, Ringsend Road,29162.87,60-C5-d12-1,C5,d12
1714,8220DB000340,"Townsend Street, stop 340",53.34597512,-6.256017478,17503.2.60-C5-d12-1.351.I,26:26:14,26:26:14,61, Ringsend Road,29653.59,60-C5-d12-1,C5,d12
1715,8220DB007861,"Prince's St South, stop 7861",53.34561679,-6.249348317,17503.2.60-C5-d12-1.351.I,26:27:15,26:27:15,62, Ringsend Road,30097.69,60-C5-d12-1,C5,d12
1716,8220DB000351,"Erne Street, stop 351",53.34341826,-6.245308174,17503.2.60-C5-d12-1.351.I,26:28:09,26:28:09,63, Ringsend Road,30464.26,60-C5-d12-1,C5,d12
1717,8220DB000352,"Pearse Square, stop 352",53.34298915,-6.24241214,17503.2.60-C5-d12-1.351.I,26:28:28,26:28:28,64, Ringsend Road,30665.32,60-C5-d12-1,C5,d12
1718,8220DB000353,"Grand Canal Quay, stop 353",53.34264501,-6.239798018,17503.2.60-C5-d12-1.351.I,26:28:45,26:28:45,65, Ringsend Road,30841.59,60-C5-d12-1,C5,d12
1719,8220DB000354,"Ringsend Road, stop 354",53.34223583,-6.23643569,17503.2.60-C5-d12-1.351.I,26:29:08,26:29:08,66, Ringsend Road,31069.64,60-C5-d12-1,C5,d12
1720,8260DB003999,"Cooldrinagh Terrace, stop 3999",53.36183677,-6.483482274,5912.1.60-C5-b12-1.351.I,25:04:29,25:04:29,27, Ringsend Road,13514.85,60-C5-b12-1,C5,b12
1721,8260DB004000,"Springfield Hotel, stop 4000",53.36053966,-6.478314833,5912.1.60-C5-b12-1.351.I,25:04:56,25:04:56,28, Ringsend Road,13887.04,60-C5-b12-1,C5,b12
1722,8230DB004001,"Liffey Valley Golf, stop 4001",53.35892285,-6.472062381,5912.1.60-C5-b12-1.351.I,25:05:29,25:05:29,29, Ringsend Road,14348.24,60-C5-b12-1,C5,b12
1723,8230DB003949,"Leixlip Road, stop 3949",53.35551692,-6.460211074,5912.1.60-C5-b12-1.351.I,25:06:44,25:06:44,30, Ringsend Road,15229.92,60-C5-b12-1,C5,b12
1724,8230DB003950,"Ball Alley House, stop 3950",53.35560249,-6.455010094,5912.1.60-C5-b12-1.351.I,25:07:20,25:07:20,31, Ringsend Road,15587.87,60-C5-b12-1,C5,b12
1725,8230DB003372,"Lucan Village, stop 3372",53.35656433,-6.448094691,5912.1.60-C5-b12-1.351.I,25:08:08,25:08:08,32, Ringsend Road,16059.48,60-C5-b12-1,C5,b12
1726,8230DB003373,"Lucan Heights, stop 3373",53.35808279,-6.441849744,5912.1.60-C5-b12-1.351.I,25:08:46,25:08:46,33, Ringsend Road,16533.07,60-C5-b12-1,C5,b12
1727,8230DB003374,"St Mary's Church, stop 3374",53.35963427,-6.439524473,5912.1.60-C5-b12-1.351.I,25:09:09,25:09:09,34, Ringsend Road,16764.42,60-C5-b12-1,C5,b12
1728,8230DB002233,"Chalet Gardens, stop 2233",53.3600895,-6.435165776,5912.1.60-C5-b12-1.351.I,25:09:38,25:09:38,35, Ringsend Road,17060.36,60-C5-b12-1,C5,b12
1729,8230DB002232,"Ballydowd Grove, stop 2232",53.35973763,-6.430956834,5912.1.60-C5-b12-1.351.I,25:10:06,25:10:06,36, Ringsend Road,17345.86,60-C5-b12-1,C5,b12
1730,8230DB002234,"Lucan Retail Park, stop 2234",53.35933655,-6.424390974,5912.1.60-C5-b12-1.351.I,25:10:50,25:10:50,37, Ringsend Road,17783.18,60-C5-b12-1,C5,b12
1731,8230DB002236,"Hermitage Bridge, stop 2236",53.35886946,-6.410856513,5912.1.60-C5-b12-1.351.I,25:12:02,25:12:02,38, Ringsend Road,18702.92,60-C5-b12-1,C5,b12
1732,8230DB005056,"Hermitage Clinic, stop 5056",53.35752149,-6.402793928,5912.1.60-C5-b12-1.351.I,25:12:46,25:12:46,39, Ringsend Road,19261.59,60-C5-b12-1,C5,b12
1733,8230DB002239,"Liffey Valley SC, stop 2239",53.35616847,-6.3917274,5912.1.60-C5-b12-1.351.I,25:14:03,25:14:03,40, Ringsend Road,20080.83,60-C5-b12-1,C5,b12
1734,8230DB002241,"Kennelsfort Road, stop 2241",53.35492926,-6.371268023,5912.1.60-C5-b12-1.351.I,25:15:41,25:15:41,41, Ringsend Road,21500.25,60-C5-b12-1,C5,b12
1735,8230DB002242,"The Oval, stop 2242",53.35392732,-6.367009818,5912.1.60-C5-b12-1.351.I,25:16:02,25:16:02,42, Ringsend Road,21805.65,60-C5-b12-1,C5,b12
1736,8220DB002243,"Glenaulin, stop 2243",53.35197438,-6.355697995,5912.1.60-C5-b12-1.351.I,25:17:26,25:17:26,43, Ringsend Road,22599.29,60-C5-b12-1,C5,b12
1737,8220DB002244,"Belgrove Park, stop 2244",53.35088435,-6.351609074,5912.1.60-C5-b12-1.351.I,25:17:57,25:17:57,44, Ringsend Road,22896.4,60-C5-b12-1,C5,b12
1738,8220DB002245,"Laurence Brook, stop 2245",53.3494632,-6.348284211,5912.1.60-C5-b12-1.351.I,25:18:23,25:18:23,45, Ringsend Road,23168.74,60-C5-b12-1,C5,b12
1739,8220DB002246,"Chapelizod, stop 2246",53.34831131,-6.343642354,5912.1.60-C5-b12-1.351.I,25:19:03,25:19:03,46, Ringsend Road,23581.76,60-C5-b12-1,C5,b12
1740,8220DB002247,"St Mary's Hospital, stop 2247",53.34675286,-6.336282916,5912.1.60-C5-b12-1.351.I,25:19:44,25:19:44,47, Ringsend Road,24118.23,60-C5-b12-1,C5,b12
1741,8220DB002248,"Military Road, stop 2248",53.34632093,-6.327888637,5912.1.60-C5-b12-1.351.I,25:20:27,25:20:27,48, Ringsend Road,24676.76,60-C5-b12-1,C5,b12
1742,8220DB002249,"Garda Boat Club, stop 2249",53.3465317,-6.321136449,5912.1.60-C5-b12-1.351.I,25:20:53,25:20:53,49, Ringsend Road,25127.94,60-C5-b12-1,C5,b12
1743,8220DB002250,"Salmon Pool, stop 2250",53.34743859,-6.31533304,5912.1.60-C5-b12-1.351.I,25:21:16,25:21:16,50, Ringsend Road,25526.81,60-C5-b12-1,C5,b12
1744,8220DB002251,"Islandbridge Gate, stop 2251",53.34813204,-6.310979792,5912.1.60-C5-b12-1.351.I,25:21:45,25:21:45,51, Ringsend Road,25825.23,60-C5-b12-1,C5,b12
1745,8220DB001472,"Conyngham Road, stop 1472",53.34842947,-6.30596617,5912.1.60-C5-b12-1.351.I,25:22:18,25:22:18,52, Ringsend Road,26159.14,60-C5-b12-1,C5,b12
1746,8220DB004408,"Phoenix House, stop 4408",53.34833336,-6.30110331,5912.1.60-C5-b12-1.351.I,25:22:40,25:22:40,53, Ringsend Road,26481.18,60-C5-b12-1,C5,b12
1747,8220DB001473,"Phoenix Park Gate, stop 1473",53.34830598,-6.298550899,5912.1.60-C5-b12-1.351.I,25:22:52,25:22:52,54, Ringsend Road,26650.63,60-C5-b12-1,C5,b12
1748,8220DB001474,"Parkgate Street, stop 1474",53.34794792,-6.292361705,5912.1.60-C5-b12-1.351.I,25:23:37,25:23:37,55, Ringsend Road,27063.01,60-C5-b12-1,C5,b12
1749,8220DB001476,"Sarsfield Quay, stop 1476",53.34707369,-6.284676275,5912.1.60-C5-b12-1.351.I,25:24:34,25:24:34,56, Ringsend Road,27591.27,60-C5-b12-1,C5,b12
1750,8220DB007854,"Arran Quay, stop 7854",53.34636761,-6.278711665,5912.1.60-C5-b12-1.351.I,25:25:28,25:25:28,57, Ringsend Road,27994.01,60-C5-b12-1,C5,b12
1751,8220DB007856,"Four Courts, stop 7856",53.34562262,-6.273184391,5912.1.60-C5-b12-1.351.I,25:26:20,25:26:20,58, Ringsend Road,28373.43,60-C5-b12-1,C5,b12
1752,8220DB007883,"Ormond Quay, stop 7883",53.346058,-6.268495617,5912.1.60-C5-b12-1.351.I,25:27:18,25:27:18,59, Ringsend Road,28692.67,60-C5-b12-1,C5,b12
1753,8220DB000315,"Bachelors Walk, stop 315",53.34702829,-6.261667155,5912.1.60-C5-b12-1.351.I,25:28:44,25:28:44,60, Ringsend Road,29162.87,60-C5-b12-1,C5,b12
1754,8220DB000340,"Townsend Street, stop 340",53.34597512,-6.256017478,5912.1.60-C5-b12-1.351.I,25:31:08,25:31:08,61, Ringsend Road,29653.59,60-C5-b12-1,C5,b12
1755,8220DB007861,"Prince's St South, stop 7861",53.34561679,-6.249348317,5912.1.60-C5-b12-1.351.I,25:32:24,25:32:24,62, Ringsend Road,30097.69,60-C5-b12-1,C5,b12
1756,8220DB000351,"Erne Street, stop 351",53.34341826,-6.245308174,5912.1.60-C5-b12-1.351.I,25:33:30,25:33:30,63, Ringsend Road,30464.26,60-C5-b12-1,C5,b12
1757,8220DB000352,"Pearse Square, stop 352",53.34298915,-6.24241214,5912.1.60-C5-b12-1.351.I,25:33:55,25:33:55,64, Ringsend Road,30665.32,60-C5-b12-1,C5,b12
1758,8220DB000353,"Grand Canal Quay, stop 353",53.34264501,-6.239798018,5912.1.60-C5-b12-1.351.I,25:34:18,25:34:18,65, Ringsend Road,30841.59,60-C5-b12-1,C5,b12
1759,8220DB000354,"Ringsend Road, stop 354",53.34223583,-6.23643569,5912.1.60-C5-b12-1.351.I,25:34:43,25:34:43,66, Ringsend Road,31069.64,60-C5-b12-1,C5,b12
1760,8260DB003999,"Cooldrinagh Terrace, stop 3999",53.36183677,-6.483482274,5912.1.60-C5-d12-1.351.I,25:04:29,25:04:29,27, Ringsend Road,13514.85,60-C5-d12-1,C5,d12
1761,8260DB004000,"Springfield Hotel, stop 4000",53.36053966,-6.478314833,5912.1.60-C5-d12-1.351.I,25:04:56,25:04:56,28, Ringsend Road,13887.04,60-C5-d12-1,C5,d12
1762,8230DB004001,"Liffey Valley Golf, stop 4001",53.35892285,-6.472062381,5912.1.60-C5-d12-1.351.I,25:05:29,25:05:29,29, Ringsend Road,14348.24,60-C5-d12-1,C5,d12
1763,8230DB003949,"Leixlip Road, stop 3949",53.35551692,-6.460211074,5912.1.60-C5-d12-1.351.I,25:06:44,25:06:44,30, Ringsend Road,15229.92,60-C5-d12-1,C5,d12
1764,8230DB003950,"Ball Alley House, stop 3950",53.35560249,-6.455010094,5912.1.60-C5-d12-1.351.I,25:07:20,25:07:20,31, Ringsend Road,15587.87,60-C5-d12-1,C5,d12
1765,8230DB003372,"Lucan Village, stop 3372",53.35656433,-6.448094691,5912.1.60-C5-d12-1.351.I,25:08:08,25:08:08,32, Ringsend Road,16059.48,60-C5-d12-1,C5,d12
1766,8230DB003373,"Lucan Heights, stop 3373",53.35808279,-6.441849744,5912.1.60-C5-d12-1.351.I,25:08:46,25:08:46,33, Ringsend Road,16533.07,60-C5-d12-1,C5,d12
1767,8230DB003374,"St Mary's Church, stop 3374",53.35963427,-6.439524473,5912.1.60-C5-d12-1.351.I,25:09:09,25:09:09,34, Ringsend Road,16764.42,60-C5-d12-1,C5,d12
1768,8230DB002233,"Chalet Gardens, stop 2233",53.3600895,-6.435165776,5912.1.60-C5-d12-1.351.I,25:09:38,25:09:38,35, Ringsend Road,17060.36,60-C5-d12-1,C5,d12
1769,8230DB002232,"Ballydowd Grove, stop 2232",53.35973763,-6.430956834,5912.1.60-C5-d12-1.351.I,25:10:06,25:10:06,36, Ringsend Road,17345.86,60-C5-d12-1,C5,d12
1770,8230DB002234,"Lucan Retail Park, stop 2234",53.35933655,-6.424390974,5912.1.60-C5-d12-1.351.I,25:10:50,25:10:50,37, Ringsend Road,17783.18,60-C5-d12-1,C5,d12
1771,8230DB002236,"Hermitage Bridge, stop 2236",53.35886946,-6.410856513,5912.1.60-C5-d12-1.351.I,25:12:02,25:12:02,38, Ringsend Road,18702.92,60-C5-d12-1,C5,d12
1772,8230DB005056,"Hermitage Clinic, stop 5056",53.35752149,-6.402793928,5912.1.60-C5-d12-1.351.I,25:12:46,25:12:46,39, Ringsend Road,19261.59,60-C5-d12-1,C5,d12
1773,8230DB002239,"Liffey Valley SC, stop 2239",53.35616847,-6.3917274,5912.1.60-C5-d12-1.351.I,25:14:03,25:14:03,40, Ringsend Road,20080.83,60-C5-d12-1,C5,d12
1774,8230DB002241,"Kennelsfort Road, stop 2241",53.35492926,-6.371268023,5912.1.60-C5-d12-1.351.I,25:15:41,25:15:41,41, Ringsend Road,21500.25,60-C5-d12-1,C5,d12
1775,8230DB002242,"The Oval, stop 2242",53.35392732,-6.367009818,5912.1.60-C5-d12-1.351.I,25:16:02,25:16:02,42, Ringsend Road,21805.65,60-C5-d12-1,C5,d12
1776,8220DB002243,"Glenaulin, stop 2243",53.35197438,-6.355697995,5912.1.60-C5-d12-1.351.I,25:17:26,25:17:26,43, Ringsend Road,22599.29,60-C5-d12-1,C5,d12
1777,8220DB002244,"Belgrove Park, stop 2244",53.35088435,-6.351609074,5912.1.60-C5-d12-1.351.I,25:17:57,25:17:57,44, Ringsend Road,22896.4,60-C5-d12-1,C5,d12
1778,8220DB002245,"Laurence Brook, stop 2245",53.3494632,-6.348284211,5912.1.60-C5-d12-1.351.I,25:18:23,25:18:23,45, Ringsend Road,23168.74,60-C5-d12-1,C5,d12
1779,8220DB002246,"Chapelizod, stop 2246",53.34831131,-6.343642354,5912.1.60-C5-d12-1.351.I,25:19:03,25:19:03,46, Ringsend Road,23581.76,60-C5-d12-1,C5,d12
1780,8220DB002247,"St Mary's Hospital, stop 2247",53.34675286,-6.336282916,5912.1.60-C5-d12-1.351.I,25:19:44,25:19:44,47, Ringsend Road,24118.23,60-C5-d12-1,C5,d12
1781,8220DB002248,"Military Road, stop 2248",53.34632093,-6.327888637,5912.1.60-C5-d12-1.351.I,25:20:27,25:20:27,48, Ringsend Road,24676.76,60-C5-d12-1,C5,d12
1782,8220DB002249,"Garda Boat Club, stop 2249",53.3465317,-6.321136449,5912.1.60-C5-d12-1.351.I,25:20:53,25:20:53,49, Ringsend Road,25127.94,60-C5-d12-1,C5,d12
1783,8220DB002250,"Salmon Pool, stop 2250",53.34743859,-6.31533304,5912.1.60-C5-d12-1.351.I,25:21:16,25:21:16,50, Ringsend Road,25526.81,60-C5-d12-1,C5,d12
1784,8220DB002251,"Islandbridge Gate, stop 2251",53.34813204,-6.310979792,5912.1.60-C5-d12-1.351.I,25:21:45,25:21:45,51, Ringsend Road,25825.23,60-C5-d12-1,C5,d12
1785,8220DB001472,"Conyngham Road, stop 1472",53.34842947,-6.30596617,5912.1.60-C5-d12-1.351.I,25:22:18,25:22:18,52, Ringsend Road,26159.14,60-C5-d12-1,C5,d12
1786,8220DB004408,"Phoenix House, stop 4408",53.34833336,-6.30110331,5912.1.60-C5-d12-1.351.I,25:22:40,25:22:40,53, Ringsend Road,26481.18,60-C5-d12-1,C5,d12
1787,8220DB001473,"Phoenix Park Gate, stop 1473",53.34830598,-6.298550899,5912.1.60-C5-d12-1.351.I,25:22:52,25:22:52,54, Ringsend Road,26650.63,60-C5-d12-1,C5,d12
1788,8220DB001474,"Parkgate Street, stop 1474",53.34794792,-6.292361705,5912.1.60-C5-d12-1.351.I,25:23:37,25:23:37,55, Ringsend Road,27063.01,60-C5-d12-1,C5,d12
1789,8220DB001476,"Sarsfield Quay, stop 1476",53.34707369,-6.284676275,5912.1.60-C5-d12-1.351.I,25:24:34,25:24:34,56, Ringsend Road,27591.27,60-C5-d12-1,C5,d12
1790,8220DB007854,"Arran Quay, stop 7854",53.34636761,-6.278711665,5912.1.60-C5-d12-1.351.I,25:25:28,25:25:28,57, Ringsend Road,27994.01,60-C5-d12-1,C5,d12
1791,8220DB007856,"Four Courts, stop 7856",53.34562262,-6.273184391,5912.1.60-C5-d12-1.351.I,25:26:20,25:26:20,58, Ringsend Road,28373.43,60-C5-d12-1,C5,d12
1792,8220DB007883,"Ormond Quay, stop 7883",53.346058,-6.268495617,5912.1.60-C5-d12-1.351.I,25:27:18,25:27:18,59, Ringsend Road,28692.67,60-C5-d12-1,C5,d12
1793,8220DB000315,"Bachelors Walk, stop 315",53.34702829,-6.261667155,5912.1.60-C5-d12-1.351.I,25:28:44,25:28:44,60, Ringsend Road,29162.87,60-C5-d12-1,C5,d12
1794,8220DB000340,"Townsend Street, stop 340",53.34597512,-6.256017478,5912.1.60-C5-d12-1.351.I,25:31:08,25:31:08,61, Ringsend Road,29653.59,60-C5-d12-1,C5,d12
1795,8220DB007861,"Prince's St South, stop 7861",53.34561679,-6.249348317,5912.1.60-C5-d12-1.351.I,25:32:24,25:32:24,62, Ringsend Road,30097.69,60-C5-d12-1,C5,d12
1796,8220DB000351,"Erne Street, stop 351",53.34341826,-6.245308174,5912.1.60-C5-d12-1.351.I,25:33:30,25:33:30,63, Ringsend Road,30464.26,60-C5-d12-1,C5,d12
1797,8220DB000352,"Pearse Square, stop 352",53.34298915,-6.24241214,5912.1.60-C5-d12-1.351.I,25:33:55,25:33:55,64, Ringsend Road,30665.32,60-C5-d12-1,C5,d12
1798,8220DB000353,"Grand Canal Quay, stop 353",53.34264501,-6.239798018,5912.1.60-C5-d12-1.351.I,25:34:18,25:34:18,65, Ringsend Road,30841.59,60-C5-d12-1,C5,d12
1799,8220DB000354,"Ringsend Road, stop 354",53.34223583,-6.23643569,5912.1.60-C5-d12-1.351.I,25:34:43,25:34:43,66, Ringsend Road,31069.64,60-C5-d12-1,C5,d12
1800,8260DB003999,"Cooldrinagh Terrace, stop 3999",53.36183677,-6.483482274,5914.1.60-C5-b12-1.351.I,27:56:52,27:56:52,27, Ringsend Road,13514.85,60-C5-b12-1,C5,b12
1801,8260DB004000,"Springfield Hotel, stop 4000",53.36053966,-6.478314833,5914.1.60-C5-b12-1.351.I,27:57:18,27:57:18,28, Ringsend Road,13887.04,60-C5-b12-1,C5,b12
1802,8230DB004001,"Liffey Valley Golf, stop 4001",53.35892285,-6.472062381,5914.1.60-C5-b12-1.351.I,27:57:49,27:57:49,29, Ringsend Road,14348.24,60-C5-b12-1,C5,b12
1803,8230DB003949,"Leixlip Road, stop 3949",53.35551692,-6.460211074,5914.1.60-C5-b12-1.351.I,27:59:00,27:59:00,30, Ringsend Road,15229.92,60-C5-b12-1,C5,b12
1804,8230DB003950,"Ball Alley House, stop 3950",53.35560249,-6.455010094,5914.1.60-C5-b12-1.351.I,27:59:36,27:59:36,31, Ringsend Road,15587.87,60-C5-b12-1,C5,b12
1805,8230DB003372,"Lucan Village, stop 3372",53.35656433,-6.448094691,5914.1.60-C5-b12-1.351.I,28:00:23,28:00:23,32, Ringsend Road,16059.48,60-C5-b12-1,C5,b12
1806,8230DB003373,"Lucan Heights, stop 3373",53.35808279,-6.441849744,5914.1.60-C5-b12-1.351.I,28:01:04,28:01:04,33, Ringsend Road,16533.07,60-C5-b12-1,C5,b12
1807,8230DB003374,"St Mary's Church, stop 3374",53.35963427,-6.439524473,5914.1.60-C5-b12-1.351.I,28:01:24,28:01:24,34, Ringsend Road,16764.42,60-C5-b12-1,C5,b12
1808,8230DB002233,"Chalet Gardens, stop 2233",53.3600895,-6.435165776,5914.1.60-C5-b12-1.351.I,28:01:50,28:01:50,35, Ringsend Road,17060.36,60-C5-b12-1,C5,b12
1809,8230DB002232,"Ballydowd Grove, stop 2232",53.35973763,-6.430956834,5914.1.60-C5-b12-1.351.I,28:02:12,28:02:12,36, Ringsend Road,17345.86,60-C5-b12-1,C5,b12
1810,8230DB002234,"Lucan Retail Park, stop 2234",53.35933655,-6.424390974,5914.1.60-C5-b12-1.351.I,28:02:46,28:02:46,37, Ringsend Road,17783.18,60-C5-b12-1,C5,b12
1811,8230DB002236,"Hermitage Bridge, stop 2236",53.35886946,-6.410856513,5914.1.60-C5-b12-1.351.I,28:04:02,28:04:02,38, Ringsend Road,18702.92,60-C5-b12-1,C5,b12
1812,8230DB005056,"Hermitage Clinic, stop 5056",53.35752149,-6.402793928,5914.1.60-C5-b12-1.351.I,28:04:48,28:04:48,39, Ringsend Road,19261.59,60-C5-b12-1,C5,b12
1813,8230DB002239,"Liffey Valley SC, stop 2239",53.35616847,-6.3917274,5914.1.60-C5-b12-1.351.I,28:05:42,28:05:42,40, Ringsend Road,20080.83,60-C5-b12-1,C5,b12
1814,8230DB002241,"Kennelsfort Road, stop 2241",53.35492926,-6.371268023,5914.1.60-C5-b12-1.351.I,28:07:10,28:07:10,41, Ringsend Road,21500.25,60-C5-b12-1,C5,b12
1815,8230DB002242,"The Oval, stop 2242",53.35392732,-6.367009818,5914.1.60-C5-b12-1.351.I,28:07:33,28:07:33,42, Ringsend Road,21805.65,60-C5-b12-1,C5,b12
1816,8220DB002243,"Glenaulin, stop 2243",53.35197438,-6.355697995,5914.1.60-C5-b12-1.351.I,28:09:00,28:09:00,43, Ringsend Road,22599.29,60-C5-b12-1,C5,b12
1817,8220DB002244,"Belgrove Park, stop 2244",53.35088435,-6.351609074,5914.1.60-C5-b12-1.351.I,28:09:33,28:09:33,44, Ringsend Road,22896.4,60-C5-b12-1,C5,b12
1818,8220DB002245,"Laurence Brook, stop 2245",53.3494632,-6.348284211,5914.1.60-C5-b12-1.351.I,28:09:59,28:09:59,45, Ringsend Road,23168.74,60-C5-b12-1,C5,b12
1819,8220DB002246,"Chapelizod, stop 2246",53.34831131,-6.343642354,5914.1.60-C5-b12-1.351.I,28:10:38,28:10:38,46, Ringsend Road,23581.76,60-C5-b12-1,C5,b12
1820,8220DB002247,"St Mary's Hospital, stop 2247",53.34675286,-6.336282916,5914.1.60-C5-b12-1.351.I,28:11:18,28:11:18,47, Ringsend Road,24118.23,60-C5-b12-1,C5,b12
1821,8220DB002248,"Military Road, stop 2248",53.34632093,-6.327888637,5914.1.60-C5-b12-1.351.I,28:12:00,28:12:00,48, Ringsend Road,24676.76,60-C5-b12-1,C5,b12
1822,8220DB002249,"Garda Boat Club, stop 2249",53.3465317,-6.321136449,5914.1.60-C5-b12-1.351.I,28:12:28,28:12:28,49, Ringsend Road,25127.94,60-C5-b12-1,C5,b12
1823,8220DB002250,"Salmon Pool, stop 2250",53.34743859,-6.31533304,5914.1.60-C5-b12-1.351.I,28:12:52,28:12:52,50, Ringsend Road,25526.81,60-C5-b12-1,C5,b12
1824,8220DB002251,"Islandbridge Gate, stop 2251",53.34813204,-6.310979792,5914.1.60-C5-b12-1.351.I,28:13:18,28:13:18,51, Ringsend Road,25825.23,60-C5-b12-1,C5,b12
1825,8220DB001472,"Conyngham Road, stop 1472",53.34842947,-6.30596617,5914.1.60-C5-b12-1.351.I,28:13:47,28:13:47,52, Ringsend Road,26159.14,60-C5-b12-1,C5,b12
1826,8220DB004408,"Phoenix House, stop 4408",53.34833336,-6.30110331,5914.1.60-C5-b12-1.351.I,28:14:11,28:14:11,53, Ringsend Road,26481.18,60-C5-b12-1,C5,b12
1827,8220DB001473,"Phoenix Park Gate, stop 1473",53.34830598,-6.298550899,5914.1.60-C5-b12-1.351.I,28:14:23,28:14:23,54, Ringsend Road,26650.63,60-C5-b12-1,C5,b12
1828,8220DB001474,"Parkgate Street, stop 1474",53.34794792,-6.292361705,5914.1.60-C5-b12-1.351.I,28:15:07,28:15:07,55, Ringsend Road,27063.01,60-C5-b12-1,C5,b12
1829,8220DB001476,"Sarsfield Quay, stop 1476",53.34707369,-6.284676275,5914.1.60-C5-b12-1.351.I,28:16:02,28:16:02,56, Ringsend Road,27591.27,60-C5-b12-1,C5,b12
1830,8220DB007854,"Arran Quay, stop 7854",53.34636761,-6.278711665,5914.1.60-C5-b12-1.351.I,28:16:59,28:16:59,57, Ringsend Road,27994.01,60-C5-b12-1,C5,b12
1831,8220DB007856,"Four Courts, stop 7856",53.34562262,-6.273184391,5914.1.60-C5-b12-1.351.I,28:17:36,28:17:36,58, Ringsend Road,28373.43,60-C5-b12-1,C5,b12
1832,8220DB007883,"Ormond Quay, stop 7883",53.346058,-6.268495617,5914.1.60-C5-b12-1.351.I,28:18:23,28:18:23,59, Ringsend Road,28692.67,60-C5-b12-1,C5,b12
1833,8220DB000315,"Bachelors Walk, stop 315",53.34702829,-6.261667155,5914.1.60-C5-b12-1.351.I,28:19:31,28:19:31,60, Ringsend Road,29162.87,60-C5-b12-1,C5,b12
1834,8220DB000340,"Townsend Street, stop 340",53.34597512,-6.256017478,5914.1.60-C5-b12-1.351.I,28:21:48,28:21:48,61, Ringsend Road,29653.59,60-C5-b12-1,C5,b12
1835,8220DB007861,"Prince's St South, stop 7861",53.34561679,-6.249348317,5914.1.60-C5-b12-1.351.I,28:22:50,28:22:50,62, Ringsend Road,30097.69,60-C5-b12-1,C5,b12
1836,8220DB000351,"Erne Street, stop 351",53.34341826,-6.245308174,5914.1.60-C5-b12-1.351.I,28:23:45,28:23:45,63, Ringsend Road,30464.26,60-C5-b12-1,C5,b12
1837,8220DB000352,"Pearse Square, stop 352",53.34298915,-6.24241214,5914.1.60-C5-b12-1.351.I,28:24:08,28:24:08,64, Ringsend Road,30665.32,60-C5-b12-1,C5,b12
1838,8220DB000353,"Grand Canal Quay, stop 353",53.34264501,-6.239798018,5914.1.60-C5-b12-1.351.I,28:24:28,28:24:28,65, Ringsend Road,30841.59,60-C5-b12-1,C5,b12
1839,8220DB000354,"Ringsend Road, stop 354",53.34223583,-6.23643569,5914.1.60-C5-b12-1.351.I,28:24:49,28:24:49,66, Ringsend Road,31069.64,60-C5-b12-1,C5,b12
1840,8260DB003999,"Cooldrinagh Terrace, stop 3999",53.36183677,-6.483482274,5914.1.60-C5-d12-1.351.I,27:56:52,27:56:52,27, Ringsend Road,13514.85,60-C5-d12-1,C5,d12
1841,8260DB004000,"Springfield Hotel, stop 4000",53.36053966,-6.478314833,5914.1.60-C5-d12-1.351.I,27:57:18,27:57:18,28, Ringsend Road,13887.04,60-C5-d12-1,C5,d12
1842,8230DB004001,"Liffey Valley Golf, stop 4001",53.35892285,-6.472062381,5914.1.60-C5-d12-1.351.I,27:57:49,27:57:49,29, Ringsend Road,14348.24,60-C5-d12-1,C5,d12
1843,8230DB003949,"Leixlip Road, stop 3949",53.35551692,-6.460211074,5914.1.60-C5-d12-1.351.I,27:59:00,27:59:00,30, Ringsend Road,15229.92,60-C5-d12-1,C5,d12
1844,8230DB003950,"Ball Alley House, stop 3950",53.35560249,-6.455010094,5914.1.60-C5-d12-1.351.I,27:59:36,27:59:36,31, Ringsend Road,15587.87,60-C5-d12-1,C5,d12
1845,8230DB003372,"Lucan Village, stop 3372",53.35656433,-6.448094691,5914.1.60-C5-d12-1.351.I,28:00:23,28:00:23,32, Ringsend Road,16059.48,60-C5-d12-1,C5,d12
1846,8230DB003373,"Lucan Heights, stop 3373",53.35808279,-6.441849744,5914.1.60-C5-d12-1.351.I,28:01:04,28:01:04,33, Ringsend Road,16533.07,60-C5-d12-1,C5,d12
1847,8230DB003374,"St Mary's Church, stop 3374",53.35963427,-6.439524473,5914.1.60-C5-d12-1.351.I,28:01:24,28:01:24,34, Ringsend Road,16764.42,60-C5-d12-1,C5,d12
1848,8230DB002233,"Chalet Gardens, stop 2233",53.3600895,-6.435165776,5914.1.60-C5-d12-1.351.I,28:01:50,28:01:50,35, Ringsend Road,17060.36,60-C5-d12-1,C5,d12
1849,8230DB002232,"Ballydowd Grove, stop 2232",53.35973763,-6.430956834,5914.1.60-C5-d12-1.351.I,28:02:12,28:02:12,36, Ringsend Road,17345.86,60-C5-d12-1,C5,d12
1850,8230DB002234,"Lucan Retail Park, stop 2234",53.35933655,-6.424390974,5914.1.60-C5-d12-1.351.I,28:02:46,28:02:46,37, Ringsend Road,17783.18,60-C5-d12-1,C5,d12
1851,8230DB002236,"Hermitage Bridge, stop 2236",53.35886946,-6.410856513,5914.1.60-C5-d12-1.351.I,28:04:02,28:04:02,38, Ringsend Road,18702.92,60-C5-d12-1,C5,d12
1852,8230DB005056,"Hermitage Clinic, stop 5056",53.35752149,-6.402793928,5914.1.60-C5-d12-1.351.I,28:04:48,28:04:48,39, Ringsend Road,19261.59,60-C5-d12-1,C5,d12
1853,8230DB002239,"Liffey Valley SC, stop 2239",53.35616847,-6.3917274,5914.1.60-C5-d12-1.351.I,28:05:42,28:05:42,40, Ringsend Road,20080.83,60-C5-d12-1,C5,d12
1854,8230DB002241,"Kennelsfort Road, stop 2241",53.35492926,-6.371268023,5914.1.60-C5-d12-1.351.I,28:07:10,28:07:10,41, Ringsend Road,21500.25,60-C5-d12-1,C5,d12
1855,8230DB002242,"The Oval, stop 2242",53.35392732,-6.367009818,5914.1.60-C5-d12-1.351.I,28:07:33,28:07:33,42, Ringsend Road,21805.65,60-C5-d12-1,C5,d12
1856,8220DB002243,"Glenaulin, stop 2243",53.35197438,-6.355697995,5914.1.60-C5-d12-1.351.I,28:09:00,28:09:00,43, Ringsend Road,22599.29,60-C5-d12-1,C5,d12
1857,8220DB002244,"Belgrove Park, stop 2244",53.35088435,-6.351609074,5914.1.60-C5-d12-1.351.I,28:09:33,28:09:33,44, Ringsend Road,22896.4,60-C5-d12-1,C5,d12
1858,8220DB002245,"Laurence Brook, stop 2245",53.3494632,-6.348284211,5914.1.60-C5-d12-1.351.I,28:09:59,28:09:59,45, Ringsend Road,23168.74,60-C5-d12-1,C5,d12
1859,8220DB002246,"Chapelizod, stop 2246",53.34831131,-6.343642354,5914.1.60-C5-d12-1.351.I,28:10:38,28:10:38,46, Ringsend Road,23581.76,60-C5-d12-1,C5,d12
1860,8220DB002247,"St Mary's Hospital, stop 2247",53.34675286,-6.336282916,5914.1.60-C5-d12-1.351.I,28:11:18,28:11:18,47, Ringsend Road,24118.23,60-C5-d12-1,C5,d12
1861,8220DB002248,"Military Road, stop 2248",53.34632093,-6.327888637,5914.1.60-C5-d12-1.351.I,28:12:00,28:12:00,48, Ringsend Road,24676.76,60-C5-d12-1,C5,d12
1862,8220DB002249,"Garda Boat Club, stop 2249",53.3465317,-6.321136449,5914.1.60-C5-d12-1.351.I,28:12:28,28:12:28,49, Ringsend Road,25127.94,60-C5-d12-1,C5,d12
1863,8220DB002250,"Salmon Pool, stop 2250",53.34743859,-6.31533304,5914.1.60-C5-d12-1.351.I,28:12:52,28:12:52,50, Ringsend Road,25526.81,60-C5-d12-1,C5,d12
1864,8220DB002251,"Islandbridge Gate, stop 2251",53.34813204,-6.310979792,5914.1.60-C5-d12-1.351.I,28:13:18,28:13:18,51, Ringsend Road,25825.23,60-C5-d12-1,C5,d12
1865,8220DB001472,"Conyngham Road, stop 1472",53.34842947,-6.30596617,5914.1.60-C5-d12-1.351.I,28:13:47,28:13:47,52, Ringsend Road,26159.14,60-C5-d12-1,C5,d12
1866,8220DB004408,"Phoenix House, stop 4408",53.34833336,-6.30110331,5914.1.60-C5-d12-1.351.I,28:14:11,28:14:11,53, Ringsend Road,26481.18,60-C5-d12-1,C5,d12
1867,8220DB001473,"Phoenix Park Gate, stop 1473",53.34830598,-6.298550899,5914.1.60-C5-d12-1.351.I,28:14:23,28:14:23,54, Ringsend Road,26650.63,60-C5-d12-1,C5,d12
1868,8220DB001474,"Parkgate Street, stop 1474",53.34794792,-6.292361705,5914.1.60-C5-d12-1.351.I,28:15:07,28:15:07,55, Ringsend Road,27063.01,60-C5-d12-1,C5,d12
1869,8220DB001476,"Sarsfield Quay, stop 1476",53.34707369,-6.284676275,5914.1.60-C5-d12-1.351.I,28:16:02,28:16:02,56, Ringsend Road,27591.27,60-C5-d12-1,C5,d12
1870,8220DB007854,"Arran Quay, stop 7854",53.34636761,-6.278711665,5914.1.60-C5-d12-1.351.I,28:16:59,28:16:59,57, Ringsend Road,27994.01,60-C5-d12-1,C5,d12
1871,8220DB007856,"Four Courts, stop 7856",53.34562262,-6.273184391,5914.1.60-C5-d12-1.351.I,28:17:36,28:17:36,58, Ringsend Road,28373.43,60-C5-d12-1,C5,d12
1872,8220DB007883,"Ormond Quay, stop 7883",53.346058,-6.268495617,5914.1.60-C5-d12-1.351.I,28:18:23,28:18:23,59, Ringsend Road,28692.67,60-C5-d12-1,C5,d12
1873,8220DB000315,"Bachelors Walk, stop 315",53.34702829,-6.261667155,5914.1.60-C5-d12-1.351.I,28:19:31,28:19:31,60, Ringsend Road,29162.87,60-C5-d12-1,C5,d12
1874,8220DB000340,"Townsend Street, stop 340",53.34597512,-6.256017478,5914.1.60-C5-d12-1.351.I,28:21:48,28:21:48,61, Ringsend Road,29653.59,60-C5-d12-1,C5,d12
1875,8220DB007861,"Prince's St South, stop 7861",53.34561679,-6.249348317,5914.1.60-C5-d12-1.351.I,28:22:50,28:22:50,62, Ringsend Road,30097.69,60-C5-d12-1,C5,d12
1876,8220DB000351,"Erne Street, stop 351",53.34341826,-6.245308174,5914.1.60-C5-d12-1.351.I,28:23:45,28:23:45,63, Ringsend Road,30464.26,60-C5-d12-1,C5,d12
1877,8220DB000352,"Pearse Square, stop 352",53.34298915,-6.24241214,5914.1.60-C5-d12-1.351.I,28:24:08,28:24:08,64, Ringsend Road,30665.32,60-C5-d12-1,C5,d12
1878,8220DB000353,"Grand Canal Quay, stop 353",53.34264501,-6.239798018,5914.1.60-C5-d12-1.351.I,28:24:28,28:24:28,65, Ringsend Road,30841.59,60-C5-d12-1,C5,d12
1879,8220DB000354,"Ringsend Road, stop 354",53.34223583,-6.23643569,5914.1.60-C5-d12-1.351.I,28:24:49,28:24:49,66, Ringsend Road,31069.64,60-C5-d12-1,C5,d12
1972,8260DB003999,"Cooldrinagh Terrace, stop 3999",53.36183677,-6.483482274,5962.1.60-C5-b12-1.351.I,24:05:08,24:05:08,27, Ringsend Road,13514.85,60-C5-b12-1,C5,b12
1973,8260DB004000,"Springfield Hotel, stop 4000",53.36053966,-6.478314833,5962.1.60-C5-b12-1.351.I,24:05:36,24:05:36,28, Ringsend Road,13887.04,60-C5-b12-1,C5,b12
1974,8230DB004001,"Liffey Valley Golf, stop 4001",53.35892285,-6.472062381,5962.1.60-C5-b12-1.351.I,24:06:11,24:06:11,29, Ringsend Road,14348.24,60-C5-b12-1,C5,b12
1975,8230DB003949,"Leixlip Road, stop 3949",53.35551692,-6.460211074,5962.1.60-C5-b12-1.351.I,24:07:33,24:07:33,30, Ringsend Road,15229.92,60-C5-b12-1,C5,b12
1976,8230DB003950,"Ball Alley House, stop 3950",53.35560249,-6.455010094,5962.1.60-C5-b12-1.351.I,24:08:11,24:08:11,31, Ringsend Road,15587.87,60-C5-b12-1,C5,b12
1977,8230DB003372,"Lucan Village, stop 3372",53.35656433,-6.448094691,5962.1.60-C5-b12-1.351.I,24:09:01,24:09:01,32, Ringsend Road,16059.48,60-C5-b12-1,C5,b12
1978,8230DB003373,"Lucan Heights, stop 3373",53.35808279,-6.441849744,5962.1.60-C5-b12-1.351.I,24:09:39,24:09:39,33, Ringsend Road,16533.07,60-C5-b12-1,C5,b12
1979,8230DB003374,"St Mary's Church, stop 3374",53.35963427,-6.439524473,5962.1.60-C5-b12-1.351.I,24:10:04,24:10:04,34, Ringsend Road,16764.42,60-C5-b12-1,C5,b12
1980,8230DB002233,"Chalet Gardens, stop 2233",53.3600895,-6.435165776,5962.1.60-C5-b12-1.351.I,24:10:35,24:10:35,35, Ringsend Road,17060.36,60-C5-b12-1,C5,b12
1981,8230DB002232,"Ballydowd Grove, stop 2232",53.35973763,-6.430956834,5962.1.60-C5-b12-1.351.I,24:11:04,24:11:04,36, Ringsend Road,17345.86,60-C5-b12-1,C5,b12
1982,8230DB002234,"Lucan Retail Park, stop 2234",53.35933655,-6.424390974,5962.1.60-C5-b12-1.351.I,24:11:50,24:11:50,37, Ringsend Road,17783.18,60-C5-b12-1,C5,b12
1983,8230DB002236,"Hermitage Bridge, stop 2236",53.35886946,-6.410856513,5962.1.60-C5-b12-1.351.I,24:13:03,24:13:03,38, Ringsend Road,18702.92,60-C5-b12-1,C5,b12
1984,8230DB005056,"Hermitage Clinic, stop 5056",53.35752149,-6.402793928,5962.1.60-C5-b12-1.351.I,24:13:47,24:13:47,39, Ringsend Road,19261.59,60-C5-b12-1,C5,b12
1985,8230DB002239,"Liffey Valley SC, stop 2239",53.35616847,-6.3917274,5962.1.60-C5-b12-1.351.I,24:14:50,24:14:50,40, Ringsend Road,20080.83,60-C5-b12-1,C5,b12
1986,8230DB002241,"Kennelsfort Road, stop 2241",53.35492926,-6.371268023,5962.1.60-C5-b12-1.351.I,24:16:25,24:16:25,41, Ringsend Road,21500.25,60-C5-b12-1,C5,b12
1987,8230DB002242,"The Oval, stop 2242",53.35392732,-6.367009818,5962.1.60-C5-b12-1.351.I,24:16:51,24:16:51,42, Ringsend Road,21805.65,60-C5-b12-1,C5,b12
1988,8220DB002243,"Glenaulin, stop 2243",53.35197438,-6.355697995,5962.1.60-C5-b12-1.351.I,24:18:13,24:18:13,43, Ringsend Road,22599.29,60-C5-b12-1,C5,b12
1989,8220DB002244,"Belgrove Park, stop 2244",53.35088435,-6.351609074,5962.1.60-C5-b12-1.351.I,24:18:43,24:18:43,44, Ringsend Road,22896.4,60-C5-b12-1,C5,b12
1990,8220DB002245,"Laurence Brook, stop 2245",53.3494632,-6.348284211,5962.1.60-C5-b12-1.351.I,24:19:11,24:19:11,45, Ringsend Road,23168.74,60-C5-b12-1,C5,b12
1991,8220DB002246,"Chapelizod, stop 2246",53.34831131,-6.343642354,5962.1.60-C5-b12-1.351.I,24:19:52,24:19:52,46, Ringsend Road,23581.76,60-C5-b12-1,C5,b12
1992,8220DB002247,"St Mary's Hospital, stop 2247",53.34675286,-6.336282916,5962.1.60-C5-b12-1.351.I,24:20:34,24:20:34,47, Ringsend Road,24118.23,60-C5-b12-1,C5,b12
1993,8220DB002248,"Military Road, stop 2248",53.34632093,-6.327888637,5962.1.60-C5-b12-1.351.I,24:21:18,24:21:18,48, Ringsend Road,24676.76,60-C5-b12-1,C5,b12
1994,8220DB002249,"Garda Boat Club, stop 2249",53.3465317,-6.321136449,5962.1.60-C5-b12-1.351.I,24:21:44,24:21:44,49, Ringsend Road,25127.94,60-C5-b12-1,C5,b12
1995,8220DB002250,"Salmon Pool, stop 2250",53.34743859,-6.31533304,5962.1.60-C5-b12-1.351.I,24:22:07,24:22:07,50, Ringsend Road,25526.81,60-C5-b12-1,C5,b12
1996,8220DB002251,"Islandbridge Gate, stop 2251",53.34813204,-6.310979792,5962.1.60-C5-b12-1.351.I,24:22:36,24:22:36,51, Ringsend Road,25825.23,60-C5-b12-1,C5,b12
1997,8220DB001472,"Conyngham Road, stop 1472",53.34842947,-6.30596617,5962.1.60-C5-b12-1.351.I,24:23:08,24:23:08,52, Ringsend Road,26159.14,60-C5-b12-1,C5,b12
1998,8220DB004408,"Phoenix House, stop 4408",53.34833336,-6.30110331,5962.1.60-C5-b12-1.351.I,24:23:31,24:23:31,53, Ringsend Road,26481.18,60-C5-b12-1,C5,b12
1999,8220DB001473,"Phoenix Park Gate, stop 1473",53.34830598,-6.298550899,5962.1.60-C5-b12-1.351.I,24:23:43,24:23:43,54, Ringsend Road,26650.63,60-C5-b12-1,C5,b12
2000,8220DB001474,"Parkgate Street, stop 1474",53.34794792,-6.292361705,5962.1.60-C5-b12-1.351.I,24:24:33,24:24:33,55, Ringsend Road,27063.01,60-C5-b12-1,C5,b12
2001,8220DB001476,"Sarsfield Quay, stop 1476",53.34707369,-6.284676275,5962.1.60-C5-b12-1.351.I,24:25:37,24:25:37,56, Ringsend Road,27591.27,60-C5-b12-1,C5,b12
2002,8220DB007854,"Arran Quay, stop 7854",53.34636761,-6.278711665,5962.1.60-C5-b12-1.351.I,24:26:26,24:26:26,57, Ringsend Road,27994.01,60-C5-b12-1,C5,b12
2003,8220DB007856,"Four Courts, stop 7856",53.34562262,-6.273184391,5962.1.60-C5-b12-1.351.I,24:27:35,24:27:35,58, Ringsend Road,28373.43,60-C5-b12-1,C5,b12
2004,8220DB007883,"Ormond Quay, stop 7883",53.346058,-6.268495617,5962.1.60-C5-b12-1.351.I,24:28:41,24:28:41,59, Ringsend Road,28692.67,60-C5-b12-1,C5,b12
2005,8220DB000315,"Bachelors Walk, stop 315",53.34702829,-6.261667155,5962.1.60-C5-b12-1.351.I,24:30:18,24:30:18,60, Ringsend Road,29162.87,60-C5-b12-1,C5,b12
2006,8220DB000340,"Townsend Street, stop 340",53.34597512,-6.256017478,5962.1.60-C5-b12-1.351.I,24:33:35,24:33:35,61, Ringsend Road,29653.59,60-C5-b12-1,C5,b12
2007,8220DB007861,"Prince's St South, stop 7861",53.34561679,-6.249348317,5962.1.60-C5-b12-1.351.I,24:34:43,24:34:43,62, Ringsend Road,30097.69,60-C5-b12-1,C5,b12
2008,8220DB000351,"Erne Street, stop 351",53.34341826,-6.245308174,5962.1.60-C5-b12-1.351.I,24:35:42,24:35:42,63, Ringsend Road,30464.26,60-C5-b12-1,C5,b12
2009,8220DB000352,"Pearse Square, stop 352",53.34298915,-6.24241214,5962.1.60-C5-b12-1.351.I,24:36:05,24:36:05,64, Ringsend Road,30665.32,60-C5-b12-1,C5,b12
2010,8220DB000353,"Grand Canal Quay, stop 353",53.34264501,-6.239798018,5962.1.60-C5-b12-1.351.I,24:36:25,24:36:25,65, Ringsend Road,30841.59,60-C5-b12-1,C5,b12
2011,8220DB000354,"Ringsend Road, stop 354",53.34223583,-6.23643569,5962.1.60-C5-b12-1.351.I,24:36:49,24:36:49,66, Ringsend Road,31069.64,60-C5-b12-1,C5,b12
2012,8260DB003999,"Cooldrinagh Terrace, stop 3999",53.36183677,-6.483482274,5962.1.60-C5-d12-1.351.I,24:05:08,24:05:08,27, Ringsend Road,13514.85,60-C5-d12-1,C5,d12
2013,8260DB004000,"Springfield Hotel, stop 4000",53.36053966,-6.478314833,5962.1.60-C5-d12-1.351.I,24:05:36,24:05:36,28, Ringsend Road,13887.04,60-C5-d12-1,C5,d12
2014,8230DB004001,"Liffey Valley Golf, stop 4001",53.35892285,-6.472062381,5962.1.60-C5-d12-1.351.I,24:06:11,24:06:11,29, Ringsend Road,14348.24,60-C5-d12-1,C5,d12
2015,8230DB003949,"Leixlip Road, stop 3949",53.35551692,-6.460211074,5962.1.60-C5-d12-1.351.I,24:07:33,24:07:33,30, Ringsend Road,15229.92,60-C5-d12-1,C5,d12
2016,8230DB003950,"Ball Alley House, stop 3950",53.35560249,-6.455010094,5962.1.60-C5-d12-1.351.I,24:08:11,24:08:11,31, Ringsend Road,15587.87,60-C5-d12-1,C5,d12
2017,8230DB003372,"Lucan Village, stop 3372",53.35656433,-6.448094691,5962.1.60-C5-d12-1.351.I,24:09:01,24:09:01,32, Ringsend Road,16059.48,60-C5-d12-1,C5,d12
2018,8230DB003373,"Lucan Heights, stop 3373",53.35808279,-6.441849744,5962.1.60-C5-d12-1.351.I,24:09:39,24:09:39,33, Ringsend Road,16533.07,60-C5-d12-1,C5,d12
2019,8230DB003374,"St Mary's Church, stop 3374",53.35963427,-6.439524473,5962.1.60-C5-d12-1.351.I,24:10:04,24:10:04,34, Ringsend Road,16764.42,60-C5-d12-1,C5,d12
2020,8230DB002233,"Chalet Gardens, stop 2233",53.3600895,-6.435165776,5962.1.60-C5-d12-1.351.I,24:10:35,24:10:35,35, Ringsend Road,17060.36,60-C5-d12-1,C5,d12
2021,8230DB002232,"Ballydowd Grove, stop 2232",53.35973763,-6.430956834,5962.1.60-C5-d12-1.351.I,24:11:04,24:11:04,36, Ringsend Road,17345.86,60-C5-d12-1,C5,d12
2022,8230DB002234,"Lucan Retail Park, stop 2234",53.35933655,-6.424390974,5962.1.60-C5-d12-1.351.I,24:11:50,24:11:50,37, Ringsend Road,17783.18,60-C5-d12-1,C5,d12
2023,8230DB002236,"Hermitage Bridge, stop 2236",53.35886946,-6.410856513,5962.1.60-C5-d12-1.351.I,24:13:03,24:13:03,38, Ringsend Road,18702.92,60-C5-d12-1,C5,d12
2024,8230DB005056,"Hermitage Clinic, stop 5056",53.35752149,-6.402793928,5962.1.60-C5-d12-1.351.I,24:13:47,24:13:47,39, Ringsend Road,19261.59,60-C5-d12-1,C5,d12
2025,8230DB002239,"Liffey Valley SC, stop 2239",53.35616847,-6.3917274,5962.1.60-C5-d12-1.351.I,24:14:50,24:14:50,40, Ringsend Road,20080.83,60-C5-d12-1,C5,d12
2026,8230DB002241,"Kennelsfort Road, stop 2241",53.35492926,-6.371268023,5962.1.60-C5-d12-1.351.I,24:16:25,24:16:25,41, Ringsend Road,21500.25,60-C5-d12-1,C5,d12
2027,8230DB002242,"The Oval, stop 2242",53.35392732,-6.367009818,5962.1.60-C5-d12-1.351.I,24:16:51,24:16:51,42, Ringsend Road,21805.65,60-C5-d12-1,C5,d12
2028,8220DB002243,"Glenaulin, stop 2243",53.35197438,-6.355697995,5962.1.60-C5-d12-1.351.I,24:18:13,24:18:13,43, Ringsend Road,22599.29,60-C5-d12-1,C5,d12
2029,8220DB002244,"Belgrove Park, stop 2244",53.35088435,-6.351609074,5962.1.60-C5-d12-1.351.I,24:18:43,24:18:43,44, Ringsend Road,22896.4,60-C5-d12-1,C5,d12
2030,8220DB002245,"Laurence Brook, stop 2245",53.3494632,-6.348284211,5962.1.60-C5-d12-1.351.I,24:19:11,24:19:11,45, Ringsend Road,23168.74,60-C5-d12-1,C5,d12
2031,8220DB002246,"Chapelizod, stop 2246",53.34831131,-6.343642354,5962.1.60-C5-d12-1.351.I,24:19:52,24:19:52,46, Ringsend Road,23581.76,60-C5-d12-1,C5,d12
2032,8220DB002247,"St Mary's Hospital, stop 2247",53.34675286,-6.336282916,5962.1.60-C5-d12-1.351.I,24:20:34,24:20:34,47, Ringsend Road,24118.23,60-C5-d12-1,C5,d12
2033,8220DB002248,"Military Road, stop 2248",53.34632093,-6.327888637,5962.1.60-C5-d12-1.351.I,24:21:18,24:21:18,48, Ringsend Road,24676.76,60-C5-d12-1,C5,d12
2034,8220DB002249,"Garda Boat Club, stop 2249",53.3465317,-6.321136449,5962.1.60-C5-d12-1.351.I,24:21:44,24:21:44,49, Ringsend Road,25127.94,60-C5-d12-1,C5,d12
2035,8220DB002250,"Salmon Pool, stop 2250",53.34743859,-6.31533304,5962.1.60-C5-d12-1.351.I,24:22:07,24:22:07,50, Ringsend Road,25526.81,60-C5-d12-1,C5,d12
2036,8220DB002251,"Islandbridge Gate, stop 2251",53.34813204,-6.310979792,5962.1.60-C5-d12-1.351.I,24:22:36,24:22:36,51, Ringsend Road,25825.23,60-C5-d12-1,C5,d12
2037,8220DB001472,"Conyngham Road, stop 1472",53.34842947,-6.30596617,5962.1.60-C5-d12-1.351.I,24:23:08,24:23:08,52, Ringsend Road,26159.14,60-C5-d12-1,C5,d12
2038,8220DB004408,"Phoenix House, stop 4408",53.34833336,-6.30110331,5962.1.60-C5-d12-1.351.I,24:23:31,24:23:31,53, Ringsend Road,26481.18,60-C5-d12-1,C5,d12
2039,8220DB001473,"Phoenix Park Gate, stop 1473",53.34830598,-6.298550899,5962.1.60-C5-d12-1.351.I,24:23:43,24:23:43,54, Ringsend Road,26650.63,60-C5-d12-1,C5,d12
2040,8220DB001474,"Parkgate Street, stop 1474",53.34794792,-6.292361705,5962.1.60-C5-d12-1.351.I,24:24:33,24:24:33,55, Ringsend Road,27063.01,60-C5-d12-1,C5,d12
2041,8220DB001476,"Sarsfield Quay, stop 1476",53.34707369,-6.284676275,5962.1.60-C5-d12-1.351.I,24:25:37,24:25:37,56, Ringsend Road,27591.27,60-C5-d12-1,C5,d12
2042,8220DB007854,"Arran Quay, stop 7854",53.34636761,-6.278711665,5962.1.60-C5-d12-1.351.I,24:26:26,24:26:26,57, Ringsend Road,27994.01,60-C5-d12-1,C5,d12
2043,8220DB007856,"Four Courts, stop 7856",53.34562262,-6.273184391,5962.1.60-C5-d12-1.351.I,24:27:35,24:27:35,58, Ringsend Road,28373.43,60-C5-d12-1,C5,d12
2044,8220DB007883,"Ormond Quay, stop 7883",53.346058,-6.268495617,5962.1.60-C5-d12-1.351.I,24:28:41,24:28:41,59, Ringsend Road,28692.67,60-C5-d12-1,C5,d12
2045,8220DB000315,"Bachelors Walk, stop 315",53.34702829,-6.261667155,5962.1.60-C5-d12-1.351.I,24:30:18,24:30:18,60, Ringsend Road,29162.87,60-C5-d12-1,C5,d12
2046,8220DB000340,"Townsend Street, stop 340",53.34597512,-6.256017478,5962.1.60-C5-d12-1.351.I,24:33:35,24:33:35,61, Ringsend Road,29653.59,60-C5-d12-1,C5,d12
2047,8220DB007861,"Prince's St South, stop 7861",53.34561679,-6.249348317,5962.1.60-C5-d12-1.351.I,24:34:43,24:34:43,62, Ringsend Road,30097.69,60-C5-d12-1,C5,d12
2048,8220DB000351,"Erne Street, stop 351",53.34341826,-6.245308174,5962.1.60-C5-d12-1.351.I,24:35:42,24:35:42,63, Ringsend Road,30464.26,60-C5-d12-1,C5,d12
2049,8220DB000352,"Pearse Square, stop 352",53.34298915,-6.24241214,5962.1.60-C5-d12-1.351.I,24:36:05,24:36:05,64, Ringsend Road,30665.32,60-C5-d12-1,C5,d12
2050,8220DB000353,"Grand Canal Quay, stop 353",53.34264501,-6.239798018,5962.1.60-C5-d12-1.351.I,24:36:25,24:36:25,65, Ringsend Road,30841.59,60-C5-d12-1,C5,d12
2051,8220DB000354,"Ringsend Road, stop 354",53.34223583,-6.23643569,5962.1.60-C5-d12-1.351.I,24:36:49,24:36:49,66, Ringsend Road,31069.64,60-C5-d12-1,C5,d12
2052,8260DB003999,"Cooldrinagh Terrace, stop 3999",53.36183677,-6.483482274,5964.1.60-C5-b12-1.351.I,27:04:29,27:04:29,27, Ringsend Road,13514.85,60-C5-b12-1,C5,b12
2053,8260DB004000,"Springfield Hotel, stop 4000",53.36053966,-6.478314833,5964.1.60-C5-b12-1.351.I,27:04:56,27:04:56,28, Ringsend Road,13887.04,60-C5-b12-1,C5,b12
2054,8230DB004001,"Liffey Valley Golf, stop 4001",53.35892285,-6.472062381,5964.1.60-C5-b12-1.351.I,27:05:29,27:05:29,29, Ringsend Road,14348.24,60-C5-b12-1,C5,b12
2055,8230DB003949,"Leixlip Road, stop 3949",53.35551692,-6.460211074,5964.1.60-C5-b12-1.351.I,27:06:44,27:06:44,30, Ringsend Road,15229.92,60-C5-b12-1,C5,b12
2056,8230DB003950,"Ball Alley House, stop 3950",53.35560249,-6.455010094,5964.1.60-C5-b12-1.351.I,27:07:20,27:07:20,31, Ringsend Road,15587.87,60-C5-b12-1,C5,b12
2057,8230DB003372,"Lucan Village, stop 3372",53.35656433,-6.448094691,5964.1.60-C5-b12-1.351.I,27:08:08,27:08:08,32, Ringsend Road,16059.48,60-C5-b12-1,C5,b12
2058,8230DB003373,"Lucan Heights, stop 3373",53.35808279,-6.441849744,5964.1.60-C5-b12-1.351.I,27:08:46,27:08:46,33, Ringsend Road,16533.07,60-C5-b12-1,C5,b12
2059,8230DB003374,"St Mary's Church, stop 3374",53.35963427,-6.439524473,5964.1.60-C5-b12-1.351.I,27:09:09,27:09:09,34, Ringsend Road,16764.42,60-C5-b12-1,C5,b12
2060,8230DB002233,"Chalet Gardens, stop 2233",53.3600895,-6.435165776,5964.1.60-C5-b12-1.351.I,27:09:38,27:09:38,35, Ringsend Road,17060.36,60-C5-b12-1,C5,b12
2061,8230DB002232,"Ballydowd Grove, stop 2232",53.35973763,-6.430956834,5964.1.60-C5-b12-1.351.I,27:10:06,27:10:06,36, Ringsend Road,17345.86,60-C5-b12-1,C5,b12
2062,8230DB002234,"Lucan Retail Park, stop 2234",53.35933655,-6.424390974,5964.1.60-C5-b12-1.351.I,27:10:50,27:10:50,37, Ringsend Road,17783.18,60-C5-b12-1,C5,b12
2063,8230DB002236,"Hermitage Bridge, stop 2236",53.35886946,-6.410856513,5964.1.60-C5-b12-1.351.I,27:12:02,27:12:02,38, Ringsend Road,18702.92,60-C5-b12-1,C5,b12
2064,8230DB005056,"Hermitage Clinic, stop 5056",53.35752149,-6.402793928,5964.1.60-C5-b12-1.351.I,27:12:46,27:12:46,39, Ringsend Road,19261.59,60-C5-b12-1,C5,b12
2065,8230DB002239,"Liffey Valley SC, stop 2239",53.35616847,-6.3917274,5964.1.60-C5-b12-1.351.I,27:14:03,27:14:03,40, Ringsend Road,20080.83,60-C5-b12-1,C5,b12
2066,8230DB002241,"Kennelsfort Road, stop 2241",53.35492926,-6.371268023,5964.1.60-C5-b12-1.351.I,27:15:41,27:15:41,41, Ringsend Road,21500.25,60-C5-b12-1,C5,b12
2067,8230DB002242,"The Oval, stop 2242",53.35392732,-6.367009818,5964.1.60-C5-b12-1.351.I,27:16:02,27:16:02,42, Ringsend Road,21805.65,60-C5-b12-1,C5,b12
2068,8220DB002243,"Glenaulin, stop 2243",53.35197438,-6.355697995,5964.1.60-C5-b12-1.351.I,27:17:26,27:17:26,43, Ringsend Road,22599.29,60-C5-b12-1,C5,b12
2069,8220DB002244,"Belgrove Park, stop 2244",53.35088435,-6.351609074,5964.1.60-C5-b12-1.351.I,27:17:57,27:17:57,44, Ringsend Road,22896.4,60-C5-b12-1,C5,b12
2070,8220DB002245,"Laurence Brook, stop 2245",53.3494632,-6.348284211,5964.1.60-C5-b12-1.351.I,27:18:23,27:18:23,45, Ringsend Road,23168.74,60-C5-b12-1,C5,b12
2071,8220DB002246,"Chapelizod, stop 2246",53.34831131,-6.343642354,5964.1.60-C5-b12-1.351.I,27:19:03,27:19:03,46, Ringsend Road,23581.76,60-C5-b12-1,C5,b12
2072,8220DB002247,"St Mary's Hospital, stop 2247",53.34675286,-6.336282916,5964.1.60-C5-b12-1.351.I,27:19:44,27:19:44,47, Ringsend Road,24118.23,60-C5-b12-1,C5,b12
2073,8220DB002248,"Military Road, stop 2248",53.34632093,-6.327888637,5964.1.60-C5-b12-1.351.I,27:20:27,27:20:27,48, Ringsend Road,24676.76,60-C5-b12-1,C5,b12
2074,8220DB002249,"Garda Boat Club, stop 2249",53.3465317,-6.321136449,5964.1.60-C5-b12-1.351.I,27:20:53,27:20:53,49, Ringsend Road,25127.94,60-C5-b12-1,C5,b12
2075,8220DB002250,"Salmon Pool, stop 2250",53.34743859,-6.31533304,5964.1.60-C5-b12-1.351.I,27:21:16,27:21:16,50, Ringsend Road,25526.81,60-C5-b12-1,C5,b12
2076,8220DB002251,"Islandbridge Gate, stop 2251",53.34813204,-6.310979792,5964.1.60-C5-b12-1.351.I,27:21:45,27:21:45,51, Ringsend Road,25825.23,60-C5-b12-1,C5,b12
2077,8220DB001472,"Conyngham Road, stop 1472",53.34842947,-6.30596617,5964.1.60-C5-b12-1.351.I,27:22:18,27:22:18,52, Ringsend Road,26159.14,60-C5-b12-1,C5,b12
2078,8220DB004408,"Phoenix House, stop 4408",53.34833336,-6.30110331,5964.1.60-C5-b12-1.351.I,27:22:40,27:22:40,53, Ringsend Road,26481.18,60-C5-b12-1,C5,b12
2079,8220DB001473,"Phoenix Park Gate, stop 1473",53.34830598,-6.298550899,5964.1.60-C5-b12-1.351.I,27:22:52,27:22:52,54, Ringsend Road,26650.63,60-C5-b12-1,C5,b12
2080,8220DB001474,"Parkgate Street, stop 1474",53.34794792,-6.292361705,5964.1.60-C5-b12-1.351.I,27:23:37,27:23:37,55, Ringsend Road,27063.01,60-C5-b12-1,C5,b12
2081,8220DB001476,"Sarsfield Quay, stop 1476",53.34707369,-6.284676275,5964.1.60-C5-b12-1.351.I,27:24:34,27:24:34,56, Ringsend Road,27591.27,60-C5-b12-1,C5,b12
2082,8220DB007854,"Arran Quay, stop 7854",53.34636761,-6.278711665,5964.1.60-C5-b12-1.351.I,27:25:28,27:25:28,57, Ringsend Road,27994.01,60-C5-b12-1,C5,b12
2083,8220DB007856,"Four Courts, stop 7856",53.34562262,-6.273184391,5964.1.60-C5-b12-1.351.I,27:26:20,27:26:20,58, Ringsend Road,28373.43,60-C5-b12-1,C5,b12
2084,8220DB007883,"Ormond Quay, stop 7883",53.346058,-6.268495617,5964.1.60-C5-b12-1.351.I,27:27:18,27:27:18,59, Ringsend Road,28692.67,60-C5-b12-1,C5,b12
2085,8220DB000315,"Bachelors Walk, stop 315",53.34702829,-6.261667155,5964.1.60-C5-b12-1.351.I,27:28:44,27:28:44,60, Ringsend Road,29162.87,60-C5-b12-1,C5,b12
2086,8220DB000340,"Townsend Street, stop 340",53.34597512,-6.256017478,5964.1.60-C5-b12-1.351.I,27:31:08,27:31:08,61, Ringsend Road,29653.59,60-C5-b12-1,C5,b12
2087,8220DB007861,"Prince's St South, stop 7861",53.34561679,-6.249348317,5964.1.60-C5-b12-1.351.I,27:32:24,27:32:24,62, Ringsend Road,30097.69,60-C5-b12-1,C5,b12
2088,8220DB000351,"Erne Street, stop 351",53.34341826,-6.245308174,5964.1.60-C5-b12-1.351.I,27:33:30,27:33:30,63, Ringsend Road,30464.26,60-C5-b12-1,C5,b12
2089,8220DB000352,"Pearse Square, stop 352",53.34298915,-6.24241214,5964.1.60-C5-b12-1.351.I,27:33:55,27:33:55,64, Ringsend Road,30665.32,60-C5-b12-1,C5,b12
2090,8220DB000353,"Grand Canal Quay, stop 353",53.34264501,-6.239798018,5964.1.60-C5-b12-1.351.I,27:34:18,27:34:18,65, Ringsend Road,30841.59,60-C5-b12-1,C5,b12
2091,8220DB000354,"Ringsend Road, stop 354",53.34223583,-6.23643569,5964.1.60-C5-b12-1.351.I,27:34:43,27:34:43,66, Ringsend Road,31069.64,60-C5-b12-1,C5,b12
2092,8260DB003999,"Cooldrinagh Terrace, stop 3999",53.36183677,-6.483482274,5964.1.60-C5-d12-1.351.I,27:04:29,27:04:29,27, Ringsend Road,13514.85,60-C5-d12-1,C5,d12
2093,8260DB004000,"Springfield Hotel, stop 4000",53.36053966,-6.478314833,5964.1.60-C5-d12-1.351.I,27:04:56,27:04:56,28, Ringsend Road,13887.04,60-C5-d12-1,C5,d12
2094,8230DB004001,"Liffey Valley Golf, stop 4001",53.35892285,-6.472062381,5964.1.60-C5-d12-1.351.I,27:05:29,27:05:29,29, Ringsend Road,14348.24,60-C5-d12-1,C5,d12
2095,8230DB003949,"Leixlip Road, stop 3949",53.35551692,-6.460211074,5964.1.60-C5-d12-1.351.I,27:06:44,27:06:44,30, Ringsend Road,15229.92,60-C5-d12-1,C5,d12
2096,8230DB003950,"Ball Alley House, stop 3950",53.35560249,-6.455010094,5964.1.60-C5-d12-1.351.I,27:07:20,27:07:20,31, Ringsend Road,15587.87,60-C5-d12-1,C5,d12
2097,8230DB003372,"Lucan Village, stop 3372",53.35656433,-6.448094691,5964.1.60-C5-d12-1.351.I,27:08:08,27:08:08,32, Ringsend Road,16059.48,60-C5-d12-1,C5,d12
2098,8230DB003373,"Lucan Heights, stop 3373",53.35808279,-6.441849744,5964.1.60-C5-d12-1.351.I,27:08:46,27:08:46,33, Ringsend Road,16533.07,60-C5-d12-1,C5,d12
2099,8230DB003374,"St Mary's Church, stop 3374",53.35963427,-6.439524473,5964.1.60-C5-d12-1.351.I,27:09:09,27:09:09,34, Ringsend Road,16764.42,60-C5-d12-1,C5,d12
2100,8230DB002233,"Chalet Gardens, stop 2233",53.3600895,-6.435165776,5964.1.60-C5-d12-1.351.I,27:09:38,27:09:38,35, Ringsend Road,17060.36,60-C5-d12-1,C5,d12
2101,8230DB002232,"Ballydowd Grove, stop 2232",53.35973763,-6.430956834,5964.1.60-C5-d12-1.351.I,27:10:06,27:10:06,36, Ringsend Road,17345.86,60-C5-d12-1,C5,d12
2102,8230DB002234,"Lucan Retail Park, stop 2234",53.35933655,-6.424390974,5964.1.60-C5-d12-1.351.I,27:10:50,27:10:50,37, Ringsend Road,17783.18,60-C5-d12-1,C5,d12
2103,8230DB002236,"Hermitage Bridge, stop 2236",53.35886946,-6.410856513,5964.1.60-C5-d12-1.351.I,27:12:02,27:12:02,38, Ringsend Road,18702.92,60-C5-d12-1,C5,d12
2104,8230DB005056,"Hermitage Clinic, stop 5056",53.35752149,-6.402793928,5964.1.60-C5-d12-1.351.I,27:12:46,27:12:46,39, Ringsend Road,19261.59,60-C5-d12-1,C5,d12
2105,8230DB002239,"Liffey Valley SC, stop 2239",53.35616847,-6.3917274,5964.1.60-C5-d12-1.351.I,27:14:03,27:14:03,40, Ringsend Road,20080.83,60-C5-d12-1,C5,d12
2106,8230DB002241,"Kennelsfort Road, stop 2241",53.35492926,-6.371268023,5964.1.60-C5-d12-1.351.I,27:15:41,27:15:41,41, Ringsend Road,21500.25,60-C5-d12-1,C5,d12
2107,8230DB002242,"The Oval, stop 2242",53.35392732,-6.367009818,5964.1.60-C5-d12-1.351.I,27:16:02,27:16:02,42, Ringsend Road,21805.65,60-C5-d12-1,C5,d12
2108,8220DB002243,"Glenaulin, stop 2243",53.35197438,-6.355697995,5964.1.60-C5-d12-1.351.I,27:17:26,27:17:26,43, Ringsend Road,22599.29,60-C5-d12-1,C5,d12
2109,8220DB002244,"Belgrove Park, stop 2244",53.35088435,-6.351609074,5964.1.60-C5-d12-1.351.I,27:17:57,27:17:57,44, Ringsend Road,22896.4,60-C5-d12-1,C5,d12
2110,8220DB002245,"Laurence Brook, stop 2245",53.3494632,-6.348284211,5964.1.60-C5-d12-1.351.I,27:18:23,27:18:23,45, Ringsend Road,23168.74,60-C5-d12-1,C5,d12
2111,8220DB002246,"Chapelizod, stop 2246",53.34831131,-6.343642354,5964.1.60-C5-d12-1.351.I,27:19:03,27:19:03,46, Ringsend Road,23581.76,60-C5-d12-1,C5,d12
2112,8220DB002247,"St Mary's Hospital, stop 2247",53.34675286,-6.336282916,5964.1.60-C5-d12-1.351.I,27:19:44,27:19:44,47, Ringsend Road,24118.23,60-C5-d12-1,C5,d12
2113,8220DB002248,"Military Road, stop 2248",53.34632093,-6.327888637,5964.1.60-C5-d12-1.351.I,27:20:27,27:20:27,48, Ringsend Road,24676.76,60-C5-d12-1,C5,d12
2114,8220DB002249,"Garda Boat Club, stop 2249",53.3465317,-6.321136449,5964.1.60-C5-d12-1.351.I,27:20:53,27:20:53,49, Ringsend Road,25127.94,60-C5-d12-1,C5,d12
2115,8220DB002250,"Salmon Pool, stop 2250",53.34743859,-6.31533304,5964.1.60-C5-d12-1.351.I,27:21:16,27:21:16,50, Ringsend Road,25526.81,60-C5-d12-1,C5,d12
2116,8220DB002251,"Islandbridge Gate, stop 2251",53.34813204,-6.310979792,5964.1.60-C5-d12-1.351.I,27:21:45,27:21:45,51, Ringsend Road,25825.23,60-C5-d12-1,C5,d12
2117,8220DB001472,"Conyngham Road, stop 1472",53.34842947,-6.30596617,5964.1.60-C5-d12-1.351.I,27:22:18,27:22:18,52, Ringsend Road,26159.14,60-C5-d12-1,C5,d12
2118,8220DB004408,"Phoenix House, stop 4408",53.34833336,-6.30110331,5964.1.60-C5-d12-1.351.I,27:22:40,27:22:40,53, Ringsend Road,26481.18,60-C5-d12-1,C5,d12
2119,8220DB001473,"Phoenix Park Gate, stop 1473",53.34830598,-6.298550899,5964.1.60-C5-d12-1.351.I,27:22:52,27:22:52,54, Ringsend Road,26650.63,60-C5-d12-1,C5,d12
2120,8220DB001474,"Parkgate Street, stop 1474",53.34794792,-6.292361705,5964.1.60-C5-d12-1.351.I,27:23:37,27:23:37,55, Ringsend Road,27063.01,60-C5-d12-1,C5,d12
2121,8220DB001476,"Sarsfield Quay, stop 1476",53.34707369,-6.284676275,5964.1.60-C5-d12-1.351.I,27:24:34,27:24:34,56, Ringsend Road,27591.27,60-C5-d12-1,C5,d12
2122,8220DB007854,"Arran Quay, stop 7854",53.34636761,-6.278711665,5964.1.60-C5-d12-1.351.I,27:25:28,27:25:28,57, Ringsend Road,27994.01,60-C5-d12-1,C5,d12
2123,8220DB007856,"Four Courts, stop 7856",53.34562262,-6.273184391,5964.1.60-C5-d12-1.351.I,27:26:20,27:26:20,58, Ringsend Road,28373.43,60-C5-d12-1,C5,d12
2124,8220DB007883,"Ormond Quay, stop 7883",53.346058,-6.268495617,5964.1.60-C5-d12-1.351.I,27:27:18,27:27:18,59, Ringsend Road,28692.67,60-C5-d12-1,C5,d12
2125,8220DB000315,"Bachelors Walk, stop 315",53.34702829,-6.261667155,5964.1.60-C5-d12-1.351.I,27:28:44,27:28:44,60, Ringsend Road,29162.87,60-C5-d12-1,C5,d12
2126,8220DB000340,"Townsend Street, stop 340",53.34597512,-6.256017478,5964.1.60-C5-d12-1.351.I,27:31:08,27:31:08,61, Ringsend Road,29653.59,60-C5-d12-1,C5,d12
2127,8220DB007861,"Prince's St South, stop 7861",53.34561679,-6.249348317,5964.1.60-C5-d12-1.351.I,27:32:24,27:32:24,62, Ringsend Road,30097.69,60-C5-d12-1,C5,d12
2128,8220DB000351,"Erne Street, stop 351",53.34341826,-6.245308174,5964.1.60-C5-d12-1.351.I,27:33:30,27:33:30,63, Ringsend Road,30464.26,60-C5-d12-1,C5,d12
2129,8220DB000352,"Pearse Square, stop 352",53.34298915,-6.24241214,5964.1.60-C5-d12-1.351.I,27:33:55,27:33:55,64, Ringsend Road,30665.32,60-C5-d12-1,C5,d12
2130,8220DB000353,"Grand Canal Quay, stop 353",53.34264501,-6.239798018,5964.1.60-C5-d12-1.351.I,27:34:18,27:34:18,65, Ringsend Road,30841.59,60-C5-d12-1,C5,d12
2131,8220DB000354,"Ringsend Road, stop 354",53.34223583,-6.23643569,5964.1.60-C5-d12-1.351.I,27:34:43,27:34:43,66, Ringsend Road,31069.64,60-C5-d12-1,C5,d12
2224,8260DB003999,"Cooldrinagh Terrace, stop 3999",53.36183677,-6.483482274,5982.1.60-C5-b12-1.351.I,26:04:29,26:04:29,27, Ringsend Road,13514.85,60-C5-b12-1,C5,b12
2225,8260DB004000,"Springfield Hotel, stop 4000",53.36053966,-6.478314833,5982.1.60-C5-b12-1.351.I,26:04:56,26:04:56,28, Ringsend Road,13887.04,60-C5-b12-1,C5,b12
2226,8230DB004001,"Liffey Valley Golf, stop 4001",53.35892285,-6.472062381,5982.1.60-C5-b12-1.351.I,26:05:29,26:05:29,29, Ringsend Road,14348.24,60-C5-b12-1,C5,b12
2227,8230DB003949,"Leixlip Road, stop 3949",53.35551692,-6.460211074,5982.1.60-C5-b12-1.351.I,26:06:44,26:06:44,30, Ringsend Road,15229.92,60-C5-b12-1,C5,b12
2228,8230DB003950,"Ball Alley House, stop 3950",53.35560249,-6.455010094,5982.1.60-C5-b12-1.351.I,26:07:20,26:07:20,31, Ringsend Road,15587.87,60-C5-b12-1,C5,b12
2229,8230DB003372,"Lucan Village, stop 3372",53.35656433,-6.448094691,5982.1.60-C5-b12-1.351.I,26:08:08,26:08:08,32, Ringsend Road,16059.48,60-C5-b12-1,C5,b12
2230,8230DB003373,"Lucan Heights, stop 3373",53.35808279,-6.441849744,5982.1.60-C5-b12-1.351.I,26:08:46,26:08:46,33, Ringsend Road,16533.07,60-C5-b12-1,C5,b12
2231,8230DB003374,"St Mary's Church, stop 3374",53.35963427,-6.439524473,5982.1.60-C5-b12-1.351.I,26:09:09,26:09:09,34, Ringsend Road,16764.42,60-C5-b12-1,C5,b12
2232,8230DB002233,"Chalet Gardens, stop 2233",53.3600895,-6.435165776,5982.1.60-C5-b12-1.351.I,26:09:38,26:09:38,35, Ringsend Road,17060.36,60-C5-b12-1,C5,b12
2233,8230DB002232,"Ballydowd Grove, stop 2232",53.35973763,-6.430956834,5982.1.60-C5-b12-1.351.I,26:10:06,26:10:06,36, Ringsend Road,17345.86,60-C5-b12-1,C5,b12
2234,8230DB002234,"Lucan Retail Park, stop 2234",53.35933655,-6.424390974,5982.1.60-C5-b12-1.351.I,26:10:50,26:10:50,37, Ringsend Road,17783.18,60-C5-b12-1,C5,b12
2235,8230DB002236,"Hermitage Bridge, stop 2236",53.35886946,-6.410856513,5982.1.60-C5-b12-1.351.I,26:12:02,26:12:02,38, Ringsend Road,18702.92,60-C5-b12-1,C5,b12
2236,8230DB005056,"Hermitage Clinic, stop 5056",53.35752149,-6.402793928,5982.1.60-C5-b12-1.351.I,26:12:46,26:12:46,39, Ringsend Road,19261.59,60-C5-b12-1,C5,b12
2237,8230DB002239,"Liffey Valley SC, stop 2239",53.35616847,-6.3917274,5982.1.60-C5-b12-1.351.I,26:14:03,26:14:03,40, Ringsend Road,20080.83,60-C5-b12-1,C5,b12
2238,8230DB002241,"Kennelsfort Road, stop 2241",53.35492926,-6.371268023,5982.1.60-C5-b12-1.351.I,26:15:41,26:15:41,41, Ringsend Road,21500.25,60-C5-b12-1,C5,b12
2239,8230DB002242,"The Oval, stop 2242",53.35392732,-6.367009818,5982.1.60-C5-b12-1.351.I,26:16:02,26:16:02,42, Ringsend Road,21805.65,60-C5-b12-1,C5,b12
2240,8220DB002243,"Glenaulin, stop 2243",53.35197438,-6.355697995,5982.1.60-C5-b12-1.351.I,26:17:26,26:17:26,43, Ringsend Road,22599.29,60-C5-b12-1,C5,b12
2241,8220DB002244,"Belgrove Park, stop 2244",53.35088435,-6.351609074,5982.1.60-C5-b12-1.351.I,26:17:57,26:17:57,44, Ringsend Road,22896.4,60-C5-b12-1,C5,b12
2242,8220DB002245,"Laurence Brook, stop 2245",53.3494632,-6.348284211,5982.1.60-C5-b12-1.351.I,26:18:23,26:18:23,45, Ringsend Road,23168.74,60-C5-b12-1,C5,b12
2243,8220DB002246,"Chapelizod, stop 2246",53.34831131,-6.343642354,5982.1.60-C5-b12-1.351.I,26:19:03,26:19:03,46, Ringsend Road,23581.76,60-C5-b12-1,C5,b12
2244,8220DB002247,"St Mary's Hospital, stop 2247",53.34675286,-6.336282916,5982.1.60-C5-b12-1.351.I,26:19:44,26:19:44,47, Ringsend Road,24118.23,60-C5-b12-1,C5,b12
2245,8220DB002248,"Military Road, stop 2248",53.34632093,-6.327888637,5982.1.60-C5-b12-1.351.I,26:20:27,26:20:27,48, Ringsend Road,24676.76,60-C5-b12-1,C5,b12
2246,8220DB002249,"Garda Boat Club, stop 2249",53.3465317,-6.321136449,5982.1.60-C5-b12-1.351.I,26:20:53,26:20:53,49, Ringsend Road,25127.94,60-C5-b12-1,C5,b12
2247,8220DB002250,"Salmon Pool, stop 2250",53.34743859,-6.31533304,5982.1.60-C5-b12-1.351.I,26:21:16,26:21:16,50, Ringsend Road,25526.81,60-C5-b12-1,C5,b12
2248,8220DB002251,"Islandbridge Gate, stop 2251",53.34813204,-6.310979792,5982.1.60-C5-b12-1.351.I,26:21:45,26:21:45,51, Ringsend Road,25825.23,60-C5-b12-1,C5,b12
2249,8220DB001472,"Conyngham Road, stop 1472",53.34842947,-6.30596617,5982.1.60-C5-b12-1.351.I,26:22:18,26:22:18,52, Ringsend Road,26159.14,60-C5-b12-1,C5,b12
2250,8220DB004408,"Phoenix House, stop 4408",53.34833336,-6.30110331,5982.1.60-C5-b12-1.351.I,26:22:40,26:22:40,53, Ringsend Road,26481.18,60-C5-b12-1,C5,b12
2251,8220DB001473,"Phoenix Park Gate, stop 1473",53.34830598,-6.298550899,5982.1.60-C5-b12-1.351.I,26:22:52,26:22:52,54, Ringsend Road,26650.63,60-C5-b12-1,C5,b12
2252,8220DB001474,"Parkgate Street, stop 1474",53.34794792,-6.292361705,5982.1.60-C5-b12-1.351.I,26:23:37,26:23:37,55, Ringsend Road,27063.01,60-C5-b12-1,C5,b12
2253,8220DB001476,"Sarsfield Quay, stop 1476",53.34707369,-6.284676275,5982.1.60-C5-b12-1.351.I,26:24:34,26:24:34,56, Ringsend Road,27591.27,60-C5-b12-1,C5,b12
2254,8220DB007854,"Arran Quay, stop 7854",53.34636761,-6.278711665,5982.1.60-C5-b12-1.351.I,26:25:28,26:25:28,57, Ringsend Road,27994.01,60-C5-b12-1,C5,b12
2255,8220DB007856,"Four Courts, stop 7856",53.34562262,-6.273184391,5982.1.60-C5-b12-1.351.I,26:26:20,26:26:20,58, Ringsend Road,28373.43,60-C5-b12-1,C5,b12
2256,8220DB007883,"Ormond Quay, stop 7883",53.346058,-6.268495617,5982.1.60-C5-b12-1.351.I,26:27:18,26:27:18,59, Ringsend Road,28692.67,60-C5-b12-1,C5,b12
2257,8220DB000315,"Bachelors Walk, stop 315",53.34702829,-6.261667155,5982.1.60-C5-b12-1.351.I,26:28:44,26:28:44,60, Ringsend Road,29162.87,60-C5-b12-1,C5,b12
2258,8220DB000340,"Townsend Street, stop 340",53.34597512,-6.256017478,5982.1.60-C5-b12-1.351.I,26:31:08,26:31:08,61, Ringsend Road,29653.59,60-C5-b12-1,C5,b12
2259,8220DB007861,"Prince's St South, stop 7861",53.34561679,-6.249348317,5982.1.60-C5-b12-1.351.I,26:32:24,26:32:24,62, Ringsend Road,30097.69,60-C5-b12-1,C5,b12
2260,8220DB000351,"Erne Street, stop 351",53.34341826,-6.245308174,5982.1.60-C5-b12-1.351.I,26:33:30,26:33:30,63, Ringsend Road,30464.26,60-C5-b12-1,C5,b12
2261,8220DB000352,"Pearse Square, stop 352",53.34298915,-6.24241214,5982.1.60-C5-b12-1.351.I,26:33:55,26:33:55,64, Ringsend Road,30665.32,60-C5-b12-1,C5,b12
2262,8220DB000353,"Grand Canal Quay, stop 353",53.34264501,-6.239798018,5982.1.60-C5-b12-1.351.I,26:34:18,26:34:18,65, Ringsend Road,30841.59,60-C5-b12-1,C5,b12
2263,8220DB000354,"Ringsend Road, stop 354",53.34223583,-6.23643569,5982.1.60-C5-b12-1.351.I,26:34:43,26:34:43,66, Ringsend Road,31069.64,60-C5-b12-1,C5,b12
2264,8260DB003999,"Cooldrinagh Terrace, stop 3999",53.36183677,-6.483482274,5982.1.60-C5-d12-1.351.I,26:04:29,26:04:29,27, Ringsend Road,13514.85,60-C5-d12-1,C5,d12
2265,8260DB004000,"Springfield Hotel, stop 4000",53.36053966,-6.478314833,5982.1.60-C5-d12-1.351.I,26:04:56,26:04:56,28, Ringsend Road,13887.04,60-C5-d12-1,C5,d12
2266,8230DB004001,"Liffey Valley Golf, stop 4001",53.35892285,-6.472062381,5982.1.60-C5-d12-1.351.I,26:05:29,26:05:29,29, Ringsend Road,14348.24,60-C5-d12-1,C5,d12
2267,8230DB003949,"Leixlip Road, stop 3949",53.35551692,-6.460211074,5982.1.60-C5-d12-1.351.I,26:06:44,26:06:44,30, Ringsend Road,15229.92,60-C5-d12-1,C5,d12
2268,8230DB003950,"Ball Alley House, stop 3950",53.35560249,-6.455010094,5982.1.60-C5-d12-1.351.I,26:07:20,26:07:20,31, Ringsend Road,15587.87,60-C5-d12-1,C5,d12
2269,8230DB003372,"Lucan Village, stop 3372",53.35656433,-6.448094691,5982.1.60-C5-d12-1.351.I,26:08:08,26:08:08,32, Ringsend Road,16059.48,60-C5-d12-1,C5,d12
2270,8230DB003373,"Lucan Heights, stop 3373",53.35808279,-6.441849744,5982.1.60-C5-d12-1.351.I,26:08:46,26:08:46,33, Ringsend Road,16533.07,60-C5-d12-1,C5,d12
2271,8230DB003374,"St Mary's Church, stop 3374",53.35963427,-6.439524473,5982.1.60-C5-d12-1.351.I,26:09:09,26:09:09,34, Ringsend Road,16764.42,60-C5-d12-1,C5,d12
2272,8230DB002233,"Chalet Gardens, stop 2233",53.3600895,-6.435165776,5982.1.60-C5-d12-1.351.I,26:09:38,26:09:38,35, Ringsend Road,17060.36,60-C5-d12-1,C5,d12
2273,8230DB002232,"Ballydowd Grove, stop 2232",53.35973763,-6.430956834,5982.1.60-C5-d12-1.351.I,26:10:06,26:10:06,36, Ringsend Road,17345.86,60-C5-d12-1,C5,d12
2274,8230DB002234,"Lucan Retail Park, stop 2234",53.35933655,-6.424390974,5982.1.60-C5-d12-1.351.I,26:10:50,26:10:50,37, Ringsend Road,17783.18,60-C5-d12-1,C5,d12
2275,8230DB002236,"Hermitage Bridge, stop 2236",53.35886946,-6.410856513,5982.1.60-C5-d12-1.351.I,26:12:02,26:12:02,38, Ringsend Road,18702.92,60-C5-d12-1,C5,d12
2276,8230DB005056,"Hermitage Clinic, stop 5056",53.35752149,-6.402793928,5982.1.60-C5-d12-1.351.I,26:12:46,26:12:46,39, Ringsend Road,19261.59,60-C5-d12-1,C5,d12
2277,8230DB002239,"Liffey Valley SC, stop 2239",53.35616847,-6.3917274,5982.1.60-C5-d12-1.351.I,26:14:03,26:14:03,40, Ringsend Road,20080.83,60-C5-d12-1,C5,d12
2278,8230DB002241,"Kennelsfort Road, stop 2241",53.35492926,-6.371268023,5982.1.60-C5-d12-1.351.I,26:15:41,26:15:41,41, Ringsend Road,21500.25,60-C5-d12-1,C5,d12
2279,8230DB002242,"The Oval, stop 2242",53.35392732,-6.367009818,5982.1.60-C5-d12-1.351.I,26:16:02,26:16:02,42, Ringsend Road,21805.65,60-C5-d12-1,C5,d12
2280,8220DB002243,"Glenaulin, stop 2243",53.35197438,-6.355697995,5982.1.60-C5-d12-1.351.I,26:17:26,26:17:26,43, Ringsend Road,22599.29,60-C5-d12-1,C5,d12
2281,8220DB002244,"Belgrove Park, stop 2244",53.35088435,-6.351609074,5982.1.60-C5-d12-1.351.I,26:17:57,26:17:57,44, Ringsend Road,22896.4,60-C5-d12-1,C5,d12
2282,8220DB002245,"Laurence Brook, stop 2245",53.3494632,-6.348284211,5982.1.60-C5-d12-1.351.I,26:18:23,26:18:23,45, Ringsend Road,23168.74,60-C5-d12-1,C5,d12
2283,8220DB002246,"Chapelizod, stop 2246",53.34831131,-6.343642354,5982.1.60-C5-d12-1.351.I,26:19:03,26:19:03,46, Ringsend Road,23581.76,60-C5-d12-1,C5,d12
2284,8220DB002247,"St Mary's Hospital, stop 2247",53.34675286,-6.336282916,5982.1.60-C5-d12-1.351.I,26:19:44,26:19:44,47, Ringsend Road,24118.23,60-C5-d12-1,C5,d12
2285,8220DB002248,"Military Road, stop 2248",53.34632093,-6.327888637,5982.1.60-C5-d12-1.351.I,26:20:27,26:20:27,48, Ringsend Road,24676.76,60-C5-d12-1,C5,d12
2286,8220DB002249,"Garda Boat Club, stop 2249",53.3465317,-6.321136449,5982.1.60-C5-d12-1.351.I,26:20:53,26:20:53,49, Ringsend Road,25127.94,60-C5-d12-1,C5,d12
2287,8220DB002250,"Salmon Pool, stop 2250",53.34743859,-6.31533304,5982.1.60-C5-d12-1.351.I,26:21:16,26:21:16,50, Ringsend Road,25526.81,60-C5-d12-1,C5,d12
2288,8220DB002251,"Islandbridge Gate, stop 2251",53.34813204,-6.310979792,5982.1.60-C5-d12-1.351.I,26:21:45,26:21:45,51, Ringsend Road,25825.23,60-C5-d12-1,C5,d12
2289,8220DB001472,"Conyngham Road, stop 1472",53.34842947,-6.30596617,5982.1.60-C5-d12-1.351.I,26:22:18,26:22:18,52, Ringsend Road,26159.14,60-C5-d12-1,C5,d12
2290,8220DB004408,"Phoenix House, stop 4408",53.34833336,-6.30110331,5982.1.60-C5-d12-1.351.I,26:22:40,26:22:40,53, Ringsend Road,26481.18,60-C5-d12-1,C5,d12
2291,8220DB001473,"Phoenix Park Gate, stop 1473",53.34830598,-6.298550899,5982.1.60-C5-d12-1.351.I,26:22:52,26:22:52,54, Ringsend Road,26650.63,60-C5-d12-1,C5,d12
2292,8220DB001474,"Parkgate Street, stop 1474",53.34794792,-6.292361705,5982.1.60-C5-d12-1.351.I,26:23:37,26:23:37,55, Ringsend Road,27063.01,60-C5-d12-1,C5,d12
2293,8220DB001476,"Sarsfield Quay, stop 1476",53.34707369,-6.284676275,5982.1.60-C5-d12-1.351.I,26:24:34,26:24:34,56, Ringsend Road,27591.27,60-C5-d12-1,C5,d12
2294,8220DB007854,"Arran Quay, stop 7854",53.34636761,-6.278711665,5982.1.60-C5-d12-1.351.I,26:25:28,26:25:28,57, Ringsend Road,27994.01,60-C5-d12-1,C5,d12
2295,8220DB007856,"Four Courts, stop 7856",53.34562262,-6.273184391,5982.1.60-C5-d12-1.351.I,26:26:20,26:26:20,58, Ringsend Road,28373.43,60-C5-d12-1,C5,d12
2296,8220DB007883,"Ormond Quay, stop 7883",53.346058,-6.268495617,5982.1.60-C5-d12-1.351.I,26:27:18,26:27:18,59, Ringsend Road,28692.67,60-C5-d12-1,C5,d12
2297,8220DB000315,"Bachelors Walk, stop 315",53.34702829,-6.261667155,5982.1.60-C5-d12-1.351.I,26:28:44,26:28:44,60, Ringsend Road,29162.87,60-C5-d12-1,C5,d12
2298,8220DB000340,"Townsend Street, stop 340",53.34597512,-6.256017478,5982.1.60-C5-d12-1.351.I,26:31:08,26:31:08,61, Ringsend Road,29653.59,60-C5-d12-1,C5,d12
2299,8220DB007861,"Prince's St South, stop 7861",53.34561679,-6.249348317,5982.1.60-C5-d12-1.351.I,26:32:24,26:32:24,62, Ringsend Road,30097.69,60-C5-d12-1,C5,d12
2300,8220DB000351,"Erne Street, stop 351",53.34341826,-6.245308174,5982.1.60-C5-d12-1.351.I,26:33:30,26:33:30,63, Ringsend Road,30464.26,60-C5-d12-1,C5,d12
2301,8220DB000352,"Pearse Square, stop 352",53.34298915,-6.24241214,5982.1.60-C5-d12-1.351.I,26:33:55,26:33:55,64, Ringsend Road,30665.32,60-C5-d12-1,C5,d12
2302,8220DB000353,"Grand Canal Quay, stop 353",53.34264501,-6.239798018,5982.1.60-C5-d12-1.351.I,26:34:18,26:34:18,65, Ringsend Road,30841.59,60-C5-d12-1,C5,d12
2303,8220DB000354,"Ringsend Road, stop 354",53.34223583,-6.23643569,5982.1.60-C5-d12-1.351.I,26:34:43,26:34:43,66, Ringsend Road,31069.64,60-C5-d12-1,C5,d12
