Index,stop_id,stop_name,stop_lat,stop_lon,trip_id,arrival_time,departure_time,stop_sequence,stop_headsign,shape_dist_traveled,route_id,customer_route_name,project_subnet
0,8230DB006290,"Adamstown Station, stop 6290",53.33626172,-6.466941256,12818.3.60-C2-b12-1.344.I,05:31:00,05:31:00,1, Sandymount,0.0,60-C2-b12-1,C2,b12
1,8230DB007892,"Adamstown Boulevard, stop 7892",53.33867825,-6.469647709,12818.3.60-C2-b12-1.344.I,05:31:12,05:31:12,2, Sandymount,401.89,60-C2-b12-1,C2,b12
2,8230DB007893,"Shackleton Park, stop 7893",53.34635025,-6.472872488,12818.3.60-C2-b12-1.344.I,05:31:37,05:31:37,3, Sandymount,4577.85,60-C2-b12-1,C2,b12
3,8230DB007955,"Shackleton Hall, stop 7955",53.34679723,-6.469176687,12818.3.60-C2-b12-1.344.I,05:31:44,05:31:44,4, Sandymount,5354.98,60-C2-b12-1,C2,b12
4,8230DB007896,Gandon Park. stop 7896,53.34660546,-6.462650016,12818.3.60-C2-b12-1.344.I,05:31:56,05:31:56,5, Sandymount,7219.73,60-C2-b12-1,C2,b12
5,8230DB007899,"Somerton Court, stop 7899",53.34526806,-6.453746703,12818.3.60-C2-b12-1.344.I,05:34:14,05:34:14,6, Sandymount,7666.65,60-C2-b12-1,C2,b12
6,8230DB003368,"Finnstown Abbey, stop 3368",53.3445579,-6.449582115,12818.3.60-C2-b12-1.344.I,05:36:08,05:36:08,7, Sandymount,7971.78,60-C2-b12-1,C2,b12
7,8230DB007762,"Haydens Lane, stop 7762",53.34299827,-6.446454801,12818.3.60-C2-b12-1.344.I,05:37:12,05:37:12,8, Sandymount,8492.3,60-C2-b12-1,C2,b12
8,8230DB007137,"Griffeen Avenue, stop 7137",53.34066969,-6.443641057,12818.3.60-C2-b12-1.344.I,05:37:56,05:37:56,9, Sandymount,8844.47,60-C2-b12-1,C2,b12
9,8230DB007139,"Rossberry Avenue, stop 7139",53.3392745,-6.437294576,12818.3.60-C2-b12-1.344.I,05:38:57,05:38:57,10, Sandymount,9312.36,60-C2-b12-1,C2,b12
10,8230DB004623,"Balgaddy Road, stop 4623",53.34041837,-6.43063002,12818.3.60-C2-b12-1.344.I,05:40:00,05:40:00,11, Sandymount,9795.44,60-C2-b12-1,C2,b12
11,8230DB004619,"Foxborough, stop 4619",53.33989448,-6.426339277,12818.3.60-C2-b12-1.344.I,05:41:02,05:41:02,12, Sandymount,10086.09,60-C2-b12-1,C2,b12
12,8230DB004561,"Foxborough Road, stop 4561",53.3417655,-6.423732333,12818.3.60-C2-b12-1.344.I,05:42:17,05:42:17,13, Sandymount,10428.78,60-C2-b12-1,C2,b12
13,8230DB004629,"Foxborough Hall, stop 4629",53.34348906,-6.422211948,12818.3.60-C2-b12-1.344.I,05:43:06,05:43:06,14, Sandymount,10678.34,60-C2-b12-1,C2,b12
14,8230DB004630,"Earlsfort, stop 4630",53.34465692,-6.41877452,12818.3.60-C2-b12-1.344.I,05:44:20,05:44:20,15, Sandymount,11049.56,60-C2-b12-1,C2,b12
15,8230DB004631,"Castle Road, stop 4631",53.34662267,-6.422651962,12818.3.60-C2-b12-1.344.I,05:45:35,05:45:35,16, Sandymount,11427.85,60-C2-b12-1,C2,b12
16,8230DB004632,"Ballyowen Road, stop 4632",53.34758571,-6.424794318,12818.3.60-C2-b12-1.344.I,05:46:18,05:46:18,17, Sandymount,11648.93,60-C2-b12-1,C2,b12
17,8230DB005164,"Fforster Green, stop 5164",53.35037673,-6.423114197,12818.3.60-C2-b12-1.344.I,05:47:22,05:47:22,18, Sandymount,11978.72,60-C2-b12-1,C2,b12
18,8230DB004633,"Ballyowen Park, stop 4633",53.35498016,-6.421877643,12818.3.60-C2-b12-1.344.I,05:49:06,05:49:06,19, Sandymount,12518.11,60-C2-b12-1,C2,b12
19,8230DB002234,"Lucan Retail Park, stop 2234",53.35933655,-6.424390974,12818.3.60-C2-b12-1.344.I,05:51:16,05:51:16,20, Sandymount,13187.56,60-C2-b12-1,C2,b12
20,8230DB002236,"Hermitage Bridge, stop 2236",53.35886946,-6.410856513,12818.3.60-C2-b12-1.344.I,05:52:41,05:52:41,21, Sandymount,14107.31,60-C2-b12-1,C2,b12
21,8230DB005056,"Hermitage Clinic, stop 5056",53.35752149,-6.402793928,12818.3.60-C2-b12-1.344.I,05:53:33,05:53:33,22, Sandymount,14665.97,60-C2-b12-1,C2,b12
22,8230DB002239,"Liffey Valley SC, stop 2239",53.35616847,-6.3917274,12818.3.60-C2-b12-1.344.I,05:54:52,05:54:52,23, Sandymount,15485.22,60-C2-b12-1,C2,b12
23,8230DB002241,"Kennelsfort Road, stop 2241",53.35492926,-6.371268023,12818.3.60-C2-b12-1.344.I,05:56:53,05:56:53,24, Sandymount,16904.63,60-C2-b12-1,C2,b12
24,8230DB002242,"The Oval, stop 2242",53.35392732,-6.367009818,12818.3.60-C2-b12-1.344.I,05:57:41,05:57:41,25, Sandymount,17210.04,60-C2-b12-1,C2,b12
25,8220DB007435,"Memorial Gardens, stop 7435",53.34317893,-6.315380836,12818.3.60-C2-b12-1.344.I,06:01:58,06:01:58,26, Sandymount,21111.67,60-C2-b12-1,C2,b12
26,8220DB002722,"South Circular Road, stop 2722",53.3434371,-6.311390663,12818.3.60-C2-b12-1.344.I,06:02:54,06:02:54,27, Sandymount,21380.22,60-C2-b12-1,C2,b12
27,8220DB004413,"Heuston Station, stop 4413",53.34615649,-6.292793782,12818.3.60-C2-b12-1.344.I,06:05:48,06:05:48,28, Sandymount,22670.06,60-C2-b12-1,C2,b12
28,8220DB001476,"Sarsfield Quay, stop 1476",53.34707369,-6.284676275,12818.3.60-C2-b12-1.344.I,06:07:17,06:07:17,29, Sandymount,23301.78,60-C2-b12-1,C2,b12
29,8220DB007854,"Arran Quay, stop 7854",53.34636761,-6.278711665,12818.3.60-C2-b12-1.344.I,06:08:52,06:08:52,30, Sandymount,23704.52,60-C2-b12-1,C2,b12
30,8220DB007856,"Four Courts, stop 7856",53.34562262,-6.273184391,12818.3.60-C2-b12-1.344.I,06:10:12,06:10:12,31, Sandymount,24083.94,60-C2-b12-1,C2,b12
31,8220DB007883,"Ormond Quay, stop 7883",53.346058,-6.268495617,12818.3.60-C2-b12-1.344.I,06:11:22,06:11:22,32, Sandymount,24403.18,60-C2-b12-1,C2,b12
32,8220DB000315,"Bachelors Walk, stop 315",53.34702829,-6.261667155,12818.3.60-C2-b12-1.344.I,06:14:06,06:14:06,33, Sandymount,24873.38,60-C2-b12-1,C2,b12
33,8220DB000340,"Townsend Street, stop 340",53.34597512,-6.256017478,12818.3.60-C2-b12-1.344.I,06:17:36,06:17:36,34, Sandymount,25364.1,60-C2-b12-1,C2,b12
34,8220DB007861,"Prince's St South, stop 7861",53.34561679,-6.249348317,12818.3.60-C2-b12-1.344.I,06:18:59,06:18:59,35, Sandymount,25808.19,60-C2-b12-1,C2,b12
35,8220DB000351,"Erne Street, stop 351",53.34341826,-6.245308174,12818.3.60-C2-b12-1.344.I,06:20:11,06:20:11,36, Sandymount,26174.77,60-C2-b12-1,C2,b12
36,8220DB000352,"Pearse Square, stop 352",53.34298915,-6.24241214,12818.3.60-C2-b12-1.344.I,06:20:48,06:20:48,37, Sandymount,26375.83,60-C2-b12-1,C2,b12
37,8220DB000353,"Grand Canal Quay, stop 353",53.34264501,-6.239798018,12818.3.60-C2-b12-1.344.I,06:21:22,06:21:22,38, Sandymount,26552.1,60-C2-b12-1,C2,b12
38,8220DB000354,"Ringsend Road, stop 354",53.34223583,-6.23643569,12818.3.60-C2-b12-1.344.I,06:22:01,06:22:01,39, Sandymount,26780.15,60-C2-b12-1,C2,b12
39,8220DB000355,"Ringsend Garage, stop 355",53.34181735,-6.233058791,12818.3.60-C2-b12-1.344.I,06:22:31,06:22:31,40, Sandymount,27010.28,60-C2-b12-1,C2,b12
40,8220DB000356,"Ringsend, stop 356",53.34190302,-6.226717443,12818.3.60-C2-b12-1.344.I,06:23:30,06:23:30,41, Sandymount,27436.84,60-C2-b12-1,C2,b12
41,8220DB000357,"Irishtown Road, stop 357",53.33917104,-6.223121475,12818.3.60-C2-b12-1.344.I,06:24:23,06:24:23,42, Sandymount,27828.12,60-C2-b12-1,C2,b12
42,8220DB000390,"Tritonville Road, stop 390",53.33762991,-6.222239479,12818.3.60-C2-b12-1.344.I,06:24:49,06:24:49,43, Sandymount,28010.65,60-C2-b12-1,C2,b12
43,8220DB000372,"Star of the Sea, stop 372",53.33548815,-6.219655671,12818.3.60-C2-b12-1.344.I,06:25:32,06:25:32,44, Sandymount,28352.16,60-C2-b12-1,C2,b12
44,8220DB000373,"Farney Park, stop 373",53.33427533,-6.217889273,12818.3.60-C2-b12-1.344.I,06:25:55,06:25:55,45, Sandymount,28530.25,60-C2-b12-1,C2,b12
45,8220DB000374,"Sandymount, stop 374",53.33322844,-6.216401342,12818.3.60-C2-b12-1.344.I,06:26:21,06:26:21,46, Sandymount,28682.93,60-C2-b12-1,C2,b12
46,8220DB007738,"Gilford Road, stop 7738",53.32919931,-6.21443745,12818.3.60-C2-b12-1.344.I,06:27:44,06:27:44,47, Sandymount,29181.76,60-C2-b12-1,C2,b12
47,8220DB007739,"Park Avenue, stop 7739",53.32662939,-6.214484728,12818.3.60-C2-b12-1.344.I,06:28:30,06:28:30,48, Sandymount,29481.44,60-C2-b12-1,C2,b12
48,8220DB007000,"St. John's Church, stop 7000",53.32445872,-6.211783067,12818.3.60-C2-b12-1.344.I,06:29:21,06:29:21,49, Sandymount,29817.48,60-C2-b12-1,C2,b12
