Index,stop_id,stop_name,stop_lat,stop_lon,trip_id,arrival_time,departure_time,stop_sequence,stop_headsign,shape_dist_traveled,route_id,customer_route_name,project_subnet
120,8220DB007844,"Point Village, stop 7844",53.34808067,-6.229930804,13353.3.60-N4-b12-1.117.O,06:40:00,06:40:00,1, Blanchardstown SC,0.0,60-N4-b12-1,N4,b12
121,8220DB002502,"New Wapping Street, stop 2502",53.34966038,-6.235242944,13353.3.60-N4-b12-1.117.O,06:41:17,06:41:17,2, Blanchardstown SC,461.4,60-N4-b12-1,N4,b12
122,8220DB004469,"East Road, stop 4469",53.35420697,-6.23029286,13353.3.60-N4-b12-1.117.O,06:42:51,06:42:51,3, Blanchardstown SC,1068.5,60-N4-b12-1,N4,b12
123,8220DB007834,"East Wall Road, stop 7834",53.35641289,-6.231763908,13353.3.60-N4-b12-1.117.O,06:43:44,06:43:44,4, Blanchardstown SC,1410.88,60-N4-b12-1,N4,b12
124,8220DB007827,"Eastpoint, stop 7827",53.35993564,-6.231723214,13353.3.60-N4-b12-1.117.O,06:45:02,06:45:02,5, Blanchardstown SC,1921.43,60-N4-b12-1,N4,b12
125,8220DB001738,"Clontarf Rd Pitches, stop 1738",53.36345088,-6.223914334,13353.3.60-N4-b12-1.117.O,06:47:25,06:47:25,6, Blanchardstown SC,2839.96,60-N4-b12-1,N4,b12
126,8220DB000525,"Howth Road, stop 525",53.36496087,-6.226330911,13353.3.60-N4-b12-1.117.O,06:48:25,06:48:25,8, Blanchardstown SC,3258.03,60-N4-b12-1,N4,b12
127,8220DB000526,"Copeland Grove, stop 526",53.36686957,-6.221112279,13353.3.60-N4-b12-1.117.O,06:49:03,06:49:03,9, Blanchardstown SC,3662.49,60-N4-b12-1,N4,b12
128,8220DB000527,"Ashbrook, stop 527",53.36801988,-6.212678881,13353.3.60-N4-b12-1.117.O,06:49:55,06:49:55,10, Blanchardstown SC,4249.34,60-N4-b12-1,N4,b12
129,8220DB000528,"Castle Grove, stop 528",53.36926408,-6.209936745,13353.3.60-N4-b12-1.117.O,06:50:13,06:50:13,11, Blanchardstown SC,4481.52,60-N4-b12-1,N4,b12
130,8220DB000529,"Collins Avenue, stop 529",53.37057741,-6.207612345,13353.3.60-N4-b12-1.117.O,06:50:47,06:50:47,12, Blanchardstown SC,4693.2,60-N4-b12-1,N4,b12
131,8220DB004791,"Collins Avenue East, stop 4791",53.37161175,-6.207659085,13353.3.60-N4-b12-1.117.O,06:51:07,06:51:07,13, Blanchardstown SC,4853.32,60-N4-b12-1,N4,b12
132,8220DB004792,"Clanawley Road, stop 4792",53.3727989,-6.209502941,13353.3.60-N4-b12-1.117.O,06:51:31,06:51:31,14, Blanchardstown SC,5039.77,60-N4-b12-1,N4,b12
133,8220DB000662,"Clanmoyle Road, stop 662",53.37387042,-6.212629275,13353.3.60-N4-b12-1.117.O,06:51:55,06:51:55,15, Blanchardstown SC,5283.05,60-N4-b12-1,N4,b12
134,8220DB007843,"Parnell Park, stop 7843",53.37451024,-6.215743752,13353.3.60-N4-b12-1.117.O,06:52:14,06:52:14,16, Blanchardstown SC,5502.52,60-N4-b12-1,N4,b12
135,8220DB007840,"Malahide Road, stop 7840",53.37512911,-6.218062593,13353.3.60-N4-b12-1.117.O,06:52:51,06:52:51,17, Blanchardstown SC,5670.1,60-N4-b12-1,N4,b12
136,8220DB001185,"Oak Road, stop 1185",53.37636701,-6.221513046,13353.3.60-N4-b12-1.117.O,06:53:46,06:53:46,18, Blanchardstown SC,5940.04,60-N4-b12-1,N4,b12
137,8220DB001186,"Belton Park Road, stop 1186",53.37764311,-6.226329938,13353.3.60-N4-b12-1.117.O,06:54:26,06:54:26,19, Blanchardstown SC,6290.42,60-N4-b12-1,N4,b12
138,8220DB001187,"Celtic Park Road, stop 1187",53.37860751,-6.231355441,13353.3.60-N4-b12-1.117.O,06:55:05,06:55:05,20, Blanchardstown SC,6640.5,60-N4-b12-1,N4,b12
139,8220DB001188,"Grace Park Heights, stop 1188",53.38001849,-6.235596083,13353.3.60-N4-b12-1.117.O,06:55:50,06:55:50,21, Blanchardstown SC,6962.45,60-N4-b12-1,N4,b12
140,8220DB007831,"Whitehall Colmcille, stop 7831",53.38116994,-6.23992287,13353.3.60-N4-b12-1.117.O,06:56:43,06:56:43,22, Blanchardstown SC,7276.79,60-N4-b12-1,N4,b12
141,8220DB000237,"Swords Road, stop 237",53.38203193,-6.2435252,13353.3.60-N4-b12-1.117.O,06:58:15,06:58:15,23, Blanchardstown SC,7533.2,60-N4-b12-1,N4,b12
142,8220DB000206,"Collins Avenue West, stop 206",53.38354609,-6.247476708,13353.3.60-N4-b12-1.117.O,06:58:55,06:58:55,24, Blanchardstown SC,7845.22,60-N4-b12-1,N4,b12
143,8220DB001643,"St Aidan's School, stop 1643",53.38480222,-6.251003095,13353.3.60-N4-b12-1.117.O,06:59:23,06:59:23,25, Blanchardstown SC,8117.54,60-N4-b12-1,N4,b12
144,8220DB001644,"DCU Collins Avenue, stop 1644",53.38687004,-6.256571206,13353.3.60-N4-b12-1.117.O,07:00:10,07:00:10,26, Blanchardstown SC,8552.9,60-N4-b12-1,N4,b12
145,8220DB001605,"Albert College Pk, stop 1605",53.38825297,-6.26079959,13353.3.60-N4-b12-1.117.O,07:00:44,07:00:44,27, Blanchardstown SC,8875.01,60-N4-b12-1,N4,b12
146,8220DB000128,"Glasnevin Avenue, stop 128",53.38926787,-6.265689723,13353.3.60-N4-b12-1.117.O,07:02:03,07:02:03,28, Blanchardstown SC,9218.42,60-N4-b12-1,N4,b12
147,8220DB000129,"Glasnevin Drive, stop 129",53.38989032,-6.271422936,13353.3.60-N4-b12-1.117.O,07:02:48,07:02:48,29, Blanchardstown SC,9607.12,60-N4-b12-1,N4,b12
148,8220DB000130,"Glasnevin Park, stop 130",53.39009201,-6.274181269,13353.3.60-N4-b12-1.117.O,07:03:10,07:03:10,30, Blanchardstown SC,9792.3,60-N4-b12-1,N4,b12
149,8220DB000131,"Willow Park Road, stop 131",53.39038589,-6.278349237,13353.3.60-N4-b12-1.117.O,07:03:40,07:03:40,31, Blanchardstown SC,10070.43,60-N4-b12-1,N4,b12
150,8220DB000132,"Beneavin Park, stop 132",53.39052074,-6.282719124,13353.3.60-N4-b12-1.117.O,07:04:13,07:04:13,32, Blanchardstown SC,10379.57,60-N4-b12-1,N4,b12
151,8220DB007832,"Grove Park Road, stop 7832",53.39041476,-6.286602536,13353.3.60-N4-b12-1.117.O,07:04:49,07:04:49,33, Blanchardstown SC,10639.59,60-N4-b12-1,N4,b12
152,8220DB007458,"Collins Drive, stop 7458",53.39006655,-6.290525706,13353.3.60-N4-b12-1.117.O,07:05:24,07:05:24,34, Blanchardstown SC,10902.88,60-N4-b12-1,N4,b12
153,8220DB007836,"Glasanaon Road, stop 7836",53.38969745,-6.294254187,13353.3.60-N4-b12-1.117.O,07:06:02,07:06:02,35, Blanchardstown SC,11152.16,60-N4-b12-1,N4,b12
154,8220DB000979,"St Canice's GNS, stop 979",53.38995381,-6.297100636,13353.3.60-N4-b12-1.117.O,07:06:30,07:06:30,36, Blanchardstown SC,11342.17,60-N4-b12-1,N4,b12
155,8220DB007845,"Finglas, stop 7845",53.39011406,-6.299514924,13353.3.60-N4-b12-1.117.O,07:07:06,07:07:06,37, Blanchardstown SC,11505.25,60-N4-b12-1,N4,b12
156,8220DB000980,"Finglas Sports Centre, stop 980",53.38980457,-6.303030463,13353.3.60-N4-b12-1.117.O,07:07:58,07:07:58,38, Blanchardstown SC,11740.69,60-N4-b12-1,N4,b12
157,8220DB000981,"Finglas Garda Stn, stop 981",53.38978091,-6.307060832,13353.3.60-N4-b12-1.117.O,07:08:40,07:08:40,39, Blanchardstown SC,12008.18,60-N4-b12-1,N4,b12
158,8220DB001576,"Cappagh Road, stop 1576",53.38931741,-6.313048125,13353.3.60-N4-b12-1.117.O,07:09:55,07:09:55,40, Blanchardstown SC,12484.8,60-N4-b12-1,N4,b12
159,8220DB001577,"Abbottstown Road, stop 1577",53.38988581,-6.315747017,13353.3.60-N4-b12-1.117.O,07:10:23,07:10:23,41, Blanchardstown SC,12675.01,60-N4-b12-1,N4,b12
160,8220DB001578,"Ratoath Drive, stop 1578",53.39038513,-6.318012677,13353.3.60-N4-b12-1.117.O,07:10:50,07:10:50,42, Blanchardstown SC,12836.78,60-N4-b12-1,N4,b12
161,8220DB004364,"Cappagh Hospital, stop 4364",53.39291139,-6.322529185,13353.3.60-N4-b12-1.117.O,07:12:06,07:12:06,43, Blanchardstown SC,13299.67,60-N4-b12-1,N4,b12
162,8240DB001579,"Heathfield Avenue, stop 1579",53.39476368,-6.326426073,13353.3.60-N4-b12-1.117.O,07:12:48,07:12:48,44, Blanchardstown SC,13648.19,60-N4-b12-1,N4,b12
163,8240DB001580,"Cappagh Cross, stop 1580",53.39790321,-6.334333152,13353.3.60-N4-b12-1.117.O,07:13:49,07:13:49,45, Blanchardstown SC,14342.5,60-N4-b12-1,N4,b12
164,8240DB007237,"Stadium Business Pk, stop 7237",53.39714127,-6.341581009,13353.3.60-N4-b12-1.117.O,07:14:45,07:14:45,46, Blanchardstown SC,14835.9,60-N4-b12-1,N4,b12
165,8240DB007241,"Barnlodge, stop 7241",53.39774486,-6.346865916,13353.3.60-N4-b12-1.117.O,07:15:13,07:15:13,47, Blanchardstown SC,15204.32,60-N4-b12-1,N4,b12
166,8240DB007247,"Ballycoolin Road, stop 7247",53.3987924,-6.351772895,13353.3.60-N4-b12-1.117.O,07:15:40,07:15:40,48, Blanchardstown SC,15552.31,60-N4-b12-1,N4,b12
167,8240DB007243,"Rosemount Bus. Park, stop 7243",53.40335258,-6.357883275,13353.3.60-N4-b12-1.117.O,07:16:38,07:16:38,49, Blanchardstown SC,16209.04,60-N4-b12-1,N4,b12
168,8240DB007334,"Indoor Arena, stop 7334",53.40137688,-6.363238105,13353.3.60-N4-b12-1.117.O,07:17:33,07:17:33,50, Blanchardstown SC,16675.65,60-N4-b12-1,N4,b12
169,8240DB006274,"Aquatic Centre, stop 6274",53.39767839,-6.371455373,13353.3.60-N4-b12-1.117.O,07:18:51,07:18:51,51, Blanchardstown SC,17361.85,60-N4-b12-1,N4,b12
170,8240DB001838,"Waterville Road, stop 1838",53.39601109,-6.373759587,13353.3.60-N4-b12-1.117.O,07:19:16,07:19:16,52, Blanchardstown SC,17603.41,60-N4-b12-1,N4,b12
171,8240DB002338,"Waterville Row, stop 2338",53.39308467,-6.377991082,13353.3.60-N4-b12-1.117.O,07:20:00,07:20:00,53, Blanchardstown SC,18031.67,60-N4-b12-1,N4,b12
172,8240DB002290,"Waterville Terrace, stop 2290",53.39187362,-6.372218293,13353.3.60-N4-b12-1.117.O,07:21:19,07:21:19,54, Blanchardstown SC,18599.72,60-N4-b12-1,N4,b12
173,8240DB006179,"Mill Road, stop 6179",53.389553,-6.370773281,13353.3.60-N4-b12-1.117.O,07:22:18,07:22:18,55, Blanchardstown SC,19030.48,60-N4-b12-1,N4,b12
174,8240DB007297,"Connolly Hospital, stop 7297",53.38801626,-6.370786867,13353.3.60-N4-b12-1.117.O,07:22:55,07:22:55,56, Blanchardstown SC,19257.25,60-N4-b12-1,N4,b12
175,8240DB001813,"Blanchardstown Vlge, stop 1813",53.38567975,-6.374108313,13353.3.60-N4-b12-1.117.O,07:26:05,07:26:05,57, Blanchardstown SC,20460.8,60-N4-b12-1,N4,b12
176,8240DB001814,"Ramor Park, stop 1814",53.38756181,-6.378997886,13353.3.60-N4-b12-1.117.O,07:26:40,07:26:40,58, Blanchardstown SC,20847.77,60-N4-b12-1,N4,b12
177,8240DB000661,"Westend Office Park, stop 661",53.39242225,-6.383489357,13353.3.60-N4-b12-1.117.O,07:28:23,07:28:23,59, Blanchardstown SC,21472.65,60-N4-b12-1,N4,b12
178,8240DB007025,"Blanchardstown SC, stop 7025",53.39399101,-6.391835296,13353.3.60-N4-b12-1.117.O,07:29:51,07:29:51,61, Blanchardstown SC,22208.07,60-N4-b12-1,N4,b12
