Index,stop_id,stop_name,stop_lat,stop_lon,trip_id,arrival_time,departure_time,stop_sequence,stop_headsign,shape_dist_traveled,route_id,customer_route_name,project_subnet
0,8240DB004747,"Blanchardstown SC, stop 4747",53.39433278,-6.391852482,13352.3.60-N4-b12-1.118.I,05:20:00,05:20:00,1, Point Village,0.0,60-N4-b12-1,N4,b12
1,8240DB002960,"Retail Park, stop 2960",53.39432332,-6.388484642,13352.3.60-N4-b12-1.118.I,05:20:39,05:20:39,2, Point Village,320.07,60-N4-b12-1,N4,b12
2,8240DB001545,"Westend Office Park, stop 1545",53.39275663,-6.384288631,13352.3.60-N4-b12-1.118.I,05:21:22,05:21:22,3, Point Village,672.29,60-N4-b12-1,N4,b12
3,8240DB001840,"Blanchardstown Vlge, stop 1840",53.38796115,-6.379283399,13352.3.60-N4-b12-1.118.I,05:22:48,05:22:48,4, Point Village,1357.54,60-N4-b12-1,N4,b12
4,8240DB001841,"Church Road, stop 1841",53.3861214,-6.375519687,13352.3.60-N4-b12-1.118.I,05:23:18,05:23:18,5, Point Village,1683.73,60-N4-b12-1,N4,b12
5,8240DB001842,"Old Navan Road, stop 1842",53.3849679,-6.37133924,13352.3.60-N4-b12-1.118.I,05:23:54,05:23:54,6, Point Village,1991.37,60-N4-b12-1,N4,b12
6,8240DB007298,"Connolly Hospital, stop 7298",53.3875691,-6.370292779,13352.3.60-N4-b12-1.118.I,05:26:12,05:26:12,7, Point Village,2920.7,60-N4-b12-1,N4,b12
7,8240DB002294,"Mill Road, stop 2294",53.39008646,-6.370346957,13352.3.60-N4-b12-1.118.I,05:27:15,05:27:15,8, Point Village,3270.95,60-N4-b12-1,N4,b12
8,8240DB006039,"Waterville Terrace, stop 6039",53.39156199,-6.375733494,13352.3.60-N4-b12-1.118.I,05:28:42,05:28:42,9, Point Village,3873.52,60-N4-b12-1,N4,b12
9,8240DB001816,"Waterville Row, stop 1816",53.39308998,-6.378381821,13352.3.60-N4-b12-1.118.I,05:29:31,05:29:31,10, Point Village,4213.15,60-N4-b12-1,N4,b12
10,8240DB006171,"Waterville Road, stop 6171",53.39601518,-6.374060176,13352.3.60-N4-b12-1.118.I,05:30:05,05:30:05,11, Point Village,4649.78,60-N4-b12-1,N4,b12
11,8240DB004974,"Aquatic Centre, stop 4974",53.39899879,-6.369419893,13352.3.60-N4-b12-1.118.I,05:30:50,05:30:50,12, Point Village,5101.16,60-N4-b12-1,N4,b12
12,8240DB004976,"Indoor Arena, stop 4976",53.40198373,-6.36226733,13352.3.60-N4-b12-1.118.I,05:31:32,05:31:32,13, Point Village,5680.76,60-N4-b12-1,N4,b12
13,8240DB002510,"Rosemount Park, stop 2510",53.40218843,-6.355581957,13352.3.60-N4-b12-1.118.I,05:32:50,05:32:50,14, Point Village,6345.15,60-N4-b12-1,N4,b12
14,8240DB007242,"Ballycoolin Road, stop 7242",53.39840857,-6.350013232,13352.3.60-N4-b12-1.118.I,05:33:36,05:33:36,15, Point Village,6922.73,60-N4-b12-1,N4,b12
15,8240DB007238,"Barnlodge, stop 7238",53.39718341,-6.344616988,13352.3.60-N4-b12-1.118.I,05:34:07,05:34:07,16, Point Village,7309.53,60-N4-b12-1,N4,b12
16,8240DB007224,"Stadium Business Pk, stop 7224",53.39781666,-6.338441892,13352.3.60-N4-b12-1.118.I,05:34:38,05:34:38,17, Point Village,7738.17,60-N4-b12-1,N4,b12
17,8240DB001581,"Cappagh Cross, stop 1581",53.39806801,-6.33390565,13352.3.60-N4-b12-1.118.I,05:34:59,05:34:59,18, Point Village,8042.6,60-N4-b12-1,N4,b12
18,8240DB001582,"Heathfield Avenue, stop 1582",53.39513353,-6.327163411,13352.3.60-N4-b12-1.118.I,05:36:07,05:36:07,19, Point Village,8722.81,60-N4-b12-1,N4,b12
19,8220DB004793,"Avila Park, stop 4793",53.39226726,-6.320825375,13352.3.60-N4-b12-1.118.I,05:36:57,05:36:57,20, Point Village,9265.79,60-N4-b12-1,N4,b12
20,8220DB006068,"Ratoath Drive, stop 6068",53.39028238,-6.317099574,13352.3.60-N4-b12-1.118.I,05:37:51,05:37:51,21, Point Village,9656.52,60-N4-b12-1,N4,b12
21,8220DB001584,"Abbottstown Road, stop 1584",53.38988546,-6.315085482,13352.3.60-N4-b12-1.118.I,05:38:14,05:38:14,22, Point Village,9797.48,60-N4-b12-1,N4,b12
22,8220DB000983,"Mellowes Road, stop 983",53.39014167,-6.310955692,13352.3.60-N4-b12-1.118.I,05:39:11,05:39:11,23, Point Village,10157.7,60-N4-b12-1,N4,b12
23,8220DB000984,"Finglas Garda Stn, stop 984",53.38991139,-6.30675495,13352.3.60-N4-b12-1.118.I,05:39:49,05:39:49,24, Point Village,10454.05,60-N4-b12-1,N4,b12
24,8220DB000985,"Finglas Sports Centre, stop 985",53.38992475,-6.303897725,13352.3.60-N4-b12-1.118.I,05:40:21,05:40:21,25, Point Village,10642.65,60-N4-b12-1,N4,b12
25,8220DB000987,"Finglas, stop 987",53.39021993,-6.299375386,13352.3.60-N4-b12-1.118.I,05:41:12,05:41:12,26, Point Village,10946.04,60-N4-b12-1,N4,b12
26,8220DB000988,"St Canice's GNS, stop 988",53.38989024,-6.295795108,13352.3.60-N4-b12-1.118.I,05:41:41,05:41:41,27, Point Village,11185.16,60-N4-b12-1,N4,b12
27,8220DB000138,"St Canice's BNS, stop 138",53.38999501,-6.291806573,13352.3.60-N4-b12-1.118.I,05:42:12,05:42:12,28, Point Village,11454.78,60-N4-b12-1,N4,b12
28,8220DB000139,"Grove Park Road, stop 139",53.39060146,-6.286459717,13352.3.60-N4-b12-1.118.I,05:42:54,05:42:54,29, Point Village,11814.85,60-N4-b12-1,N4,b12
29,8220DB000140,"Beneavin Park, stop 140",53.39063449,-6.282504047,13352.3.60-N4-b12-1.118.I,05:43:18,05:43:18,30, Point Village,12075.73,60-N4-b12-1,N4,b12
30,8220DB000141,"Willow Park Road, stop 141",53.39044509,-6.278091245,13352.3.60-N4-b12-1.118.I,05:43:50,05:43:50,31, Point Village,12388.35,60-N4-b12-1,N4,b12
31,8220DB000142,"Glasnevin Park, stop 142",53.39019829,-6.274071722,13352.3.60-N4-b12-1.118.I,05:44:19,05:44:19,32, Point Village,12654.48,60-N4-b12-1,N4,b12
32,8220DB000143,"Willow Park Avenue, stop 143",53.38987671,-6.26924337,13352.3.60-N4-b12-1.118.I,05:45:06,05:45:06,33, Point Village,12976.74,60-N4-b12-1,N4,b12
33,8240DB001645,"Collins Avenue Ext, Stop No. 1645",53.3890907,-6.264013003,13352.3.60-N4-b12-1.118.I,05:45:59,05:45:59,34, Point Village,13334.12,60-N4-b12-1,N4,b12
34,8220DB001646,"DCU Collins Avenue, stop 1646",53.38715465,-6.256980537,13352.3.60-N4-b12-1.118.I,05:47:04,05:47:04,35, Point Village,13850.56,60-N4-b12-1,N4,b12
35,8220DB000211,"Collins Avenue, stop 211",53.38428086,-6.249160331,13352.3.60-N4-b12-1.118.I,05:48:04,05:48:04,36, Point Village,14457.66,60-N4-b12-1,N4,b12
36,8220DB000212,"Whitehall, stop 212",53.38319564,-6.246258398,13352.3.60-N4-b12-1.118.I,05:48:54,05:48:54,37, Point Village,14685.68,60-N4-b12-1,N4,b12
37,8220DB007851,"Swords Road, stop 7851",53.3822515,-6.243786749,13352.3.60-N4-b12-1.118.I,05:49:38,05:49:38,38, Point Village,14881.54,60-N4-b12-1,N4,b12
38,8220DB007830,"Whitehall Colmcille, stop 7830",53.38075065,-6.237700374,13352.3.60-N4-b12-1.118.I,05:50:25,05:50:25,39, Point Village,15319.48,60-N4-b12-1,N4,b12
39,8220DB001190,"Grace Park Heights, stop 1190",53.38015612,-6.235785808,13352.3.60-N4-b12-1.118.I,05:50:40,05:50:40,40, Point Village,15461.19,60-N4-b12-1,N4,b12
40,8220DB001191,"Grace Park Meadows, stop 1191",53.37921719,-6.23307384,13352.3.60-N4-b12-1.118.I,05:50:58,05:50:58,41, Point Village,15669.76,60-N4-b12-1,N4,b12
41,8220DB001192,"Celtic Park Road, stop 1192",53.3786332,-6.230662931,13352.3.60-N4-b12-1.118.I,05:51:13,05:51:13,42, Point Village,15844.29,60-N4-b12-1,N4,b12
42,8220DB001193,"The Yard, stop 1193",53.3779922,-6.227442769,13352.3.60-N4-b12-1.118.I,05:51:32,05:51:32,43, Point Village,16069.18,60-N4-b12-1,N4,b12
43,8220DB001194,"Belton Park Road, stop 1194",53.37752621,-6.225117282,13352.3.60-N4-b12-1.118.I,05:51:46,05:51:46,44, Point Village,16231.09,60-N4-b12-1,N4,b12
44,8220DB001195,"Oak Road, stop 1195",53.37638993,-6.22124154,13352.3.60-N4-b12-1.118.I,05:52:11,05:52:11,45, Point Village,16517.05,60-N4-b12-1,N4,b12
45,8220DB007839,"Malahide Road, stop 7839",53.3752277,-6.218043446,13352.3.60-N4-b12-1.118.I,05:52:46,05:52:46,46, Point Village,16766.82,60-N4-b12-1,N4,b12
46,8220DB000674,"Parnell Park, stop 674",53.37468607,-6.216082092,13352.3.60-N4-b12-1.118.I,05:53:07,05:53:07,47, Point Village,16911.94,60-N4-b12-1,N4,b12
47,8220DB004389,"Clontarf Golf Club, stop 4389",53.37346389,-6.210692446,13352.3.60-N4-b12-1.118.I,05:53:41,05:53:41,48, Point Village,17293.71,60-N4-b12-1,N4,b12
48,8220DB004390,"Railway Bridge, stop 4390",53.37189044,-6.207662412,13352.3.60-N4-b12-1.118.I,05:54:12,05:54:12,49, Point Village,17559.83,60-N4-b12-1,N4,b12
49,8220DB000609,"Castle Grove, stop 609",53.36983754,-6.208620256,13352.3.60-N4-b12-1.118.I,05:54:45,05:54:45,50, Point Village,17889.79,60-N4-b12-1,N4,b12
50,8220DB000610,"Ashbrook, stop 610",53.3683623,-6.211537455,13352.3.60-N4-b12-1.118.I,05:55:10,05:55:10,51, Point Village,18144.91,60-N4-b12-1,N4,b12
51,8220DB000611,"Hollybrook Park, stop 611",53.36675468,-6.218832922,13352.3.60-N4-b12-1.118.I,05:55:58,05:55:58,52, Point Village,18670.6,60-N4-b12-1,N4,b12
52,8220DB000612,"Copeland Avenue, stop 612",53.36575623,-6.22420913,13352.3.60-N4-b12-1.118.I,05:56:32,05:56:32,53, Point Village,19053.94,60-N4-b12-1,N4,b12
53,8220DB000613,"Marino Crescent Park, stop 613",53.36461747,-6.226810998,13352.3.60-N4-b12-1.118.I,05:56:56,05:56:56,54, Point Village,19268.06,60-N4-b12-1,N4,b12
54,8220DB001740,"Clontarf Road, stop 1740",53.36414162,-6.226845787,13352.3.60-N4-b12-1.118.I,05:57:15,05:57:15,55, Point Village,19433.76,60-N4-b12-1,N4,b12
55,8220DB007852,"Eastpoint, stop 7852",53.35928836,-6.232320952,13352.3.60-N4-b12-1.118.I,05:59:41,05:59:41,56, Point Village,20666.99,60-N4-b12-1,N4,b12
56,8220DB002278,"East Road, stop 2278",53.3543714,-6.229865406,13352.3.60-N4-b12-1.118.I,06:01:13,06:01:13,57, Point Village,21408.05,60-N4-b12-1,N4,b12
57,8220DB002279,"Caledon Road, stop 2279",53.35294137,-6.231622199,13352.3.60-N4-b12-1.118.I,06:01:44,06:01:44,58, Point Village,21605.8,60-N4-b12-1,N4,b12
58,8220DB007842,"New Wapping Street, stop 7842",53.34833993,-6.235297491,13352.3.60-N4-b12-1.118.I,06:03:12,06:03:12,59, Point Village,22192.95,60-N4-b12-1,N4,b12
59,8220DB007844,"Point Village, stop 7844",53.34808067,-6.229930804,13352.3.60-N4-b12-1.118.I,06:04:42,06:04:42,60, Point Village,22592.12,60-N4-b12-1,N4,b12
