Index,stop_id,stop_name,stop_lat,stop_lon,trip_id,arrival_time,departure_time,stop_sequence,stop_headsign,shape_dist_traveled,route_id,customer_route_name,project_subnet
6218,8350DB004201,"Old Connaught Avenue, stop 4201",53.21112535,-6.117835856,15486.2.60-145-b12-1.330.I,23:28:06,23:28:06,15, Aston Quay,4660.63,60-145-b12-1,145,b12
6219,8250DB004202,"Woodbrook College, stop 4202",53.21600035,-6.11974851,15486.2.60-145-b12-1.330.I,23:28:56,23:28:56,16, Aston Quay,5232.14,60-145-b12-1,145,b12
6220,8250DB004203,"St James's Church, stop 4203",53.2197606,-6.120512294,15486.2.60-145-b12-1.330.I,23:29:24,23:29:24,17, Aston Quay,5657.98,60-145-b12-1,145,b12
6221,8250DB005090,"Shanganagh Cemetery, stop 5090",53.22170381,-6.121760115,15486.2.60-145-b12-1.330.I,23:29:38,23:29:38,18, Aston Quay,5893.7,60-145-b12-1,145,b12
6222,8250DB004204,"Shanganagh Castle, stop 4204",53.22332409,-6.12362126,15486.2.60-145-b12-1.330.I,23:29:50,23:29:50,19, Aston Quay,6113.34,60-145-b12-1,145,b12
6223,8250DB004205,"Crinken Lane, stop 4205",53.22453947,-6.124886148,15486.2.60-145-b12-1.330.I,23:29:59,23:29:59,20, Aston Quay,6272.1,60-145-b12-1,145,b12
6224,8250DB004206,"Claremount, stop 4206",53.22750292,-6.124711709,15486.2.60-145-b12-1.330.I,23:30:32,23:30:32,21, Aston Quay,6606.83,60-145-b12-1,145,b12
6225,8250DB003140,"Stonebridge Close, stop 3140",53.2297601,-6.124208608,15486.2.60-145-b12-1.330.I,23:30:57,23:30:57,22, Aston Quay,6868.73,60-145-b12-1,145,b12
6226,8250DB003141,"Station Road, stop 3141",53.23455658,-6.125137439,15486.2.60-145-b12-1.330.I,23:31:54,23:31:54,23, Aston Quay,7432.3,60-145-b12-1,145,b12
6227,8250DB003142,"Kentfield, stop 3142",53.2380654,-6.12763594,15486.2.60-145-b12-1.330.I,23:32:29,23:32:29,24, Aston Quay,7863.69,60-145-b12-1,145,b12
6228,8250DB003143,"St Columcille's Hosp, stop 3143",53.24269051,-6.130820383,15486.2.60-145-b12-1.330.I,23:33:20,23:33:20,25, Aston Quay,8478.67,60-145-b12-1,145,b12
6229,8250DB003144,"Cherrywood Road, stop 3144",53.24569052,-6.135275018,15486.2.60-145-b12-1.330.I,23:33:52,23:33:52,26, Aston Quay,8930.37,60-145-b12-1,145,b12
6230,8250DB003145,"Willow Court, stop 3145",53.24792099,-6.13823511,15486.2.60-145-b12-1.330.I,23:34:13,23:34:13,27, Aston Quay,9247.7,60-145-b12-1,145,b12
6231,8250DB003146,"St Laurence College, stop 3146",53.25084385,-6.14179493,15486.2.60-145-b12-1.330.I,23:34:45,23:34:45,28, Aston Quay,9649.17,60-145-b12-1,145,b12
6232,8250DB003147,"Kilbogget Grove, stop 3147",53.25526992,-6.145500025,15486.2.60-145-b12-1.330.I,23:35:19,23:35:19,29, Aston Quay,10198.15,60-145-b12-1,145,b12
6233,8250DB003148,"Shrewsbury Lawn, stop 3148",53.25873662,-6.146474241,15486.2.60-145-b12-1.330.I,23:35:42,23:35:42,30, Aston Quay,10590.0,60-145-b12-1,145,b12
6234,8250DB005127,"Cabinteely Bypass, stop 5127",53.2620156,-6.150409883,15486.2.60-145-b12-1.330.I,23:36:18,23:36:18,31, Aston Quay,11055.81,60-145-b12-1,145,b12
6235,8250DB005128,"Clonkeen Road, stop 5128",53.2655267,-6.157739276,15486.2.60-145-b12-1.330.I,23:37:00,23:37:00,32, Aston Quay,11680.16,60-145-b12-1,145,b12
6236,8250DB002996,"Old Bray Road, stop 2996",53.27076364,-6.167439907,15486.2.60-145-b12-1.330.I,23:38:03,23:38:03,33, Aston Quay,12553.35,60-145-b12-1,145,b12
6237,8250DB003258,"Westminister Grove, stop 3258",53.27254116,-6.171982112,15486.2.60-145-b12-1.330.I,23:38:29,23:38:29,34, Aston Quay,12914.75,60-145-b12-1,145,b12
6238,8250DB002060,"Foxrock Church, stop 2060",53.27395494,-6.175085679,15486.2.60-145-b12-1.330.I,23:38:49,23:38:49,35, Aston Quay,13178.87,60-145-b12-1,145,b12
6239,8250DB002061,"Knocksinna, stop 2061",53.2757586,-6.18018225,15486.2.60-145-b12-1.330.I,23:39:21,23:39:21,36, Aston Quay,13573.96,60-145-b12-1,145,b12
6240,8250DB002062,"Newtownpark Avenue, stop 2062",53.27902411,-6.186851925,15486.2.60-145-b12-1.330.I,23:40:10,23:40:10,37, Aston Quay,14151.39,60-145-b12-1,145,b12
6241,8250DB002063,"Galloping Green, stop 2063",53.28029401,-6.189977519,15486.2.60-145-b12-1.330.I,23:40:33,23:40:33,38, Aston Quay,14402.42,60-145-b12-1,145,b12
6242,8250DB002064,"Brewery Road, stop 2064",53.28272564,-6.193849161,15486.2.60-145-b12-1.330.I,23:41:08,23:41:08,39, Aston Quay,14780.71,60-145-b12-1,145,b12
6243,8250DB002065,"Merville Road, stop 2065",53.28479921,-6.19485659,15486.2.60-145-b12-1.330.I,23:41:25,23:41:25,40, Aston Quay,15019.62,60-145-b12-1,145,b12
6244,8250DB004727,"Laurence Park, stop 4727",53.29081171,-6.19778321,15486.2.60-145-b12-1.330.I,23:42:30,23:42:30,41, Aston Quay,15759.35,60-145-b12-1,145,b12
6245,8250DB004728,"Oatlands College, stop 4728",53.29333789,-6.201982289,15486.2.60-145-b12-1.330.I,23:43:05,23:43:05,42, Aston Quay,16155.36,60-145-b12-1,145,b12
6246,8250DB000461,"Stillorgan Pk Hotel, stop 461",53.2947995,-6.203541111,15486.2.60-145-b12-1.330.I,23:43:22,23:43:22,43, Aston Quay,16345.37,60-145-b12-1,145,b12
6247,8250DB002068,"Greenfield Road, stop 2068",53.29809576,-6.204573003,15486.2.60-145-b12-1.330.I,23:43:49,23:43:49,44, Aston Quay,16717.81,60-145-b12-1,145,b12
6248,8250DB002069,"Booterstown Avenue, stop 2069",53.29977469,-6.205642853,15486.2.60-145-b12-1.330.I,23:44:15,23:44:15,45, Aston Quay,16917.78,60-145-b12-1,145,b12
6249,8250DB002070,"St Thomas Road, stop 2070",53.30306607,-6.208145702,15486.2.60-145-b12-1.330.I,23:44:49,23:44:49,46, Aston Quay,17326.92,60-145-b12-1,145,b12
6250,8250DB002084,"Seafield Road, stop 2084",53.30552676,-6.21159902,15486.2.60-145-b12-1.330.I,23:45:16,23:45:16,47, Aston Quay,17683.85,60-145-b12-1,145,b12
6251,8250DB000768,"UCD Belfield, stop 768",53.30941819,-6.21877483,15486.2.60-145-b12-1.330.I,23:46:05,23:46:05,48, Aston Quay,18332.61,60-145-b12-1,145,b12
6252,8220DB000769,"Belfield Court, stop 769",53.31190109,-6.221327857,15486.2.60-145-b12-1.330.I,23:46:21,23:46:21,49, Aston Quay,18660.17,60-145-b12-1,145,b12
6253,8220DB000770,"RTE, stop 770",53.31463619,-6.225731811,15486.2.60-145-b12-1.330.I,23:46:52,23:46:52,50, Aston Quay,19103.19,60-145-b12-1,145,b12
6254,8220DB000771,"Teresian School, stop 771",53.31588007,-6.227781522,15486.2.60-145-b12-1.330.I,23:47:05,23:47:05,51, Aston Quay,19294.0,60-145-b12-1,145,b12
6255,8220DB000772,"Donnybrook Garage, stop 772",53.31848526,-6.231321064,15486.2.60-145-b12-1.330.I,23:47:30,23:47:30,52, Aston Quay,19667.55,60-145-b12-1,145,b12
6256,8220DB000773,"Donnybrook Road, stop 773",53.31991635,-6.233273319,15486.2.60-145-b12-1.330.I,23:47:48,23:47:48,53, Aston Quay,19870.88,60-145-b12-1,145,b12
6257,8220DB000774,"Donnybrook Garda Stn, stop 774",53.32161212,-6.235499996,15486.2.60-145-b12-1.330.I,23:48:09,23:48:09,54, Aston Quay,20112.76,60-145-b12-1,145,b12
6258,8220DB000775,"Donnybrook Village, stop 775",53.32348971,-6.239085447,15486.2.60-145-b12-1.330.I,23:48:37,23:48:37,55, Aston Quay,20436.6,60-145-b12-1,145,b12
6259,8220DB000776,"Morehampton Terrace, stop 776",53.32547924,-6.241735821,15486.2.60-145-b12-1.330.I,23:49:01,23:49:01,56, Aston Quay,20719.48,60-145-b12-1,145,b12
6260,8220DB000777,"Royal Hospital, stop 777",53.32697216,-6.243626144,15486.2.60-145-b12-1.330.I,23:49:19,23:49:19,57, Aston Quay,20927.81,60-145-b12-1,145,b12
6261,8220DB000906,"Leeson St Upper, stop 906",53.32881077,-6.247634377,15486.2.60-145-b12-1.330.I,23:49:49,23:49:49,58, Aston Quay,21268.54,60-145-b12-1,145,b12
6262,8220DB000907,"Dartmouth Road, stop 907",53.32971936,-6.250750109,15486.2.60-145-b12-1.330.I,23:50:10,23:50:10,59, Aston Quay,21501.82,60-145-b12-1,145,b12
6263,8220DB000908,"Grand Parade, stop 908",53.33115429,-6.252373034,15486.2.60-145-b12-1.330.I,23:50:28,23:50:28,60, Aston Quay,21695.7,60-145-b12-1,145,b12
6264,8220DB000909,"Fitzwilliam Place, stop 909",53.33314766,-6.254078364,15486.2.60-145-b12-1.330.I,23:50:51,23:50:51,61, Aston Quay,21949.13,60-145-b12-1,145,b12
6265,8220DB000786,"Embassy of Malta, stop 786",53.33518155,-6.256097534,15486.2.60-145-b12-1.330.I,23:51:15,23:51:15,62, Aston Quay,22210.37,60-145-b12-1,145,b12
6266,8220DB000792,"Dawson Street, stop 792",53.34044899,-6.258585808,15486.2.60-145-b12-1.330.I,23:53:01,23:53:01,63, Aston Quay,22967.73,60-145-b12-1,145,b12
6267,8220DB007586,"National Gallery, stop 7586",53.34197047,-6.253222288,15486.2.60-145-b12-1.330.I,23:54:35,23:54:35,64, Aston Quay,23509.67,60-145-b12-1,145,b12
6268,8220DB007587,"Science Gallery, stop 7587",53.34445793,-6.25122816,15486.2.60-145-b12-1.330.I,23:56:11,23:56:11,65, Aston Quay,24066.5,60-145-b12-1,145,b12
6269,8220DB007588,"Pearse Street, stop 7588",53.34498499,-6.254075317,15486.2.60-145-b12-1.330.I,23:56:44,23:56:44,66, Aston Quay,24264.89,60-145-b12-1,145,b12
6270,8220DB000325,"Aston Quay, stop 325",53.34669705,-6.25990826,15486.2.60-145-b12-1.330.I,23:58:27,23:58:27,67, Aston Quay,24917.2,60-145-b12-1,145,b12
6271,8350DB004201,"Old Connaught Avenue, stop 4201",53.21112535,-6.117835856,15486.2.60-145-d12-1.330.I,23:28:06,23:28:06,15, Aston Quay,4660.63,60-145-d12-1,145,d12
6272,8250DB004202,"Woodbrook College, stop 4202",53.21600035,-6.11974851,15486.2.60-145-d12-1.330.I,23:28:56,23:28:56,16, Aston Quay,5232.14,60-145-d12-1,145,d12
6273,8250DB004203,"St James's Church, stop 4203",53.2197606,-6.120512294,15486.2.60-145-d12-1.330.I,23:29:24,23:29:24,17, Aston Quay,5657.98,60-145-d12-1,145,d12
6274,8250DB005090,"Shanganagh Cemetery, stop 5090",53.22170381,-6.121760115,15486.2.60-145-d12-1.330.I,23:29:38,23:29:38,18, Aston Quay,5893.7,60-145-d12-1,145,d12
6275,8250DB004204,"Shanganagh Castle, stop 4204",53.22332409,-6.12362126,15486.2.60-145-d12-1.330.I,23:29:50,23:29:50,19, Aston Quay,6113.34,60-145-d12-1,145,d12
6276,8250DB004205,"Crinken Lane, stop 4205",53.22453947,-6.124886148,15486.2.60-145-d12-1.330.I,23:29:59,23:29:59,20, Aston Quay,6272.1,60-145-d12-1,145,d12
6277,8250DB004206,"Claremount, stop 4206",53.22750292,-6.124711709,15486.2.60-145-d12-1.330.I,23:30:32,23:30:32,21, Aston Quay,6606.83,60-145-d12-1,145,d12
6278,8250DB003140,"Stonebridge Close, stop 3140",53.2297601,-6.124208608,15486.2.60-145-d12-1.330.I,23:30:57,23:30:57,22, Aston Quay,6868.73,60-145-d12-1,145,d12
6279,8250DB003141,"Station Road, stop 3141",53.23455658,-6.125137439,15486.2.60-145-d12-1.330.I,23:31:54,23:31:54,23, Aston Quay,7432.3,60-145-d12-1,145,d12
6280,8250DB003142,"Kentfield, stop 3142",53.2380654,-6.12763594,15486.2.60-145-d12-1.330.I,23:32:29,23:32:29,24, Aston Quay,7863.69,60-145-d12-1,145,d12
6281,8250DB003143,"St Columcille's Hosp, stop 3143",53.24269051,-6.130820383,15486.2.60-145-d12-1.330.I,23:33:20,23:33:20,25, Aston Quay,8478.67,60-145-d12-1,145,d12
6282,8250DB003144,"Cherrywood Road, stop 3144",53.24569052,-6.135275018,15486.2.60-145-d12-1.330.I,23:33:52,23:33:52,26, Aston Quay,8930.37,60-145-d12-1,145,d12
6283,8250DB003145,"Willow Court, stop 3145",53.24792099,-6.13823511,15486.2.60-145-d12-1.330.I,23:34:13,23:34:13,27, Aston Quay,9247.7,60-145-d12-1,145,d12
6284,8250DB003146,"St Laurence College, stop 3146",53.25084385,-6.14179493,15486.2.60-145-d12-1.330.I,23:34:45,23:34:45,28, Aston Quay,9649.17,60-145-d12-1,145,d12
6285,8250DB003147,"Kilbogget Grove, stop 3147",53.25526992,-6.145500025,15486.2.60-145-d12-1.330.I,23:35:19,23:35:19,29, Aston Quay,10198.15,60-145-d12-1,145,d12
6286,8250DB003148,"Shrewsbury Lawn, stop 3148",53.25873662,-6.146474241,15486.2.60-145-d12-1.330.I,23:35:42,23:35:42,30, Aston Quay,10590.0,60-145-d12-1,145,d12
6287,8250DB005127,"Cabinteely Bypass, stop 5127",53.2620156,-6.150409883,15486.2.60-145-d12-1.330.I,23:36:18,23:36:18,31, Aston Quay,11055.81,60-145-d12-1,145,d12
6288,8250DB005128,"Clonkeen Road, stop 5128",53.2655267,-6.157739276,15486.2.60-145-d12-1.330.I,23:37:00,23:37:00,32, Aston Quay,11680.16,60-145-d12-1,145,d12
6289,8250DB002996,"Old Bray Road, stop 2996",53.27076364,-6.167439907,15486.2.60-145-d12-1.330.I,23:38:03,23:38:03,33, Aston Quay,12553.35,60-145-d12-1,145,d12
6290,8250DB003258,"Westminister Grove, stop 3258",53.27254116,-6.171982112,15486.2.60-145-d12-1.330.I,23:38:29,23:38:29,34, Aston Quay,12914.75,60-145-d12-1,145,d12
6291,8250DB002060,"Foxrock Church, stop 2060",53.27395494,-6.175085679,15486.2.60-145-d12-1.330.I,23:38:49,23:38:49,35, Aston Quay,13178.87,60-145-d12-1,145,d12
6292,8250DB002061,"Knocksinna, stop 2061",53.2757586,-6.18018225,15486.2.60-145-d12-1.330.I,23:39:21,23:39:21,36, Aston Quay,13573.96,60-145-d12-1,145,d12
6293,8250DB002062,"Newtownpark Avenue, stop 2062",53.27902411,-6.186851925,15486.2.60-145-d12-1.330.I,23:40:10,23:40:10,37, Aston Quay,14151.39,60-145-d12-1,145,d12
6294,8250DB002063,"Galloping Green, stop 2063",53.28029401,-6.189977519,15486.2.60-145-d12-1.330.I,23:40:33,23:40:33,38, Aston Quay,14402.42,60-145-d12-1,145,d12
6295,8250DB002064,"Brewery Road, stop 2064",53.28272564,-6.193849161,15486.2.60-145-d12-1.330.I,23:41:08,23:41:08,39, Aston Quay,14780.71,60-145-d12-1,145,d12
6296,8250DB002065,"Merville Road, stop 2065",53.28479921,-6.19485659,15486.2.60-145-d12-1.330.I,23:41:25,23:41:25,40, Aston Quay,15019.62,60-145-d12-1,145,d12
6297,8250DB004727,"Laurence Park, stop 4727",53.29081171,-6.19778321,15486.2.60-145-d12-1.330.I,23:42:30,23:42:30,41, Aston Quay,15759.35,60-145-d12-1,145,d12
6298,8250DB004728,"Oatlands College, stop 4728",53.29333789,-6.201982289,15486.2.60-145-d12-1.330.I,23:43:05,23:43:05,42, Aston Quay,16155.36,60-145-d12-1,145,d12
6299,8250DB000461,"Stillorgan Pk Hotel, stop 461",53.2947995,-6.203541111,15486.2.60-145-d12-1.330.I,23:43:22,23:43:22,43, Aston Quay,16345.37,60-145-d12-1,145,d12
6300,8250DB002068,"Greenfield Road, stop 2068",53.29809576,-6.204573003,15486.2.60-145-d12-1.330.I,23:43:49,23:43:49,44, Aston Quay,16717.81,60-145-d12-1,145,d12
6301,8250DB002069,"Booterstown Avenue, stop 2069",53.29977469,-6.205642853,15486.2.60-145-d12-1.330.I,23:44:15,23:44:15,45, Aston Quay,16917.78,60-145-d12-1,145,d12
6302,8250DB002070,"St Thomas Road, stop 2070",53.30306607,-6.208145702,15486.2.60-145-d12-1.330.I,23:44:49,23:44:49,46, Aston Quay,17326.92,60-145-d12-1,145,d12
6303,8250DB002084,"Seafield Road, stop 2084",53.30552676,-6.21159902,15486.2.60-145-d12-1.330.I,23:45:16,23:45:16,47, Aston Quay,17683.85,60-145-d12-1,145,d12
6304,8250DB000768,"UCD Belfield, stop 768",53.30941819,-6.21877483,15486.2.60-145-d12-1.330.I,23:46:05,23:46:05,48, Aston Quay,18332.61,60-145-d12-1,145,d12
6305,8220DB000769,"Belfield Court, stop 769",53.31190109,-6.221327857,15486.2.60-145-d12-1.330.I,23:46:21,23:46:21,49, Aston Quay,18660.17,60-145-d12-1,145,d12
6306,8220DB000770,"RTE, stop 770",53.31463619,-6.225731811,15486.2.60-145-d12-1.330.I,23:46:52,23:46:52,50, Aston Quay,19103.19,60-145-d12-1,145,d12
6307,8220DB000771,"Teresian School, stop 771",53.31588007,-6.227781522,15486.2.60-145-d12-1.330.I,23:47:05,23:47:05,51, Aston Quay,19294.0,60-145-d12-1,145,d12
6308,8220DB000772,"Donnybrook Garage, stop 772",53.31848526,-6.231321064,15486.2.60-145-d12-1.330.I,23:47:30,23:47:30,52, Aston Quay,19667.55,60-145-d12-1,145,d12
6309,8220DB000773,"Donnybrook Road, stop 773",53.31991635,-6.233273319,15486.2.60-145-d12-1.330.I,23:47:48,23:47:48,53, Aston Quay,19870.88,60-145-d12-1,145,d12
6310,8220DB000774,"Donnybrook Garda Stn, stop 774",53.32161212,-6.235499996,15486.2.60-145-d12-1.330.I,23:48:09,23:48:09,54, Aston Quay,20112.76,60-145-d12-1,145,d12
6311,8220DB000775,"Donnybrook Village, stop 775",53.32348971,-6.239085447,15486.2.60-145-d12-1.330.I,23:48:37,23:48:37,55, Aston Quay,20436.6,60-145-d12-1,145,d12
6312,8220DB000776,"Morehampton Terrace, stop 776",53.32547924,-6.241735821,15486.2.60-145-d12-1.330.I,23:49:01,23:49:01,56, Aston Quay,20719.48,60-145-d12-1,145,d12
6313,8220DB000777,"Royal Hospital, stop 777",53.32697216,-6.243626144,15486.2.60-145-d12-1.330.I,23:49:19,23:49:19,57, Aston Quay,20927.81,60-145-d12-1,145,d12
6314,8220DB000906,"Leeson St Upper, stop 906",53.32881077,-6.247634377,15486.2.60-145-d12-1.330.I,23:49:49,23:49:49,58, Aston Quay,21268.54,60-145-d12-1,145,d12
6315,8220DB000907,"Dartmouth Road, stop 907",53.32971936,-6.250750109,15486.2.60-145-d12-1.330.I,23:50:10,23:50:10,59, Aston Quay,21501.82,60-145-d12-1,145,d12
6316,8220DB000908,"Grand Parade, stop 908",53.33115429,-6.252373034,15486.2.60-145-d12-1.330.I,23:50:28,23:50:28,60, Aston Quay,21695.7,60-145-d12-1,145,d12
6317,8220DB000909,"Fitzwilliam Place, stop 909",53.33314766,-6.254078364,15486.2.60-145-d12-1.330.I,23:50:51,23:50:51,61, Aston Quay,21949.13,60-145-d12-1,145,d12
6318,8220DB000786,"Embassy of Malta, stop 786",53.33518155,-6.256097534,15486.2.60-145-d12-1.330.I,23:51:15,23:51:15,62, Aston Quay,22210.37,60-145-d12-1,145,d12
6319,8220DB000792,"Dawson Street, stop 792",53.34044899,-6.258585808,15486.2.60-145-d12-1.330.I,23:53:01,23:53:01,63, Aston Quay,22967.73,60-145-d12-1,145,d12
6320,8220DB007586,"National Gallery, stop 7586",53.34197047,-6.253222288,15486.2.60-145-d12-1.330.I,23:54:35,23:54:35,64, Aston Quay,23509.67,60-145-d12-1,145,d12
6321,8220DB007587,"Science Gallery, stop 7587",53.34445793,-6.25122816,15486.2.60-145-d12-1.330.I,23:56:11,23:56:11,65, Aston Quay,24066.5,60-145-d12-1,145,d12
6322,8220DB007588,"Pearse Street, stop 7588",53.34498499,-6.254075317,15486.2.60-145-d12-1.330.I,23:56:44,23:56:44,66, Aston Quay,24264.89,60-145-d12-1,145,d12
6323,8220DB000325,"Aston Quay, stop 325",53.34669705,-6.25990826,15486.2.60-145-d12-1.330.I,23:58:27,23:58:27,67, Aston Quay,24917.2,60-145-d12-1,145,d12
11296,8350DB004201,"Old Connaught Avenue, stop 4201",53.21112535,-6.117835856,1614.1.60-145-b12-1.330.I,23:08:33,23:08:33,15, Aston Quay,4660.63,60-145-b12-1,145,b12
11297,8250DB004202,"Woodbrook College, stop 4202",53.21600035,-6.11974851,1614.1.60-145-b12-1.330.I,23:09:20,23:09:20,16, Aston Quay,5232.14,60-145-b12-1,145,b12
11298,8250DB004203,"St James's Church, stop 4203",53.2197606,-6.120512294,1614.1.60-145-b12-1.330.I,23:09:57,23:09:57,17, Aston Quay,5657.98,60-145-b12-1,145,b12
11299,8250DB005090,"Shanganagh Cemetery, stop 5090",53.22170381,-6.121760115,1614.1.60-145-b12-1.330.I,23:10:11,23:10:11,18, Aston Quay,5893.7,60-145-b12-1,145,b12
11300,8250DB004204,"Shanganagh Castle, stop 4204",53.22332409,-6.12362126,1614.1.60-145-b12-1.330.I,23:10:24,23:10:24,19, Aston Quay,6113.34,60-145-b12-1,145,b12
11301,8250DB004205,"Crinken Lane, stop 4205",53.22453947,-6.124886148,1614.1.60-145-b12-1.330.I,23:10:34,23:10:34,20, Aston Quay,6272.1,60-145-b12-1,145,b12
11302,8250DB004206,"Claremount, stop 4206",53.22750292,-6.124711709,1614.1.60-145-b12-1.330.I,23:11:11,23:11:11,21, Aston Quay,6606.83,60-145-b12-1,145,b12
11303,8250DB003140,"Stonebridge Close, stop 3140",53.2297601,-6.124208608,1614.1.60-145-b12-1.330.I,23:11:40,23:11:40,22, Aston Quay,6868.73,60-145-b12-1,145,b12
11304,8250DB003141,"Station Road, stop 3141",53.23455658,-6.125137439,1614.1.60-145-b12-1.330.I,23:12:30,23:12:30,23, Aston Quay,7432.3,60-145-b12-1,145,b12
11305,8250DB003142,"Kentfield, stop 3142",53.2380654,-6.12763594,1614.1.60-145-b12-1.330.I,23:13:05,23:13:05,24, Aston Quay,7863.69,60-145-b12-1,145,b12
11306,8250DB003143,"St Columcille's Hosp, stop 3143",53.24269051,-6.130820383,1614.1.60-145-b12-1.330.I,23:13:55,23:13:55,25, Aston Quay,8478.67,60-145-b12-1,145,b12
11307,8250DB003144,"Cherrywood Road, stop 3144",53.24569052,-6.135275018,1614.1.60-145-b12-1.330.I,23:14:28,23:14:28,26, Aston Quay,8930.37,60-145-b12-1,145,b12
11308,8250DB003145,"Willow Court, stop 3145",53.24792099,-6.13823511,1614.1.60-145-b12-1.330.I,23:14:49,23:14:49,27, Aston Quay,9247.7,60-145-b12-1,145,b12
11309,8250DB003146,"St Laurence College, stop 3146",53.25084385,-6.14179493,1614.1.60-145-b12-1.330.I,23:15:17,23:15:17,28, Aston Quay,9649.17,60-145-b12-1,145,b12
11310,8250DB003147,"Kilbogget Grove, stop 3147",53.25526992,-6.145500025,1614.1.60-145-b12-1.330.I,23:15:54,23:15:54,29, Aston Quay,10198.15,60-145-b12-1,145,b12
11311,8250DB003148,"Shrewsbury Lawn, stop 3148",53.25873662,-6.146474241,1614.1.60-145-b12-1.330.I,23:16:20,23:16:20,30, Aston Quay,10590.0,60-145-b12-1,145,b12
11312,8250DB005127,"Cabinteely Bypass, stop 5127",53.2620156,-6.150409883,1614.1.60-145-b12-1.330.I,23:16:53,23:16:53,31, Aston Quay,11055.81,60-145-b12-1,145,b12
11313,8250DB005128,"Clonkeen Road, stop 5128",53.2655267,-6.157739276,1614.1.60-145-b12-1.330.I,23:17:36,23:17:36,32, Aston Quay,11680.16,60-145-b12-1,145,b12
11314,8250DB002996,"Old Bray Road, stop 2996",53.27076364,-6.167439907,1614.1.60-145-b12-1.330.I,23:18:45,23:18:45,33, Aston Quay,12553.35,60-145-b12-1,145,b12
11315,8250DB003258,"Westminister Grove, stop 3258",53.27254116,-6.171982112,1614.1.60-145-b12-1.330.I,23:19:14,23:19:14,34, Aston Quay,12914.75,60-145-b12-1,145,b12
11316,8250DB002060,"Foxrock Church, stop 2060",53.27395494,-6.175085679,1614.1.60-145-b12-1.330.I,23:19:35,23:19:35,35, Aston Quay,13178.87,60-145-b12-1,145,b12
11317,8250DB002061,"Knocksinna, stop 2061",53.2757586,-6.18018225,1614.1.60-145-b12-1.330.I,23:20:06,23:20:06,36, Aston Quay,13573.96,60-145-b12-1,145,b12
11318,8250DB002062,"Newtownpark Avenue, stop 2062",53.27902411,-6.186851925,1614.1.60-145-b12-1.330.I,23:20:53,23:20:53,37, Aston Quay,14151.39,60-145-b12-1,145,b12
11319,8250DB002063,"Galloping Green, stop 2063",53.28029401,-6.189977519,1614.1.60-145-b12-1.330.I,23:21:16,23:21:16,38, Aston Quay,14402.42,60-145-b12-1,145,b12
11320,8250DB002064,"Brewery Road, stop 2064",53.28272564,-6.193849161,1614.1.60-145-b12-1.330.I,23:21:52,23:21:52,39, Aston Quay,14780.71,60-145-b12-1,145,b12
11321,8250DB002065,"Merville Road, stop 2065",53.28479921,-6.19485659,1614.1.60-145-b12-1.330.I,23:22:07,23:22:07,40, Aston Quay,15019.62,60-145-b12-1,145,b12
11322,8250DB004727,"Laurence Park, stop 4727",53.29081171,-6.19778321,1614.1.60-145-b12-1.330.I,23:23:10,23:23:10,41, Aston Quay,15759.35,60-145-b12-1,145,b12
11323,8250DB004728,"Oatlands College, stop 4728",53.29333789,-6.201982289,1614.1.60-145-b12-1.330.I,23:23:44,23:23:44,42, Aston Quay,16155.36,60-145-b12-1,145,b12
11324,8250DB000461,"Stillorgan Pk Hotel, stop 461",53.2947995,-6.203541111,1614.1.60-145-b12-1.330.I,23:24:00,23:24:00,43, Aston Quay,16345.37,60-145-b12-1,145,b12
11325,8250DB002068,"Greenfield Road, stop 2068",53.29809576,-6.204573003,1614.1.60-145-b12-1.330.I,23:24:26,23:24:26,44, Aston Quay,16717.81,60-145-b12-1,145,b12
11326,8250DB002069,"Booterstown Avenue, stop 2069",53.29977469,-6.205642853,1614.1.60-145-b12-1.330.I,23:24:40,23:24:40,45, Aston Quay,16917.78,60-145-b12-1,145,b12
11327,8250DB002070,"St Thomas Road, stop 2070",53.30306607,-6.208145702,1614.1.60-145-b12-1.330.I,23:25:16,23:25:16,46, Aston Quay,17326.92,60-145-b12-1,145,b12
11328,8250DB002084,"Seafield Road, stop 2084",53.30552676,-6.21159902,1614.1.60-145-b12-1.330.I,23:25:51,23:25:51,47, Aston Quay,17683.85,60-145-b12-1,145,b12
11329,8250DB000768,"UCD Belfield, stop 768",53.30941819,-6.21877483,1614.1.60-145-b12-1.330.I,23:26:57,23:26:57,48, Aston Quay,18332.61,60-145-b12-1,145,b12
11330,8220DB000769,"Belfield Court, stop 769",53.31190109,-6.221327857,1614.1.60-145-b12-1.330.I,23:27:19,23:27:19,49, Aston Quay,18660.17,60-145-b12-1,145,b12
11331,8220DB000770,"RTE, stop 770",53.31463619,-6.225731811,1614.1.60-145-b12-1.330.I,23:27:51,23:27:51,50, Aston Quay,19103.19,60-145-b12-1,145,b12
11332,8220DB000771,"Teresian School, stop 771",53.31588007,-6.227781522,1614.1.60-145-b12-1.330.I,23:28:04,23:28:04,51, Aston Quay,19294.0,60-145-b12-1,145,b12
11333,8220DB000772,"Donnybrook Garage, stop 772",53.31848526,-6.231321064,1614.1.60-145-b12-1.330.I,23:28:31,23:28:31,52, Aston Quay,19667.55,60-145-b12-1,145,b12
11334,8220DB000773,"Donnybrook Road, stop 773",53.31991635,-6.233273319,1614.1.60-145-b12-1.330.I,23:28:53,23:28:53,53, Aston Quay,19870.88,60-145-b12-1,145,b12
11335,8220DB000774,"Donnybrook Garda Stn, stop 774",53.32161212,-6.235499996,1614.1.60-145-b12-1.330.I,23:29:20,23:29:20,54, Aston Quay,20112.76,60-145-b12-1,145,b12
11336,8220DB000775,"Donnybrook Village, stop 775",53.32348971,-6.239085447,1614.1.60-145-b12-1.330.I,23:29:56,23:29:56,55, Aston Quay,20436.6,60-145-b12-1,145,b12
11337,8220DB000776,"Morehampton Terrace, stop 776",53.32547924,-6.241735821,1614.1.60-145-b12-1.330.I,23:30:23,23:30:23,56, Aston Quay,20719.48,60-145-b12-1,145,b12
11338,8220DB000777,"Royal Hospital, stop 777",53.32697216,-6.243626144,1614.1.60-145-b12-1.330.I,23:30:44,23:30:44,57, Aston Quay,20927.81,60-145-b12-1,145,b12
11339,8220DB000906,"Leeson St Upper, stop 906",53.32881077,-6.247634377,1614.1.60-145-b12-1.330.I,23:31:20,23:31:20,58, Aston Quay,21268.54,60-145-b12-1,145,b12
11340,8220DB000907,"Dartmouth Road, stop 907",53.32971936,-6.250750109,1614.1.60-145-b12-1.330.I,23:31:49,23:31:49,59, Aston Quay,21501.82,60-145-b12-1,145,b12
11341,8220DB000908,"Grand Parade, stop 908",53.33115429,-6.252373034,1614.1.60-145-b12-1.330.I,23:32:13,23:32:13,60, Aston Quay,21695.7,60-145-b12-1,145,b12
11342,8220DB000909,"Fitzwilliam Place, stop 909",53.33314766,-6.254078364,1614.1.60-145-b12-1.330.I,23:32:44,23:32:44,61, Aston Quay,21949.13,60-145-b12-1,145,b12
11343,8220DB000786,"Embassy of Malta, stop 786",53.33518155,-6.256097534,1614.1.60-145-b12-1.330.I,23:33:15,23:33:15,62, Aston Quay,22210.37,60-145-b12-1,145,b12
11344,8220DB000792,"Dawson Street, stop 792",53.34044899,-6.258585808,1614.1.60-145-b12-1.330.I,23:35:42,23:35:42,63, Aston Quay,22967.73,60-145-b12-1,145,b12
11345,8220DB007586,"National Gallery, stop 7586",53.34197047,-6.253222288,1614.1.60-145-b12-1.330.I,23:37:19,23:37:19,64, Aston Quay,23509.67,60-145-b12-1,145,b12
11346,8220DB007587,"Science Gallery, stop 7587",53.34445793,-6.25122816,1614.1.60-145-b12-1.330.I,23:38:58,23:38:58,65, Aston Quay,24066.5,60-145-b12-1,145,b12
11347,8220DB007588,"Pearse Street, stop 7588",53.34498499,-6.254075317,1614.1.60-145-b12-1.330.I,23:39:32,23:39:32,66, Aston Quay,24264.89,60-145-b12-1,145,b12
11348,8220DB000325,"Aston Quay, stop 325",53.34669705,-6.25990826,1614.1.60-145-b12-1.330.I,23:41:19,23:41:19,67, Aston Quay,24917.2,60-145-b12-1,145,b12
11349,8350DB004201,"Old Connaught Avenue, stop 4201",53.21112535,-6.117835856,1614.1.60-145-d12-1.330.I,23:08:33,23:08:33,15, Aston Quay,4660.63,60-145-d12-1,145,d12
11350,8250DB004202,"Woodbrook College, stop 4202",53.21600035,-6.11974851,1614.1.60-145-d12-1.330.I,23:09:20,23:09:20,16, Aston Quay,5232.14,60-145-d12-1,145,d12
11351,8250DB004203,"St James's Church, stop 4203",53.2197606,-6.120512294,1614.1.60-145-d12-1.330.I,23:09:57,23:09:57,17, Aston Quay,5657.98,60-145-d12-1,145,d12
11352,8250DB005090,"Shanganagh Cemetery, stop 5090",53.22170381,-6.121760115,1614.1.60-145-d12-1.330.I,23:10:11,23:10:11,18, Aston Quay,5893.7,60-145-d12-1,145,d12
11353,8250DB004204,"Shanganagh Castle, stop 4204",53.22332409,-6.12362126,1614.1.60-145-d12-1.330.I,23:10:24,23:10:24,19, Aston Quay,6113.34,60-145-d12-1,145,d12
11354,8250DB004205,"Crinken Lane, stop 4205",53.22453947,-6.124886148,1614.1.60-145-d12-1.330.I,23:10:34,23:10:34,20, Aston Quay,6272.1,60-145-d12-1,145,d12
11355,8250DB004206,"Claremount, stop 4206",53.22750292,-6.124711709,1614.1.60-145-d12-1.330.I,23:11:11,23:11:11,21, Aston Quay,6606.83,60-145-d12-1,145,d12
11356,8250DB003140,"Stonebridge Close, stop 3140",53.2297601,-6.124208608,1614.1.60-145-d12-1.330.I,23:11:40,23:11:40,22, Aston Quay,6868.73,60-145-d12-1,145,d12
11357,8250DB003141,"Station Road, stop 3141",53.23455658,-6.125137439,1614.1.60-145-d12-1.330.I,23:12:30,23:12:30,23, Aston Quay,7432.3,60-145-d12-1,145,d12
11358,8250DB003142,"Kentfield, stop 3142",53.2380654,-6.12763594,1614.1.60-145-d12-1.330.I,23:13:05,23:13:05,24, Aston Quay,7863.69,60-145-d12-1,145,d12
11359,8250DB003143,"St Columcille's Hosp, stop 3143",53.24269051,-6.130820383,1614.1.60-145-d12-1.330.I,23:13:55,23:13:55,25, Aston Quay,8478.67,60-145-d12-1,145,d12
11360,8250DB003144,"Cherrywood Road, stop 3144",53.24569052,-6.135275018,1614.1.60-145-d12-1.330.I,23:14:28,23:14:28,26, Aston Quay,8930.37,60-145-d12-1,145,d12
11361,8250DB003145,"Willow Court, stop 3145",53.24792099,-6.13823511,1614.1.60-145-d12-1.330.I,23:14:49,23:14:49,27, Aston Quay,9247.7,60-145-d12-1,145,d12
11362,8250DB003146,"St Laurence College, stop 3146",53.25084385,-6.14179493,1614.1.60-145-d12-1.330.I,23:15:17,23:15:17,28, Aston Quay,9649.17,60-145-d12-1,145,d12
11363,8250DB003147,"Kilbogget Grove, stop 3147",53.25526992,-6.145500025,1614.1.60-145-d12-1.330.I,23:15:54,23:15:54,29, Aston Quay,10198.15,60-145-d12-1,145,d12
11364,8250DB003148,"Shrewsbury Lawn, stop 3148",53.25873662,-6.146474241,1614.1.60-145-d12-1.330.I,23:16:20,23:16:20,30, Aston Quay,10590.0,60-145-d12-1,145,d12
11365,8250DB005127,"Cabinteely Bypass, stop 5127",53.2620156,-6.150409883,1614.1.60-145-d12-1.330.I,23:16:53,23:16:53,31, Aston Quay,11055.81,60-145-d12-1,145,d12
11366,8250DB005128,"Clonkeen Road, stop 5128",53.2655267,-6.157739276,1614.1.60-145-d12-1.330.I,23:17:36,23:17:36,32, Aston Quay,11680.16,60-145-d12-1,145,d12
11367,8250DB002996,"Old Bray Road, stop 2996",53.27076364,-6.167439907,1614.1.60-145-d12-1.330.I,23:18:45,23:18:45,33, Aston Quay,12553.35,60-145-d12-1,145,d12
11368,8250DB003258,"Westminister Grove, stop 3258",53.27254116,-6.171982112,1614.1.60-145-d12-1.330.I,23:19:14,23:19:14,34, Aston Quay,12914.75,60-145-d12-1,145,d12
11369,8250DB002060,"Foxrock Church, stop 2060",53.27395494,-6.175085679,1614.1.60-145-d12-1.330.I,23:19:35,23:19:35,35, Aston Quay,13178.87,60-145-d12-1,145,d12
11370,8250DB002061,"Knocksinna, stop 2061",53.2757586,-6.18018225,1614.1.60-145-d12-1.330.I,23:20:06,23:20:06,36, Aston Quay,13573.96,60-145-d12-1,145,d12
11371,8250DB002062,"Newtownpark Avenue, stop 2062",53.27902411,-6.186851925,1614.1.60-145-d12-1.330.I,23:20:53,23:20:53,37, Aston Quay,14151.39,60-145-d12-1,145,d12
11372,8250DB002063,"Galloping Green, stop 2063",53.28029401,-6.189977519,1614.1.60-145-d12-1.330.I,23:21:16,23:21:16,38, Aston Quay,14402.42,60-145-d12-1,145,d12
11373,8250DB002064,"Brewery Road, stop 2064",53.28272564,-6.193849161,1614.1.60-145-d12-1.330.I,23:21:52,23:21:52,39, Aston Quay,14780.71,60-145-d12-1,145,d12
11374,8250DB002065,"Merville Road, stop 2065",53.28479921,-6.19485659,1614.1.60-145-d12-1.330.I,23:22:07,23:22:07,40, Aston Quay,15019.62,60-145-d12-1,145,d12
11375,8250DB004727,"Laurence Park, stop 4727",53.29081171,-6.19778321,1614.1.60-145-d12-1.330.I,23:23:10,23:23:10,41, Aston Quay,15759.35,60-145-d12-1,145,d12
11376,8250DB004728,"Oatlands College, stop 4728",53.29333789,-6.201982289,1614.1.60-145-d12-1.330.I,23:23:44,23:23:44,42, Aston Quay,16155.36,60-145-d12-1,145,d12
11377,8250DB000461,"Stillorgan Pk Hotel, stop 461",53.2947995,-6.203541111,1614.1.60-145-d12-1.330.I,23:24:00,23:24:00,43, Aston Quay,16345.37,60-145-d12-1,145,d12
11378,8250DB002068,"Greenfield Road, stop 2068",53.29809576,-6.204573003,1614.1.60-145-d12-1.330.I,23:24:26,23:24:26,44, Aston Quay,16717.81,60-145-d12-1,145,d12
11379,8250DB002069,"Booterstown Avenue, stop 2069",53.29977469,-6.205642853,1614.1.60-145-d12-1.330.I,23:24:40,23:24:40,45, Aston Quay,16917.78,60-145-d12-1,145,d12
11380,8250DB002070,"St Thomas Road, stop 2070",53.30306607,-6.208145702,1614.1.60-145-d12-1.330.I,23:25:16,23:25:16,46, Aston Quay,17326.92,60-145-d12-1,145,d12
11381,8250DB002084,"Seafield Road, stop 2084",53.30552676,-6.21159902,1614.1.60-145-d12-1.330.I,23:25:51,23:25:51,47, Aston Quay,17683.85,60-145-d12-1,145,d12
11382,8250DB000768,"UCD Belfield, stop 768",53.30941819,-6.21877483,1614.1.60-145-d12-1.330.I,23:26:57,23:26:57,48, Aston Quay,18332.61,60-145-d12-1,145,d12
11383,8220DB000769,"Belfield Court, stop 769",53.31190109,-6.221327857,1614.1.60-145-d12-1.330.I,23:27:19,23:27:19,49, Aston Quay,18660.17,60-145-d12-1,145,d12
11384,8220DB000770,"RTE, stop 770",53.31463619,-6.225731811,1614.1.60-145-d12-1.330.I,23:27:51,23:27:51,50, Aston Quay,19103.19,60-145-d12-1,145,d12
11385,8220DB000771,"Teresian School, stop 771",53.31588007,-6.227781522,1614.1.60-145-d12-1.330.I,23:28:04,23:28:04,51, Aston Quay,19294.0,60-145-d12-1,145,d12
11386,8220DB000772,"Donnybrook Garage, stop 772",53.31848526,-6.231321064,1614.1.60-145-d12-1.330.I,23:28:31,23:28:31,52, Aston Quay,19667.55,60-145-d12-1,145,d12
11387,8220DB000773,"Donnybrook Road, stop 773",53.31991635,-6.233273319,1614.1.60-145-d12-1.330.I,23:28:53,23:28:53,53, Aston Quay,19870.88,60-145-d12-1,145,d12
11388,8220DB000774,"Donnybrook Garda Stn, stop 774",53.32161212,-6.235499996,1614.1.60-145-d12-1.330.I,23:29:20,23:29:20,54, Aston Quay,20112.76,60-145-d12-1,145,d12
11389,8220DB000775,"Donnybrook Village, stop 775",53.32348971,-6.239085447,1614.1.60-145-d12-1.330.I,23:29:56,23:29:56,55, Aston Quay,20436.6,60-145-d12-1,145,d12
11390,8220DB000776,"Morehampton Terrace, stop 776",53.32547924,-6.241735821,1614.1.60-145-d12-1.330.I,23:30:23,23:30:23,56, Aston Quay,20719.48,60-145-d12-1,145,d12
11391,8220DB000777,"Royal Hospital, stop 777",53.32697216,-6.243626144,1614.1.60-145-d12-1.330.I,23:30:44,23:30:44,57, Aston Quay,20927.81,60-145-d12-1,145,d12
11392,8220DB000906,"Leeson St Upper, stop 906",53.32881077,-6.247634377,1614.1.60-145-d12-1.330.I,23:31:20,23:31:20,58, Aston Quay,21268.54,60-145-d12-1,145,d12
11393,8220DB000907,"Dartmouth Road, stop 907",53.32971936,-6.250750109,1614.1.60-145-d12-1.330.I,23:31:49,23:31:49,59, Aston Quay,21501.82,60-145-d12-1,145,d12
11394,8220DB000908,"Grand Parade, stop 908",53.33115429,-6.252373034,1614.1.60-145-d12-1.330.I,23:32:13,23:32:13,60, Aston Quay,21695.7,60-145-d12-1,145,d12
11395,8220DB000909,"Fitzwilliam Place, stop 909",53.33314766,-6.254078364,1614.1.60-145-d12-1.330.I,23:32:44,23:32:44,61, Aston Quay,21949.13,60-145-d12-1,145,d12
11396,8220DB000786,"Embassy of Malta, stop 786",53.33518155,-6.256097534,1614.1.60-145-d12-1.330.I,23:33:15,23:33:15,62, Aston Quay,22210.37,60-145-d12-1,145,d12
11397,8220DB000792,"Dawson Street, stop 792",53.34044899,-6.258585808,1614.1.60-145-d12-1.330.I,23:35:42,23:35:42,63, Aston Quay,22967.73,60-145-d12-1,145,d12
11398,8220DB007586,"National Gallery, stop 7586",53.34197047,-6.253222288,1614.1.60-145-d12-1.330.I,23:37:19,23:37:19,64, Aston Quay,23509.67,60-145-d12-1,145,d12
11399,8220DB007587,"Science Gallery, stop 7587",53.34445793,-6.25122816,1614.1.60-145-d12-1.330.I,23:38:58,23:38:58,65, Aston Quay,24066.5,60-145-d12-1,145,d12
11400,8220DB007588,"Pearse Street, stop 7588",53.34498499,-6.254075317,1614.1.60-145-d12-1.330.I,23:39:32,23:39:32,66, Aston Quay,24264.89,60-145-d12-1,145,d12
11401,8220DB000325,"Aston Quay, stop 325",53.34669705,-6.25990826,1614.1.60-145-d12-1.330.I,23:41:19,23:41:19,67, Aston Quay,24917.2,60-145-d12-1,145,d12
24614,8350DB004201,"Old Connaught Avenue, stop 4201",53.21112535,-6.117835856,2508.1.60-145-b12-1.330.I,23:28:33,23:28:33,15, Aston Quay,4660.63,60-145-b12-1,145,b12
24615,8250DB004202,"Woodbrook College, stop 4202",53.21600035,-6.11974851,2508.1.60-145-b12-1.330.I,23:29:20,23:29:20,16, Aston Quay,5232.14,60-145-b12-1,145,b12
24616,8250DB004203,"St James's Church, stop 4203",53.2197606,-6.120512294,2508.1.60-145-b12-1.330.I,23:29:57,23:29:57,17, Aston Quay,5657.98,60-145-b12-1,145,b12
24617,8250DB005090,"Shanganagh Cemetery, stop 5090",53.22170381,-6.121760115,2508.1.60-145-b12-1.330.I,23:30:11,23:30:11,18, Aston Quay,5893.7,60-145-b12-1,145,b12
24618,8250DB004204,"Shanganagh Castle, stop 4204",53.22332409,-6.12362126,2508.1.60-145-b12-1.330.I,23:30:24,23:30:24,19, Aston Quay,6113.34,60-145-b12-1,145,b12
24619,8250DB004205,"Crinken Lane, stop 4205",53.22453947,-6.124886148,2508.1.60-145-b12-1.330.I,23:30:34,23:30:34,20, Aston Quay,6272.1,60-145-b12-1,145,b12
24620,8250DB004206,"Claremount, stop 4206",53.22750292,-6.124711709,2508.1.60-145-b12-1.330.I,23:31:11,23:31:11,21, Aston Quay,6606.83,60-145-b12-1,145,b12
24621,8250DB003140,"Stonebridge Close, stop 3140",53.2297601,-6.124208608,2508.1.60-145-b12-1.330.I,23:31:40,23:31:40,22, Aston Quay,6868.73,60-145-b12-1,145,b12
24622,8250DB003141,"Station Road, stop 3141",53.23455658,-6.125137439,2508.1.60-145-b12-1.330.I,23:32:30,23:32:30,23, Aston Quay,7432.3,60-145-b12-1,145,b12
24623,8250DB003142,"Kentfield, stop 3142",53.2380654,-6.12763594,2508.1.60-145-b12-1.330.I,23:33:05,23:33:05,24, Aston Quay,7863.69,60-145-b12-1,145,b12
24624,8250DB003143,"St Columcille's Hosp, stop 3143",53.24269051,-6.130820383,2508.1.60-145-b12-1.330.I,23:33:55,23:33:55,25, Aston Quay,8478.67,60-145-b12-1,145,b12
24625,8250DB003144,"Cherrywood Road, stop 3144",53.24569052,-6.135275018,2508.1.60-145-b12-1.330.I,23:34:28,23:34:28,26, Aston Quay,8930.37,60-145-b12-1,145,b12
24626,8250DB003145,"Willow Court, stop 3145",53.24792099,-6.13823511,2508.1.60-145-b12-1.330.I,23:34:49,23:34:49,27, Aston Quay,9247.7,60-145-b12-1,145,b12
24627,8250DB003146,"St Laurence College, stop 3146",53.25084385,-6.14179493,2508.1.60-145-b12-1.330.I,23:35:17,23:35:17,28, Aston Quay,9649.17,60-145-b12-1,145,b12
24628,8250DB003147,"Kilbogget Grove, stop 3147",53.25526992,-6.145500025,2508.1.60-145-b12-1.330.I,23:35:54,23:35:54,29, Aston Quay,10198.15,60-145-b12-1,145,b12
24629,8250DB003148,"Shrewsbury Lawn, stop 3148",53.25873662,-6.146474241,2508.1.60-145-b12-1.330.I,23:36:20,23:36:20,30, Aston Quay,10590.0,60-145-b12-1,145,b12
24630,8250DB005127,"Cabinteely Bypass, stop 5127",53.2620156,-6.150409883,2508.1.60-145-b12-1.330.I,23:36:53,23:36:53,31, Aston Quay,11055.81,60-145-b12-1,145,b12
24631,8250DB005128,"Clonkeen Road, stop 5128",53.2655267,-6.157739276,2508.1.60-145-b12-1.330.I,23:37:36,23:37:36,32, Aston Quay,11680.16,60-145-b12-1,145,b12
24632,8250DB002996,"Old Bray Road, stop 2996",53.27076364,-6.167439907,2508.1.60-145-b12-1.330.I,23:38:45,23:38:45,33, Aston Quay,12553.35,60-145-b12-1,145,b12
24633,8250DB003258,"Westminister Grove, stop 3258",53.27254116,-6.171982112,2508.1.60-145-b12-1.330.I,23:39:14,23:39:14,34, Aston Quay,12914.75,60-145-b12-1,145,b12
24634,8250DB002060,"Foxrock Church, stop 2060",53.27395494,-6.175085679,2508.1.60-145-b12-1.330.I,23:39:35,23:39:35,35, Aston Quay,13178.87,60-145-b12-1,145,b12
24635,8250DB002061,"Knocksinna, stop 2061",53.2757586,-6.18018225,2508.1.60-145-b12-1.330.I,23:40:06,23:40:06,36, Aston Quay,13573.96,60-145-b12-1,145,b12
24636,8250DB002062,"Newtownpark Avenue, stop 2062",53.27902411,-6.186851925,2508.1.60-145-b12-1.330.I,23:40:53,23:40:53,37, Aston Quay,14151.39,60-145-b12-1,145,b12
24637,8250DB002063,"Galloping Green, stop 2063",53.28029401,-6.189977519,2508.1.60-145-b12-1.330.I,23:41:16,23:41:16,38, Aston Quay,14402.42,60-145-b12-1,145,b12
24638,8250DB002064,"Brewery Road, stop 2064",53.28272564,-6.193849161,2508.1.60-145-b12-1.330.I,23:41:52,23:41:52,39, Aston Quay,14780.71,60-145-b12-1,145,b12
24639,8250DB002065,"Merville Road, stop 2065",53.28479921,-6.19485659,2508.1.60-145-b12-1.330.I,23:42:07,23:42:07,40, Aston Quay,15019.62,60-145-b12-1,145,b12
24640,8250DB004727,"Laurence Park, stop 4727",53.29081171,-6.19778321,2508.1.60-145-b12-1.330.I,23:43:10,23:43:10,41, Aston Quay,15759.35,60-145-b12-1,145,b12
24641,8250DB004728,"Oatlands College, stop 4728",53.29333789,-6.201982289,2508.1.60-145-b12-1.330.I,23:43:44,23:43:44,42, Aston Quay,16155.36,60-145-b12-1,145,b12
24642,8250DB000461,"Stillorgan Pk Hotel, stop 461",53.2947995,-6.203541111,2508.1.60-145-b12-1.330.I,23:44:00,23:44:00,43, Aston Quay,16345.37,60-145-b12-1,145,b12
24643,8250DB002068,"Greenfield Road, stop 2068",53.29809576,-6.204573003,2508.1.60-145-b12-1.330.I,23:44:26,23:44:26,44, Aston Quay,16717.81,60-145-b12-1,145,b12
24644,8250DB002069,"Booterstown Avenue, stop 2069",53.29977469,-6.205642853,2508.1.60-145-b12-1.330.I,23:44:40,23:44:40,45, Aston Quay,16917.78,60-145-b12-1,145,b12
24645,8250DB002070,"St Thomas Road, stop 2070",53.30306607,-6.208145702,2508.1.60-145-b12-1.330.I,23:45:16,23:45:16,46, Aston Quay,17326.92,60-145-b12-1,145,b12
24646,8250DB002084,"Seafield Road, stop 2084",53.30552676,-6.21159902,2508.1.60-145-b12-1.330.I,23:45:51,23:45:51,47, Aston Quay,17683.85,60-145-b12-1,145,b12
24647,8250DB000768,"UCD Belfield, stop 768",53.30941819,-6.21877483,2508.1.60-145-b12-1.330.I,23:46:57,23:46:57,48, Aston Quay,18332.61,60-145-b12-1,145,b12
24648,8220DB000769,"Belfield Court, stop 769",53.31190109,-6.221327857,2508.1.60-145-b12-1.330.I,23:47:19,23:47:19,49, Aston Quay,18660.17,60-145-b12-1,145,b12
24649,8220DB000770,"RTE, stop 770",53.31463619,-6.225731811,2508.1.60-145-b12-1.330.I,23:47:51,23:47:51,50, Aston Quay,19103.19,60-145-b12-1,145,b12
24650,8220DB000771,"Teresian School, stop 771",53.31588007,-6.227781522,2508.1.60-145-b12-1.330.I,23:48:04,23:48:04,51, Aston Quay,19294.0,60-145-b12-1,145,b12
24651,8220DB000772,"Donnybrook Garage, stop 772",53.31848526,-6.231321064,2508.1.60-145-b12-1.330.I,23:48:31,23:48:31,52, Aston Quay,19667.55,60-145-b12-1,145,b12
24652,8220DB000773,"Donnybrook Road, stop 773",53.31991635,-6.233273319,2508.1.60-145-b12-1.330.I,23:48:53,23:48:53,53, Aston Quay,19870.88,60-145-b12-1,145,b12
24653,8220DB000774,"Donnybrook Garda Stn, stop 774",53.32161212,-6.235499996,2508.1.60-145-b12-1.330.I,23:49:20,23:49:20,54, Aston Quay,20112.76,60-145-b12-1,145,b12
24654,8220DB000775,"Donnybrook Village, stop 775",53.32348971,-6.239085447,2508.1.60-145-b12-1.330.I,23:49:56,23:49:56,55, Aston Quay,20436.6,60-145-b12-1,145,b12
24655,8220DB000776,"Morehampton Terrace, stop 776",53.32547924,-6.241735821,2508.1.60-145-b12-1.330.I,23:50:23,23:50:23,56, Aston Quay,20719.48,60-145-b12-1,145,b12
24656,8220DB000777,"Royal Hospital, stop 777",53.32697216,-6.243626144,2508.1.60-145-b12-1.330.I,23:50:44,23:50:44,57, Aston Quay,20927.81,60-145-b12-1,145,b12
24657,8220DB000906,"Leeson St Upper, stop 906",53.32881077,-6.247634377,2508.1.60-145-b12-1.330.I,23:51:20,23:51:20,58, Aston Quay,21268.54,60-145-b12-1,145,b12
24658,8220DB000907,"Dartmouth Road, stop 907",53.32971936,-6.250750109,2508.1.60-145-b12-1.330.I,23:51:49,23:51:49,59, Aston Quay,21501.82,60-145-b12-1,145,b12
24659,8220DB000908,"Grand Parade, stop 908",53.33115429,-6.252373034,2508.1.60-145-b12-1.330.I,23:52:13,23:52:13,60, Aston Quay,21695.7,60-145-b12-1,145,b12
24660,8220DB000909,"Fitzwilliam Place, stop 909",53.33314766,-6.254078364,2508.1.60-145-b12-1.330.I,23:52:44,23:52:44,61, Aston Quay,21949.13,60-145-b12-1,145,b12
24661,8220DB000786,"Embassy of Malta, stop 786",53.33518155,-6.256097534,2508.1.60-145-b12-1.330.I,23:53:15,23:53:15,62, Aston Quay,22210.37,60-145-b12-1,145,b12
24662,8220DB000792,"Dawson Street, stop 792",53.34044899,-6.258585808,2508.1.60-145-b12-1.330.I,23:55:42,23:55:42,63, Aston Quay,22967.73,60-145-b12-1,145,b12
24663,8220DB007586,"National Gallery, stop 7586",53.34197047,-6.253222288,2508.1.60-145-b12-1.330.I,23:57:19,23:57:19,64, Aston Quay,23509.67,60-145-b12-1,145,b12
24664,8220DB007587,"Science Gallery, stop 7587",53.34445793,-6.25122816,2508.1.60-145-b12-1.330.I,23:58:58,23:58:58,65, Aston Quay,24066.5,60-145-b12-1,145,b12
24665,8220DB007588,"Pearse Street, stop 7588",53.34498499,-6.254075317,2508.1.60-145-b12-1.330.I,23:59:32,23:59:32,66, Aston Quay,24264.89,60-145-b12-1,145,b12
24666,8220DB000325,"Aston Quay, stop 325",53.34669705,-6.25990826,2508.1.60-145-b12-1.330.I,24:01:19,24:01:19,67, Aston Quay,24917.2,60-145-b12-1,145,b12
24667,8350DB004201,"Old Connaught Avenue, stop 4201",53.21112535,-6.117835856,2508.1.60-145-d12-1.330.I,23:28:33,23:28:33,15, Aston Quay,4660.63,60-145-d12-1,145,d12
24668,8250DB004202,"Woodbrook College, stop 4202",53.21600035,-6.11974851,2508.1.60-145-d12-1.330.I,23:29:20,23:29:20,16, Aston Quay,5232.14,60-145-d12-1,145,d12
24669,8250DB004203,"St James's Church, stop 4203",53.2197606,-6.120512294,2508.1.60-145-d12-1.330.I,23:29:57,23:29:57,17, Aston Quay,5657.98,60-145-d12-1,145,d12
24670,8250DB005090,"Shanganagh Cemetery, stop 5090",53.22170381,-6.121760115,2508.1.60-145-d12-1.330.I,23:30:11,23:30:11,18, Aston Quay,5893.7,60-145-d12-1,145,d12
24671,8250DB004204,"Shanganagh Castle, stop 4204",53.22332409,-6.12362126,2508.1.60-145-d12-1.330.I,23:30:24,23:30:24,19, Aston Quay,6113.34,60-145-d12-1,145,d12
24672,8250DB004205,"Crinken Lane, stop 4205",53.22453947,-6.124886148,2508.1.60-145-d12-1.330.I,23:30:34,23:30:34,20, Aston Quay,6272.1,60-145-d12-1,145,d12
24673,8250DB004206,"Claremount, stop 4206",53.22750292,-6.124711709,2508.1.60-145-d12-1.330.I,23:31:11,23:31:11,21, Aston Quay,6606.83,60-145-d12-1,145,d12
24674,8250DB003140,"Stonebridge Close, stop 3140",53.2297601,-6.124208608,2508.1.60-145-d12-1.330.I,23:31:40,23:31:40,22, Aston Quay,6868.73,60-145-d12-1,145,d12
24675,8250DB003141,"Station Road, stop 3141",53.23455658,-6.125137439,2508.1.60-145-d12-1.330.I,23:32:30,23:32:30,23, Aston Quay,7432.3,60-145-d12-1,145,d12
24676,8250DB003142,"Kentfield, stop 3142",53.2380654,-6.12763594,2508.1.60-145-d12-1.330.I,23:33:05,23:33:05,24, Aston Quay,7863.69,60-145-d12-1,145,d12
24677,8250DB003143,"St Columcille's Hosp, stop 3143",53.24269051,-6.130820383,2508.1.60-145-d12-1.330.I,23:33:55,23:33:55,25, Aston Quay,8478.67,60-145-d12-1,145,d12
24678,8250DB003144,"Cherrywood Road, stop 3144",53.24569052,-6.135275018,2508.1.60-145-d12-1.330.I,23:34:28,23:34:28,26, Aston Quay,8930.37,60-145-d12-1,145,d12
24679,8250DB003145,"Willow Court, stop 3145",53.24792099,-6.13823511,2508.1.60-145-d12-1.330.I,23:34:49,23:34:49,27, Aston Quay,9247.7,60-145-d12-1,145,d12
24680,8250DB003146,"St Laurence College, stop 3146",53.25084385,-6.14179493,2508.1.60-145-d12-1.330.I,23:35:17,23:35:17,28, Aston Quay,9649.17,60-145-d12-1,145,d12
24681,8250DB003147,"Kilbogget Grove, stop 3147",53.25526992,-6.145500025,2508.1.60-145-d12-1.330.I,23:35:54,23:35:54,29, Aston Quay,10198.15,60-145-d12-1,145,d12
24682,8250DB003148,"Shrewsbury Lawn, stop 3148",53.25873662,-6.146474241,2508.1.60-145-d12-1.330.I,23:36:20,23:36:20,30, Aston Quay,10590.0,60-145-d12-1,145,d12
24683,8250DB005127,"Cabinteely Bypass, stop 5127",53.2620156,-6.150409883,2508.1.60-145-d12-1.330.I,23:36:53,23:36:53,31, Aston Quay,11055.81,60-145-d12-1,145,d12
24684,8250DB005128,"Clonkeen Road, stop 5128",53.2655267,-6.157739276,2508.1.60-145-d12-1.330.I,23:37:36,23:37:36,32, Aston Quay,11680.16,60-145-d12-1,145,d12
24685,8250DB002996,"Old Bray Road, stop 2996",53.27076364,-6.167439907,2508.1.60-145-d12-1.330.I,23:38:45,23:38:45,33, Aston Quay,12553.35,60-145-d12-1,145,d12
24686,8250DB003258,"Westminister Grove, stop 3258",53.27254116,-6.171982112,2508.1.60-145-d12-1.330.I,23:39:14,23:39:14,34, Aston Quay,12914.75,60-145-d12-1,145,d12
24687,8250DB002060,"Foxrock Church, stop 2060",53.27395494,-6.175085679,2508.1.60-145-d12-1.330.I,23:39:35,23:39:35,35, Aston Quay,13178.87,60-145-d12-1,145,d12
24688,8250DB002061,"Knocksinna, stop 2061",53.2757586,-6.18018225,2508.1.60-145-d12-1.330.I,23:40:06,23:40:06,36, Aston Quay,13573.96,60-145-d12-1,145,d12
24689,8250DB002062,"Newtownpark Avenue, stop 2062",53.27902411,-6.186851925,2508.1.60-145-d12-1.330.I,23:40:53,23:40:53,37, Aston Quay,14151.39,60-145-d12-1,145,d12
24690,8250DB002063,"Galloping Green, stop 2063",53.28029401,-6.189977519,2508.1.60-145-d12-1.330.I,23:41:16,23:41:16,38, Aston Quay,14402.42,60-145-d12-1,145,d12
24691,8250DB002064,"Brewery Road, stop 2064",53.28272564,-6.193849161,2508.1.60-145-d12-1.330.I,23:41:52,23:41:52,39, Aston Quay,14780.71,60-145-d12-1,145,d12
24692,8250DB002065,"Merville Road, stop 2065",53.28479921,-6.19485659,2508.1.60-145-d12-1.330.I,23:42:07,23:42:07,40, Aston Quay,15019.62,60-145-d12-1,145,d12
24693,8250DB004727,"Laurence Park, stop 4727",53.29081171,-6.19778321,2508.1.60-145-d12-1.330.I,23:43:10,23:43:10,41, Aston Quay,15759.35,60-145-d12-1,145,d12
24694,8250DB004728,"Oatlands College, stop 4728",53.29333789,-6.201982289,2508.1.60-145-d12-1.330.I,23:43:44,23:43:44,42, Aston Quay,16155.36,60-145-d12-1,145,d12
24695,8250DB000461,"Stillorgan Pk Hotel, stop 461",53.2947995,-6.203541111,2508.1.60-145-d12-1.330.I,23:44:00,23:44:00,43, Aston Quay,16345.37,60-145-d12-1,145,d12
24696,8250DB002068,"Greenfield Road, stop 2068",53.29809576,-6.204573003,2508.1.60-145-d12-1.330.I,23:44:26,23:44:26,44, Aston Quay,16717.81,60-145-d12-1,145,d12
24697,8250DB002069,"Booterstown Avenue, stop 2069",53.29977469,-6.205642853,2508.1.60-145-d12-1.330.I,23:44:40,23:44:40,45, Aston Quay,16917.78,60-145-d12-1,145,d12
24698,8250DB002070,"St Thomas Road, stop 2070",53.30306607,-6.208145702,2508.1.60-145-d12-1.330.I,23:45:16,23:45:16,46, Aston Quay,17326.92,60-145-d12-1,145,d12
24699,8250DB002084,"Seafield Road, stop 2084",53.30552676,-6.21159902,2508.1.60-145-d12-1.330.I,23:45:51,23:45:51,47, Aston Quay,17683.85,60-145-d12-1,145,d12
24700,8250DB000768,"UCD Belfield, stop 768",53.30941819,-6.21877483,2508.1.60-145-d12-1.330.I,23:46:57,23:46:57,48, Aston Quay,18332.61,60-145-d12-1,145,d12
24701,8220DB000769,"Belfield Court, stop 769",53.31190109,-6.221327857,2508.1.60-145-d12-1.330.I,23:47:19,23:47:19,49, Aston Quay,18660.17,60-145-d12-1,145,d12
24702,8220DB000770,"RTE, stop 770",53.31463619,-6.225731811,2508.1.60-145-d12-1.330.I,23:47:51,23:47:51,50, Aston Quay,19103.19,60-145-d12-1,145,d12
24703,8220DB000771,"Teresian School, stop 771",53.31588007,-6.227781522,2508.1.60-145-d12-1.330.I,23:48:04,23:48:04,51, Aston Quay,19294.0,60-145-d12-1,145,d12
24704,8220DB000772,"Donnybrook Garage, stop 772",53.31848526,-6.231321064,2508.1.60-145-d12-1.330.I,23:48:31,23:48:31,52, Aston Quay,19667.55,60-145-d12-1,145,d12
24705,8220DB000773,"Donnybrook Road, stop 773",53.31991635,-6.233273319,2508.1.60-145-d12-1.330.I,23:48:53,23:48:53,53, Aston Quay,19870.88,60-145-d12-1,145,d12
24706,8220DB000774,"Donnybrook Garda Stn, stop 774",53.32161212,-6.235499996,2508.1.60-145-d12-1.330.I,23:49:20,23:49:20,54, Aston Quay,20112.76,60-145-d12-1,145,d12
24707,8220DB000775,"Donnybrook Village, stop 775",53.32348971,-6.239085447,2508.1.60-145-d12-1.330.I,23:49:56,23:49:56,55, Aston Quay,20436.6,60-145-d12-1,145,d12
24708,8220DB000776,"Morehampton Terrace, stop 776",53.32547924,-6.241735821,2508.1.60-145-d12-1.330.I,23:50:23,23:50:23,56, Aston Quay,20719.48,60-145-d12-1,145,d12
24709,8220DB000777,"Royal Hospital, stop 777",53.32697216,-6.243626144,2508.1.60-145-d12-1.330.I,23:50:44,23:50:44,57, Aston Quay,20927.81,60-145-d12-1,145,d12
24710,8220DB000906,"Leeson St Upper, stop 906",53.32881077,-6.247634377,2508.1.60-145-d12-1.330.I,23:51:20,23:51:20,58, Aston Quay,21268.54,60-145-d12-1,145,d12
24711,8220DB000907,"Dartmouth Road, stop 907",53.32971936,-6.250750109,2508.1.60-145-d12-1.330.I,23:51:49,23:51:49,59, Aston Quay,21501.82,60-145-d12-1,145,d12
24712,8220DB000908,"Grand Parade, stop 908",53.33115429,-6.252373034,2508.1.60-145-d12-1.330.I,23:52:13,23:52:13,60, Aston Quay,21695.7,60-145-d12-1,145,d12
24713,8220DB000909,"Fitzwilliam Place, stop 909",53.33314766,-6.254078364,2508.1.60-145-d12-1.330.I,23:52:44,23:52:44,61, Aston Quay,21949.13,60-145-d12-1,145,d12
24714,8220DB000786,"Embassy of Malta, stop 786",53.33518155,-6.256097534,2508.1.60-145-d12-1.330.I,23:53:15,23:53:15,62, Aston Quay,22210.37,60-145-d12-1,145,d12
24715,8220DB000792,"Dawson Street, stop 792",53.34044899,-6.258585808,2508.1.60-145-d12-1.330.I,23:55:42,23:55:42,63, Aston Quay,22967.73,60-145-d12-1,145,d12
24716,8220DB007586,"National Gallery, stop 7586",53.34197047,-6.253222288,2508.1.60-145-d12-1.330.I,23:57:19,23:57:19,64, Aston Quay,23509.67,60-145-d12-1,145,d12
24717,8220DB007587,"Science Gallery, stop 7587",53.34445793,-6.25122816,2508.1.60-145-d12-1.330.I,23:58:58,23:58:58,65, Aston Quay,24066.5,60-145-d12-1,145,d12
24718,8220DB007588,"Pearse Street, stop 7588",53.34498499,-6.254075317,2508.1.60-145-d12-1.330.I,23:59:32,23:59:32,66, Aston Quay,24264.89,60-145-d12-1,145,d12
24719,8220DB000325,"Aston Quay, stop 325",53.34669705,-6.25990826,2508.1.60-145-d12-1.330.I,24:01:19,24:01:19,67, Aston Quay,24917.2,60-145-d12-1,145,d12
43544,8350DB004201,"Old Connaught Avenue, stop 4201",53.21112535,-6.117835856,9067.3.60-145-b12-1.330.I,23:29:41,23:29:41,15, Aston Quay,4660.63,60-145-b12-1,145,b12
43545,8250DB004202,"Woodbrook College, stop 4202",53.21600035,-6.11974851,9067.3.60-145-b12-1.330.I,23:30:30,23:30:30,16, Aston Quay,5232.14,60-145-b12-1,145,b12
43546,8250DB004203,"St James's Church, stop 4203",53.2197606,-6.120512294,9067.3.60-145-b12-1.330.I,23:31:09,23:31:09,17, Aston Quay,5657.98,60-145-b12-1,145,b12
43547,8250DB005090,"Shanganagh Cemetery, stop 5090",53.22170381,-6.121760115,9067.3.60-145-b12-1.330.I,23:31:23,23:31:23,18, Aston Quay,5893.7,60-145-b12-1,145,b12
43548,8250DB004204,"Shanganagh Castle, stop 4204",53.22332409,-6.12362126,9067.3.60-145-b12-1.330.I,23:31:36,23:31:36,19, Aston Quay,6113.34,60-145-b12-1,145,b12
43549,8250DB004205,"Crinken Lane, stop 4205",53.22453947,-6.124886148,9067.3.60-145-b12-1.330.I,23:31:46,23:31:46,20, Aston Quay,6272.1,60-145-b12-1,145,b12
43550,8250DB004206,"Claremount, stop 4206",53.22750292,-6.124711709,9067.3.60-145-b12-1.330.I,23:32:25,23:32:25,21, Aston Quay,6606.83,60-145-b12-1,145,b12
43551,8250DB003140,"Stonebridge Close, stop 3140",53.2297601,-6.124208608,9067.3.60-145-b12-1.330.I,23:32:56,23:32:56,22, Aston Quay,6868.73,60-145-b12-1,145,b12
43552,8250DB003141,"Station Road, stop 3141",53.23455658,-6.125137439,9067.3.60-145-b12-1.330.I,23:33:57,23:33:57,23, Aston Quay,7432.3,60-145-b12-1,145,b12
43553,8250DB003142,"Kentfield, stop 3142",53.2380654,-6.12763594,9067.3.60-145-b12-1.330.I,23:34:34,23:34:34,24, Aston Quay,7863.69,60-145-b12-1,145,b12
43554,8250DB003143,"St Columcille's Hosp, stop 3143",53.24269051,-6.130820383,9067.3.60-145-b12-1.330.I,23:35:28,23:35:28,25, Aston Quay,8478.67,60-145-b12-1,145,b12
43555,8250DB003144,"Cherrywood Road, stop 3144",53.24569052,-6.135275018,9067.3.60-145-b12-1.330.I,23:36:02,23:36:02,26, Aston Quay,8930.37,60-145-b12-1,145,b12
43556,8250DB003145,"Willow Court, stop 3145",53.24792099,-6.13823511,9067.3.60-145-b12-1.330.I,23:36:25,23:36:25,27, Aston Quay,9247.7,60-145-b12-1,145,b12
43557,8250DB003146,"St Laurence College, stop 3146",53.25084385,-6.14179493,9067.3.60-145-b12-1.330.I,23:36:55,23:36:55,28, Aston Quay,9649.17,60-145-b12-1,145,b12
43558,8250DB003147,"Kilbogget Grove, stop 3147",53.25526992,-6.145500025,9067.3.60-145-b12-1.330.I,23:37:30,23:37:30,29, Aston Quay,10198.15,60-145-b12-1,145,b12
43559,8250DB003148,"Shrewsbury Lawn, stop 3148",53.25873662,-6.146474241,9067.3.60-145-b12-1.330.I,23:37:54,23:37:54,30, Aston Quay,10590.0,60-145-b12-1,145,b12
43560,8250DB005127,"Cabinteely Bypass, stop 5127",53.2620156,-6.150409883,9067.3.60-145-b12-1.330.I,23:38:42,23:38:42,31, Aston Quay,11055.81,60-145-b12-1,145,b12
43561,8250DB005128,"Clonkeen Road, stop 5128",53.2655267,-6.157739276,9067.3.60-145-b12-1.330.I,23:39:29,23:39:29,32, Aston Quay,11680.16,60-145-b12-1,145,b12
43562,8250DB002996,"Old Bray Road, stop 2996",53.27076364,-6.167439907,9067.3.60-145-b12-1.330.I,23:40:32,23:40:32,33, Aston Quay,12553.35,60-145-b12-1,145,b12
43563,8250DB003258,"Westminister Grove, stop 3258",53.27254116,-6.171982112,9067.3.60-145-b12-1.330.I,23:40:58,23:40:58,34, Aston Quay,12914.75,60-145-b12-1,145,b12
43564,8250DB002060,"Foxrock Church, stop 2060",53.27395494,-6.175085679,9067.3.60-145-b12-1.330.I,23:41:16,23:41:16,35, Aston Quay,13178.87,60-145-b12-1,145,b12
43565,8250DB002061,"Knocksinna, stop 2061",53.2757586,-6.18018225,9067.3.60-145-b12-1.330.I,23:41:51,23:41:51,36, Aston Quay,13573.96,60-145-b12-1,145,b12
43566,8250DB002062,"Newtownpark Avenue, stop 2062",53.27902411,-6.186851925,9067.3.60-145-b12-1.330.I,23:42:45,23:42:45,37, Aston Quay,14151.39,60-145-b12-1,145,b12
43567,8250DB002063,"Galloping Green, stop 2063",53.28029401,-6.189977519,9067.3.60-145-b12-1.330.I,23:43:04,23:43:04,38, Aston Quay,14402.42,60-145-b12-1,145,b12
43568,8250DB002064,"Brewery Road, stop 2064",53.28272564,-6.193849161,9067.3.60-145-b12-1.330.I,23:43:32,23:43:32,39, Aston Quay,14780.71,60-145-b12-1,145,b12
43569,8250DB002065,"Merville Road, stop 2065",53.28479921,-6.19485659,9067.3.60-145-b12-1.330.I,23:43:48,23:43:48,40, Aston Quay,15019.62,60-145-b12-1,145,b12
43570,8250DB004727,"Laurence Park, stop 4727",53.29081171,-6.19778321,9067.3.60-145-b12-1.330.I,23:45:05,23:45:05,41, Aston Quay,15759.35,60-145-b12-1,145,b12
43571,8250DB004728,"Oatlands College, stop 4728",53.29333789,-6.201982289,9067.3.60-145-b12-1.330.I,23:45:46,23:45:46,42, Aston Quay,16155.36,60-145-b12-1,145,b12
43572,8250DB000461,"Stillorgan Pk Hotel, stop 461",53.2947995,-6.203541111,9067.3.60-145-b12-1.330.I,23:46:06,23:46:06,43, Aston Quay,16345.37,60-145-b12-1,145,b12
43573,8250DB002068,"Greenfield Road, stop 2068",53.29809576,-6.204573003,9067.3.60-145-b12-1.330.I,23:46:41,23:46:41,44, Aston Quay,16717.81,60-145-b12-1,145,b12
43574,8250DB002069,"Booterstown Avenue, stop 2069",53.29977469,-6.205642853,9067.3.60-145-b12-1.330.I,23:47:12,23:47:12,45, Aston Quay,16917.78,60-145-b12-1,145,b12
43575,8250DB002070,"St Thomas Road, stop 2070",53.30306607,-6.208145702,9067.3.60-145-b12-1.330.I,23:47:45,23:47:45,46, Aston Quay,17326.92,60-145-b12-1,145,b12
43576,8250DB002084,"Seafield Road, stop 2084",53.30552676,-6.21159902,9067.3.60-145-b12-1.330.I,23:48:18,23:48:18,47, Aston Quay,17683.85,60-145-b12-1,145,b12
43577,8250DB000768,"UCD Belfield, stop 768",53.30941819,-6.21877483,9067.3.60-145-b12-1.330.I,23:49:19,23:49:19,48, Aston Quay,18332.61,60-145-b12-1,145,b12
43578,8220DB000769,"Belfield Court, stop 769",53.31190109,-6.221327857,9067.3.60-145-b12-1.330.I,23:49:41,23:49:41,49, Aston Quay,18660.17,60-145-b12-1,145,b12
43579,8220DB000770,"RTE, stop 770",53.31463619,-6.225731811,9067.3.60-145-b12-1.330.I,23:50:15,23:50:15,50, Aston Quay,19103.19,60-145-b12-1,145,b12
43580,8220DB000771,"Teresian School, stop 771",53.31588007,-6.227781522,9067.3.60-145-b12-1.330.I,23:50:29,23:50:29,51, Aston Quay,19294.0,60-145-b12-1,145,b12
43581,8220DB000772,"Donnybrook Garage, stop 772",53.31848526,-6.231321064,9067.3.60-145-b12-1.330.I,23:50:57,23:50:57,52, Aston Quay,19667.55,60-145-b12-1,145,b12
43582,8220DB000773,"Donnybrook Road, stop 773",53.31991635,-6.233273319,9067.3.60-145-b12-1.330.I,23:51:15,23:51:15,53, Aston Quay,19870.88,60-145-b12-1,145,b12
43583,8220DB000774,"Donnybrook Garda Stn, stop 774",53.32161212,-6.235499996,9067.3.60-145-b12-1.330.I,23:51:36,23:51:36,54, Aston Quay,20112.76,60-145-b12-1,145,b12
43584,8220DB000775,"Donnybrook Village, stop 775",53.32348971,-6.239085447,9067.3.60-145-b12-1.330.I,23:52:05,23:52:05,55, Aston Quay,20436.6,60-145-b12-1,145,b12
43585,8220DB000776,"Morehampton Terrace, stop 776",53.32547924,-6.241735821,9067.3.60-145-b12-1.330.I,23:52:45,23:52:45,56, Aston Quay,20719.48,60-145-b12-1,145,b12
43586,8220DB000777,"Royal Hospital, stop 777",53.32697216,-6.243626144,9067.3.60-145-b12-1.330.I,23:53:08,23:53:08,57, Aston Quay,20927.81,60-145-b12-1,145,b12
43587,8220DB000906,"Leeson St Upper, stop 906",53.32881077,-6.247634377,9067.3.60-145-b12-1.330.I,23:53:46,23:53:46,58, Aston Quay,21268.54,60-145-b12-1,145,b12
43588,8220DB000907,"Dartmouth Road, stop 907",53.32971936,-6.250750109,9067.3.60-145-b12-1.330.I,23:54:25,23:54:25,59, Aston Quay,21501.82,60-145-b12-1,145,b12
43589,8220DB000908,"Grand Parade, stop 908",53.33115429,-6.252373034,9067.3.60-145-b12-1.330.I,23:54:57,23:54:57,60, Aston Quay,21695.7,60-145-b12-1,145,b12
43590,8220DB000909,"Fitzwilliam Place, stop 909",53.33314766,-6.254078364,9067.3.60-145-b12-1.330.I,23:55:39,23:55:39,61, Aston Quay,21949.13,60-145-b12-1,145,b12
43591,8220DB000786,"Embassy of Malta, stop 786",53.33518155,-6.256097534,9067.3.60-145-b12-1.330.I,23:56:24,23:56:24,62, Aston Quay,22210.37,60-145-b12-1,145,b12
43592,8220DB000792,"Dawson Street, stop 792",53.34044899,-6.258585808,9067.3.60-145-b12-1.330.I,23:59:37,23:59:37,63, Aston Quay,22967.73,60-145-b12-1,145,b12
43593,8220DB007586,"National Gallery, stop 7586",53.34197047,-6.253222288,9067.3.60-145-b12-1.330.I,24:01:22,24:01:22,64, Aston Quay,23509.67,60-145-b12-1,145,b12
43594,8220DB007587,"Science Gallery, stop 7587",53.34445793,-6.25122816,9067.3.60-145-b12-1.330.I,24:03:09,24:03:09,65, Aston Quay,24066.5,60-145-b12-1,145,b12
43595,8220DB007588,"Pearse Street, stop 7588",53.34498499,-6.254075317,9067.3.60-145-b12-1.330.I,24:03:46,24:03:46,66, Aston Quay,24264.89,60-145-b12-1,145,b12
43596,8220DB000325,"Aston Quay, stop 325",53.34669705,-6.25990826,9067.3.60-145-b12-1.330.I,24:05:42,24:05:42,67, Aston Quay,24917.2,60-145-b12-1,145,b12
43597,8350DB004201,"Old Connaught Avenue, stop 4201",53.21112535,-6.117835856,9067.3.60-145-d12-1.330.I,23:29:41,23:29:41,15, Aston Quay,4660.63,60-145-d12-1,145,d12
43598,8250DB004202,"Woodbrook College, stop 4202",53.21600035,-6.11974851,9067.3.60-145-d12-1.330.I,23:30:30,23:30:30,16, Aston Quay,5232.14,60-145-d12-1,145,d12
43599,8250DB004203,"St James's Church, stop 4203",53.2197606,-6.120512294,9067.3.60-145-d12-1.330.I,23:31:09,23:31:09,17, Aston Quay,5657.98,60-145-d12-1,145,d12
43600,8250DB005090,"Shanganagh Cemetery, stop 5090",53.22170381,-6.121760115,9067.3.60-145-d12-1.330.I,23:31:23,23:31:23,18, Aston Quay,5893.7,60-145-d12-1,145,d12
43601,8250DB004204,"Shanganagh Castle, stop 4204",53.22332409,-6.12362126,9067.3.60-145-d12-1.330.I,23:31:36,23:31:36,19, Aston Quay,6113.34,60-145-d12-1,145,d12
43602,8250DB004205,"Crinken Lane, stop 4205",53.22453947,-6.124886148,9067.3.60-145-d12-1.330.I,23:31:46,23:31:46,20, Aston Quay,6272.1,60-145-d12-1,145,d12
43603,8250DB004206,"Claremount, stop 4206",53.22750292,-6.124711709,9067.3.60-145-d12-1.330.I,23:32:25,23:32:25,21, Aston Quay,6606.83,60-145-d12-1,145,d12
43604,8250DB003140,"Stonebridge Close, stop 3140",53.2297601,-6.124208608,9067.3.60-145-d12-1.330.I,23:32:56,23:32:56,22, Aston Quay,6868.73,60-145-d12-1,145,d12
43605,8250DB003141,"Station Road, stop 3141",53.23455658,-6.125137439,9067.3.60-145-d12-1.330.I,23:33:57,23:33:57,23, Aston Quay,7432.3,60-145-d12-1,145,d12
43606,8250DB003142,"Kentfield, stop 3142",53.2380654,-6.12763594,9067.3.60-145-d12-1.330.I,23:34:34,23:34:34,24, Aston Quay,7863.69,60-145-d12-1,145,d12
43607,8250DB003143,"St Columcille's Hosp, stop 3143",53.24269051,-6.130820383,9067.3.60-145-d12-1.330.I,23:35:28,23:35:28,25, Aston Quay,8478.67,60-145-d12-1,145,d12
43608,8250DB003144,"Cherrywood Road, stop 3144",53.24569052,-6.135275018,9067.3.60-145-d12-1.330.I,23:36:02,23:36:02,26, Aston Quay,8930.37,60-145-d12-1,145,d12
43609,8250DB003145,"Willow Court, stop 3145",53.24792099,-6.13823511,9067.3.60-145-d12-1.330.I,23:36:25,23:36:25,27, Aston Quay,9247.7,60-145-d12-1,145,d12
43610,8250DB003146,"St Laurence College, stop 3146",53.25084385,-6.14179493,9067.3.60-145-d12-1.330.I,23:36:55,23:36:55,28, Aston Quay,9649.17,60-145-d12-1,145,d12
43611,8250DB003147,"Kilbogget Grove, stop 3147",53.25526992,-6.145500025,9067.3.60-145-d12-1.330.I,23:37:30,23:37:30,29, Aston Quay,10198.15,60-145-d12-1,145,d12
43612,8250DB003148,"Shrewsbury Lawn, stop 3148",53.25873662,-6.146474241,9067.3.60-145-d12-1.330.I,23:37:54,23:37:54,30, Aston Quay,10590.0,60-145-d12-1,145,d12
43613,8250DB005127,"Cabinteely Bypass, stop 5127",53.2620156,-6.150409883,9067.3.60-145-d12-1.330.I,23:38:42,23:38:42,31, Aston Quay,11055.81,60-145-d12-1,145,d12
43614,8250DB005128,"Clonkeen Road, stop 5128",53.2655267,-6.157739276,9067.3.60-145-d12-1.330.I,23:39:29,23:39:29,32, Aston Quay,11680.16,60-145-d12-1,145,d12
43615,8250DB002996,"Old Bray Road, stop 2996",53.27076364,-6.167439907,9067.3.60-145-d12-1.330.I,23:40:32,23:40:32,33, Aston Quay,12553.35,60-145-d12-1,145,d12
43616,8250DB003258,"Westminister Grove, stop 3258",53.27254116,-6.171982112,9067.3.60-145-d12-1.330.I,23:40:58,23:40:58,34, Aston Quay,12914.75,60-145-d12-1,145,d12
43617,8250DB002060,"Foxrock Church, stop 2060",53.27395494,-6.175085679,9067.3.60-145-d12-1.330.I,23:41:16,23:41:16,35, Aston Quay,13178.87,60-145-d12-1,145,d12
43618,8250DB002061,"Knocksinna, stop 2061",53.2757586,-6.18018225,9067.3.60-145-d12-1.330.I,23:41:51,23:41:51,36, Aston Quay,13573.96,60-145-d12-1,145,d12
43619,8250DB002062,"Newtownpark Avenue, stop 2062",53.27902411,-6.186851925,9067.3.60-145-d12-1.330.I,23:42:45,23:42:45,37, Aston Quay,14151.39,60-145-d12-1,145,d12
43620,8250DB002063,"Galloping Green, stop 2063",53.28029401,-6.189977519,9067.3.60-145-d12-1.330.I,23:43:04,23:43:04,38, Aston Quay,14402.42,60-145-d12-1,145,d12
43621,8250DB002064,"Brewery Road, stop 2064",53.28272564,-6.193849161,9067.3.60-145-d12-1.330.I,23:43:32,23:43:32,39, Aston Quay,14780.71,60-145-d12-1,145,d12
43622,8250DB002065,"Merville Road, stop 2065",53.28479921,-6.19485659,9067.3.60-145-d12-1.330.I,23:43:48,23:43:48,40, Aston Quay,15019.62,60-145-d12-1,145,d12
43623,8250DB004727,"Laurence Park, stop 4727",53.29081171,-6.19778321,9067.3.60-145-d12-1.330.I,23:45:05,23:45:05,41, Aston Quay,15759.35,60-145-d12-1,145,d12
43624,8250DB004728,"Oatlands College, stop 4728",53.29333789,-6.201982289,9067.3.60-145-d12-1.330.I,23:45:46,23:45:46,42, Aston Quay,16155.36,60-145-d12-1,145,d12
43625,8250DB000461,"Stillorgan Pk Hotel, stop 461",53.2947995,-6.203541111,9067.3.60-145-d12-1.330.I,23:46:06,23:46:06,43, Aston Quay,16345.37,60-145-d12-1,145,d12
43626,8250DB002068,"Greenfield Road, stop 2068",53.29809576,-6.204573003,9067.3.60-145-d12-1.330.I,23:46:41,23:46:41,44, Aston Quay,16717.81,60-145-d12-1,145,d12
43627,8250DB002069,"Booterstown Avenue, stop 2069",53.29977469,-6.205642853,9067.3.60-145-d12-1.330.I,23:47:12,23:47:12,45, Aston Quay,16917.78,60-145-d12-1,145,d12
43628,8250DB002070,"St Thomas Road, stop 2070",53.30306607,-6.208145702,9067.3.60-145-d12-1.330.I,23:47:45,23:47:45,46, Aston Quay,17326.92,60-145-d12-1,145,d12
43629,8250DB002084,"Seafield Road, stop 2084",53.30552676,-6.21159902,9067.3.60-145-d12-1.330.I,23:48:18,23:48:18,47, Aston Quay,17683.85,60-145-d12-1,145,d12
43630,8250DB000768,"UCD Belfield, stop 768",53.30941819,-6.21877483,9067.3.60-145-d12-1.330.I,23:49:19,23:49:19,48, Aston Quay,18332.61,60-145-d12-1,145,d12
43631,8220DB000769,"Belfield Court, stop 769",53.31190109,-6.221327857,9067.3.60-145-d12-1.330.I,23:49:41,23:49:41,49, Aston Quay,18660.17,60-145-d12-1,145,d12
43632,8220DB000770,"RTE, stop 770",53.31463619,-6.225731811,9067.3.60-145-d12-1.330.I,23:50:15,23:50:15,50, Aston Quay,19103.19,60-145-d12-1,145,d12
43633,8220DB000771,"Teresian School, stop 771",53.31588007,-6.227781522,9067.3.60-145-d12-1.330.I,23:50:29,23:50:29,51, Aston Quay,19294.0,60-145-d12-1,145,d12
43634,8220DB000772,"Donnybrook Garage, stop 772",53.31848526,-6.231321064,9067.3.60-145-d12-1.330.I,23:50:57,23:50:57,52, Aston Quay,19667.55,60-145-d12-1,145,d12
43635,8220DB000773,"Donnybrook Road, stop 773",53.31991635,-6.233273319,9067.3.60-145-d12-1.330.I,23:51:15,23:51:15,53, Aston Quay,19870.88,60-145-d12-1,145,d12
43636,8220DB000774,"Donnybrook Garda Stn, stop 774",53.32161212,-6.235499996,9067.3.60-145-d12-1.330.I,23:51:36,23:51:36,54, Aston Quay,20112.76,60-145-d12-1,145,d12
43637,8220DB000775,"Donnybrook Village, stop 775",53.32348971,-6.239085447,9067.3.60-145-d12-1.330.I,23:52:05,23:52:05,55, Aston Quay,20436.6,60-145-d12-1,145,d12
43638,8220DB000776,"Morehampton Terrace, stop 776",53.32547924,-6.241735821,9067.3.60-145-d12-1.330.I,23:52:45,23:52:45,56, Aston Quay,20719.48,60-145-d12-1,145,d12
43639,8220DB000777,"Royal Hospital, stop 777",53.32697216,-6.243626144,9067.3.60-145-d12-1.330.I,23:53:08,23:53:08,57, Aston Quay,20927.81,60-145-d12-1,145,d12
43640,8220DB000906,"Leeson St Upper, stop 906",53.32881077,-6.247634377,9067.3.60-145-d12-1.330.I,23:53:46,23:53:46,58, Aston Quay,21268.54,60-145-d12-1,145,d12
43641,8220DB000907,"Dartmouth Road, stop 907",53.32971936,-6.250750109,9067.3.60-145-d12-1.330.I,23:54:25,23:54:25,59, Aston Quay,21501.82,60-145-d12-1,145,d12
43642,8220DB000908,"Grand Parade, stop 908",53.33115429,-6.252373034,9067.3.60-145-d12-1.330.I,23:54:57,23:54:57,60, Aston Quay,21695.7,60-145-d12-1,145,d12
43643,8220DB000909,"Fitzwilliam Place, stop 909",53.33314766,-6.254078364,9067.3.60-145-d12-1.330.I,23:55:39,23:55:39,61, Aston Quay,21949.13,60-145-d12-1,145,d12
43644,8220DB000786,"Embassy of Malta, stop 786",53.33518155,-6.256097534,9067.3.60-145-d12-1.330.I,23:56:24,23:56:24,62, Aston Quay,22210.37,60-145-d12-1,145,d12
43645,8220DB000792,"Dawson Street, stop 792",53.34044899,-6.258585808,9067.3.60-145-d12-1.330.I,23:59:37,23:59:37,63, Aston Quay,22967.73,60-145-d12-1,145,d12
43646,8220DB007586,"National Gallery, stop 7586",53.34197047,-6.253222288,9067.3.60-145-d12-1.330.I,24:01:22,24:01:22,64, Aston Quay,23509.67,60-145-d12-1,145,d12
43647,8220DB007587,"Science Gallery, stop 7587",53.34445793,-6.25122816,9067.3.60-145-d12-1.330.I,24:03:09,24:03:09,65, Aston Quay,24066.5,60-145-d12-1,145,d12
43648,8220DB007588,"Pearse Street, stop 7588",53.34498499,-6.254075317,9067.3.60-145-d12-1.330.I,24:03:46,24:03:46,66, Aston Quay,24264.89,60-145-d12-1,145,d12
43649,8220DB000325,"Aston Quay, stop 325",53.34669705,-6.25990826,9067.3.60-145-d12-1.330.I,24:05:42,24:05:42,67, Aston Quay,24917.2,60-145-d12-1,145,d12
46472,8350DB004201,"Old Connaught Avenue, stop 4201",53.21112535,-6.117835856,9842.3.60-145-b12-1.330.I,23:09:41,23:09:41,15, Aston Quay,4660.63,60-145-b12-1,145,b12
46473,8250DB004202,"Woodbrook College, stop 4202",53.21600035,-6.11974851,9842.3.60-145-b12-1.330.I,23:10:30,23:10:30,16, Aston Quay,5232.14,60-145-b12-1,145,b12
46474,8250DB004203,"St James's Church, stop 4203",53.2197606,-6.120512294,9842.3.60-145-b12-1.330.I,23:11:09,23:11:09,17, Aston Quay,5657.98,60-145-b12-1,145,b12
46475,8250DB005090,"Shanganagh Cemetery, stop 5090",53.22170381,-6.121760115,9842.3.60-145-b12-1.330.I,23:11:23,23:11:23,18, Aston Quay,5893.7,60-145-b12-1,145,b12
46476,8250DB004204,"Shanganagh Castle, stop 4204",53.22332409,-6.12362126,9842.3.60-145-b12-1.330.I,23:11:36,23:11:36,19, Aston Quay,6113.34,60-145-b12-1,145,b12
46477,8250DB004205,"Crinken Lane, stop 4205",53.22453947,-6.124886148,9842.3.60-145-b12-1.330.I,23:11:46,23:11:46,20, Aston Quay,6272.1,60-145-b12-1,145,b12
46478,8250DB004206,"Claremount, stop 4206",53.22750292,-6.124711709,9842.3.60-145-b12-1.330.I,23:12:25,23:12:25,21, Aston Quay,6606.83,60-145-b12-1,145,b12
46479,8250DB003140,"Stonebridge Close, stop 3140",53.2297601,-6.124208608,9842.3.60-145-b12-1.330.I,23:12:56,23:12:56,22, Aston Quay,6868.73,60-145-b12-1,145,b12
46480,8250DB003141,"Station Road, stop 3141",53.23455658,-6.125137439,9842.3.60-145-b12-1.330.I,23:13:57,23:13:57,23, Aston Quay,7432.3,60-145-b12-1,145,b12
46481,8250DB003142,"Kentfield, stop 3142",53.2380654,-6.12763594,9842.3.60-145-b12-1.330.I,23:14:34,23:14:34,24, Aston Quay,7863.69,60-145-b12-1,145,b12
46482,8250DB003143,"St Columcille's Hosp, stop 3143",53.24269051,-6.130820383,9842.3.60-145-b12-1.330.I,23:15:28,23:15:28,25, Aston Quay,8478.67,60-145-b12-1,145,b12
46483,8250DB003144,"Cherrywood Road, stop 3144",53.24569052,-6.135275018,9842.3.60-145-b12-1.330.I,23:16:02,23:16:02,26, Aston Quay,8930.37,60-145-b12-1,145,b12
46484,8250DB003145,"Willow Court, stop 3145",53.24792099,-6.13823511,9842.3.60-145-b12-1.330.I,23:16:25,23:16:25,27, Aston Quay,9247.7,60-145-b12-1,145,b12
46485,8250DB003146,"St Laurence College, stop 3146",53.25084385,-6.14179493,9842.3.60-145-b12-1.330.I,23:16:55,23:16:55,28, Aston Quay,9649.17,60-145-b12-1,145,b12
46486,8250DB003147,"Kilbogget Grove, stop 3147",53.25526992,-6.145500025,9842.3.60-145-b12-1.330.I,23:17:30,23:17:30,29, Aston Quay,10198.15,60-145-b12-1,145,b12
46487,8250DB003148,"Shrewsbury Lawn, stop 3148",53.25873662,-6.146474241,9842.3.60-145-b12-1.330.I,23:17:54,23:17:54,30, Aston Quay,10590.0,60-145-b12-1,145,b12
46488,8250DB005127,"Cabinteely Bypass, stop 5127",53.2620156,-6.150409883,9842.3.60-145-b12-1.330.I,23:18:42,23:18:42,31, Aston Quay,11055.81,60-145-b12-1,145,b12
46489,8250DB005128,"Clonkeen Road, stop 5128",53.2655267,-6.157739276,9842.3.60-145-b12-1.330.I,23:19:29,23:19:29,32, Aston Quay,11680.16,60-145-b12-1,145,b12
46490,8250DB002996,"Old Bray Road, stop 2996",53.27076364,-6.167439907,9842.3.60-145-b12-1.330.I,23:20:32,23:20:32,33, Aston Quay,12553.35,60-145-b12-1,145,b12
46491,8250DB003258,"Westminister Grove, stop 3258",53.27254116,-6.171982112,9842.3.60-145-b12-1.330.I,23:20:58,23:20:58,34, Aston Quay,12914.75,60-145-b12-1,145,b12
46492,8250DB002060,"Foxrock Church, stop 2060",53.27395494,-6.175085679,9842.3.60-145-b12-1.330.I,23:21:16,23:21:16,35, Aston Quay,13178.87,60-145-b12-1,145,b12
46493,8250DB002061,"Knocksinna, stop 2061",53.2757586,-6.18018225,9842.3.60-145-b12-1.330.I,23:21:51,23:21:51,36, Aston Quay,13573.96,60-145-b12-1,145,b12
46494,8250DB002062,"Newtownpark Avenue, stop 2062",53.27902411,-6.186851925,9842.3.60-145-b12-1.330.I,23:22:45,23:22:45,37, Aston Quay,14151.39,60-145-b12-1,145,b12
46495,8250DB002063,"Galloping Green, stop 2063",53.28029401,-6.189977519,9842.3.60-145-b12-1.330.I,23:23:04,23:23:04,38, Aston Quay,14402.42,60-145-b12-1,145,b12
46496,8250DB002064,"Brewery Road, stop 2064",53.28272564,-6.193849161,9842.3.60-145-b12-1.330.I,23:23:32,23:23:32,39, Aston Quay,14780.71,60-145-b12-1,145,b12
46497,8250DB002065,"Merville Road, stop 2065",53.28479921,-6.19485659,9842.3.60-145-b12-1.330.I,23:23:48,23:23:48,40, Aston Quay,15019.62,60-145-b12-1,145,b12
46498,8250DB004727,"Laurence Park, stop 4727",53.29081171,-6.19778321,9842.3.60-145-b12-1.330.I,23:25:05,23:25:05,41, Aston Quay,15759.35,60-145-b12-1,145,b12
46499,8250DB004728,"Oatlands College, stop 4728",53.29333789,-6.201982289,9842.3.60-145-b12-1.330.I,23:25:46,23:25:46,42, Aston Quay,16155.36,60-145-b12-1,145,b12
46500,8250DB000461,"Stillorgan Pk Hotel, stop 461",53.2947995,-6.203541111,9842.3.60-145-b12-1.330.I,23:26:06,23:26:06,43, Aston Quay,16345.37,60-145-b12-1,145,b12
46501,8250DB002068,"Greenfield Road, stop 2068",53.29809576,-6.204573003,9842.3.60-145-b12-1.330.I,23:26:41,23:26:41,44, Aston Quay,16717.81,60-145-b12-1,145,b12
46502,8250DB002069,"Booterstown Avenue, stop 2069",53.29977469,-6.205642853,9842.3.60-145-b12-1.330.I,23:27:12,23:27:12,45, Aston Quay,16917.78,60-145-b12-1,145,b12
46503,8250DB002070,"St Thomas Road, stop 2070",53.30306607,-6.208145702,9842.3.60-145-b12-1.330.I,23:27:45,23:27:45,46, Aston Quay,17326.92,60-145-b12-1,145,b12
46504,8250DB002084,"Seafield Road, stop 2084",53.30552676,-6.21159902,9842.3.60-145-b12-1.330.I,23:28:18,23:28:18,47, Aston Quay,17683.85,60-145-b12-1,145,b12
46505,8250DB000768,"UCD Belfield, stop 768",53.30941819,-6.21877483,9842.3.60-145-b12-1.330.I,23:29:19,23:29:19,48, Aston Quay,18332.61,60-145-b12-1,145,b12
46506,8220DB000769,"Belfield Court, stop 769",53.31190109,-6.221327857,9842.3.60-145-b12-1.330.I,23:29:41,23:29:41,49, Aston Quay,18660.17,60-145-b12-1,145,b12
46507,8220DB000770,"RTE, stop 770",53.31463619,-6.225731811,9842.3.60-145-b12-1.330.I,23:30:15,23:30:15,50, Aston Quay,19103.19,60-145-b12-1,145,b12
46508,8220DB000771,"Teresian School, stop 771",53.31588007,-6.227781522,9842.3.60-145-b12-1.330.I,23:30:29,23:30:29,51, Aston Quay,19294.0,60-145-b12-1,145,b12
46509,8220DB000772,"Donnybrook Garage, stop 772",53.31848526,-6.231321064,9842.3.60-145-b12-1.330.I,23:30:57,23:30:57,52, Aston Quay,19667.55,60-145-b12-1,145,b12
46510,8220DB000773,"Donnybrook Road, stop 773",53.31991635,-6.233273319,9842.3.60-145-b12-1.330.I,23:31:15,23:31:15,53, Aston Quay,19870.88,60-145-b12-1,145,b12
46511,8220DB000774,"Donnybrook Garda Stn, stop 774",53.32161212,-6.235499996,9842.3.60-145-b12-1.330.I,23:31:36,23:31:36,54, Aston Quay,20112.76,60-145-b12-1,145,b12
46512,8220DB000775,"Donnybrook Village, stop 775",53.32348971,-6.239085447,9842.3.60-145-b12-1.330.I,23:32:05,23:32:05,55, Aston Quay,20436.6,60-145-b12-1,145,b12
46513,8220DB000776,"Morehampton Terrace, stop 776",53.32547924,-6.241735821,9842.3.60-145-b12-1.330.I,23:32:45,23:32:45,56, Aston Quay,20719.48,60-145-b12-1,145,b12
46514,8220DB000777,"Royal Hospital, stop 777",53.32697216,-6.243626144,9842.3.60-145-b12-1.330.I,23:33:08,23:33:08,57, Aston Quay,20927.81,60-145-b12-1,145,b12
46515,8220DB000906,"Leeson St Upper, stop 906",53.32881077,-6.247634377,9842.3.60-145-b12-1.330.I,23:33:46,23:33:46,58, Aston Quay,21268.54,60-145-b12-1,145,b12
46516,8220DB000907,"Dartmouth Road, stop 907",53.32971936,-6.250750109,9842.3.60-145-b12-1.330.I,23:34:25,23:34:25,59, Aston Quay,21501.82,60-145-b12-1,145,b12
46517,8220DB000908,"Grand Parade, stop 908",53.33115429,-6.252373034,9842.3.60-145-b12-1.330.I,23:34:57,23:34:57,60, Aston Quay,21695.7,60-145-b12-1,145,b12
46518,8220DB000909,"Fitzwilliam Place, stop 909",53.33314766,-6.254078364,9842.3.60-145-b12-1.330.I,23:35:39,23:35:39,61, Aston Quay,21949.13,60-145-b12-1,145,b12
46519,8220DB000786,"Embassy of Malta, stop 786",53.33518155,-6.256097534,9842.3.60-145-b12-1.330.I,23:36:24,23:36:24,62, Aston Quay,22210.37,60-145-b12-1,145,b12
46520,8220DB000792,"Dawson Street, stop 792",53.34044899,-6.258585808,9842.3.60-145-b12-1.330.I,23:39:37,23:39:37,63, Aston Quay,22967.73,60-145-b12-1,145,b12
46521,8220DB007586,"National Gallery, stop 7586",53.34197047,-6.253222288,9842.3.60-145-b12-1.330.I,23:41:22,23:41:22,64, Aston Quay,23509.67,60-145-b12-1,145,b12
46522,8220DB007587,"Science Gallery, stop 7587",53.34445793,-6.25122816,9842.3.60-145-b12-1.330.I,23:43:09,23:43:09,65, Aston Quay,24066.5,60-145-b12-1,145,b12
46523,8220DB007588,"Pearse Street, stop 7588",53.34498499,-6.254075317,9842.3.60-145-b12-1.330.I,23:43:46,23:43:46,66, Aston Quay,24264.89,60-145-b12-1,145,b12
46524,8220DB000325,"Aston Quay, stop 325",53.34669705,-6.25990826,9842.3.60-145-b12-1.330.I,23:45:42,23:45:42,67, Aston Quay,24917.2,60-145-b12-1,145,b12
46525,8350DB004201,"Old Connaught Avenue, stop 4201",53.21112535,-6.117835856,9842.3.60-145-d12-1.330.I,23:09:41,23:09:41,15, Aston Quay,4660.63,60-145-d12-1,145,d12
46526,8250DB004202,"Woodbrook College, stop 4202",53.21600035,-6.11974851,9842.3.60-145-d12-1.330.I,23:10:30,23:10:30,16, Aston Quay,5232.14,60-145-d12-1,145,d12
46527,8250DB004203,"St James's Church, stop 4203",53.2197606,-6.120512294,9842.3.60-145-d12-1.330.I,23:11:09,23:11:09,17, Aston Quay,5657.98,60-145-d12-1,145,d12
46528,8250DB005090,"Shanganagh Cemetery, stop 5090",53.22170381,-6.121760115,9842.3.60-145-d12-1.330.I,23:11:23,23:11:23,18, Aston Quay,5893.7,60-145-d12-1,145,d12
46529,8250DB004204,"Shanganagh Castle, stop 4204",53.22332409,-6.12362126,9842.3.60-145-d12-1.330.I,23:11:36,23:11:36,19, Aston Quay,6113.34,60-145-d12-1,145,d12
46530,8250DB004205,"Crinken Lane, stop 4205",53.22453947,-6.124886148,9842.3.60-145-d12-1.330.I,23:11:46,23:11:46,20, Aston Quay,6272.1,60-145-d12-1,145,d12
46531,8250DB004206,"Claremount, stop 4206",53.22750292,-6.124711709,9842.3.60-145-d12-1.330.I,23:12:25,23:12:25,21, Aston Quay,6606.83,60-145-d12-1,145,d12
46532,8250DB003140,"Stonebridge Close, stop 3140",53.2297601,-6.124208608,9842.3.60-145-d12-1.330.I,23:12:56,23:12:56,22, Aston Quay,6868.73,60-145-d12-1,145,d12
46533,8250DB003141,"Station Road, stop 3141",53.23455658,-6.125137439,9842.3.60-145-d12-1.330.I,23:13:57,23:13:57,23, Aston Quay,7432.3,60-145-d12-1,145,d12
46534,8250DB003142,"Kentfield, stop 3142",53.2380654,-6.12763594,9842.3.60-145-d12-1.330.I,23:14:34,23:14:34,24, Aston Quay,7863.69,60-145-d12-1,145,d12
46535,8250DB003143,"St Columcille's Hosp, stop 3143",53.24269051,-6.130820383,9842.3.60-145-d12-1.330.I,23:15:28,23:15:28,25, Aston Quay,8478.67,60-145-d12-1,145,d12
46536,8250DB003144,"Cherrywood Road, stop 3144",53.24569052,-6.135275018,9842.3.60-145-d12-1.330.I,23:16:02,23:16:02,26, Aston Quay,8930.37,60-145-d12-1,145,d12
46537,8250DB003145,"Willow Court, stop 3145",53.24792099,-6.13823511,9842.3.60-145-d12-1.330.I,23:16:25,23:16:25,27, Aston Quay,9247.7,60-145-d12-1,145,d12
46538,8250DB003146,"St Laurence College, stop 3146",53.25084385,-6.14179493,9842.3.60-145-d12-1.330.I,23:16:55,23:16:55,28, Aston Quay,9649.17,60-145-d12-1,145,d12
46539,8250DB003147,"Kilbogget Grove, stop 3147",53.25526992,-6.145500025,9842.3.60-145-d12-1.330.I,23:17:30,23:17:30,29, Aston Quay,10198.15,60-145-d12-1,145,d12
46540,8250DB003148,"Shrewsbury Lawn, stop 3148",53.25873662,-6.146474241,9842.3.60-145-d12-1.330.I,23:17:54,23:17:54,30, Aston Quay,10590.0,60-145-d12-1,145,d12
46541,8250DB005127,"Cabinteely Bypass, stop 5127",53.2620156,-6.150409883,9842.3.60-145-d12-1.330.I,23:18:42,23:18:42,31, Aston Quay,11055.81,60-145-d12-1,145,d12
46542,8250DB005128,"Clonkeen Road, stop 5128",53.2655267,-6.157739276,9842.3.60-145-d12-1.330.I,23:19:29,23:19:29,32, Aston Quay,11680.16,60-145-d12-1,145,d12
46543,8250DB002996,"Old Bray Road, stop 2996",53.27076364,-6.167439907,9842.3.60-145-d12-1.330.I,23:20:32,23:20:32,33, Aston Quay,12553.35,60-145-d12-1,145,d12
46544,8250DB003258,"Westminister Grove, stop 3258",53.27254116,-6.171982112,9842.3.60-145-d12-1.330.I,23:20:58,23:20:58,34, Aston Quay,12914.75,60-145-d12-1,145,d12
46545,8250DB002060,"Foxrock Church, stop 2060",53.27395494,-6.175085679,9842.3.60-145-d12-1.330.I,23:21:16,23:21:16,35, Aston Quay,13178.87,60-145-d12-1,145,d12
46546,8250DB002061,"Knocksinna, stop 2061",53.2757586,-6.18018225,9842.3.60-145-d12-1.330.I,23:21:51,23:21:51,36, Aston Quay,13573.96,60-145-d12-1,145,d12
46547,8250DB002062,"Newtownpark Avenue, stop 2062",53.27902411,-6.186851925,9842.3.60-145-d12-1.330.I,23:22:45,23:22:45,37, Aston Quay,14151.39,60-145-d12-1,145,d12
46548,8250DB002063,"Galloping Green, stop 2063",53.28029401,-6.189977519,9842.3.60-145-d12-1.330.I,23:23:04,23:23:04,38, Aston Quay,14402.42,60-145-d12-1,145,d12
46549,8250DB002064,"Brewery Road, stop 2064",53.28272564,-6.193849161,9842.3.60-145-d12-1.330.I,23:23:32,23:23:32,39, Aston Quay,14780.71,60-145-d12-1,145,d12
46550,8250DB002065,"Merville Road, stop 2065",53.28479921,-6.19485659,9842.3.60-145-d12-1.330.I,23:23:48,23:23:48,40, Aston Quay,15019.62,60-145-d12-1,145,d12
46551,8250DB004727,"Laurence Park, stop 4727",53.29081171,-6.19778321,9842.3.60-145-d12-1.330.I,23:25:05,23:25:05,41, Aston Quay,15759.35,60-145-d12-1,145,d12
46552,8250DB004728,"Oatlands College, stop 4728",53.29333789,-6.201982289,9842.3.60-145-d12-1.330.I,23:25:46,23:25:46,42, Aston Quay,16155.36,60-145-d12-1,145,d12
46553,8250DB000461,"Stillorgan Pk Hotel, stop 461",53.2947995,-6.203541111,9842.3.60-145-d12-1.330.I,23:26:06,23:26:06,43, Aston Quay,16345.37,60-145-d12-1,145,d12
46554,8250DB002068,"Greenfield Road, stop 2068",53.29809576,-6.204573003,9842.3.60-145-d12-1.330.I,23:26:41,23:26:41,44, Aston Quay,16717.81,60-145-d12-1,145,d12
46555,8250DB002069,"Booterstown Avenue, stop 2069",53.29977469,-6.205642853,9842.3.60-145-d12-1.330.I,23:27:12,23:27:12,45, Aston Quay,16917.78,60-145-d12-1,145,d12
46556,8250DB002070,"St Thomas Road, stop 2070",53.30306607,-6.208145702,9842.3.60-145-d12-1.330.I,23:27:45,23:27:45,46, Aston Quay,17326.92,60-145-d12-1,145,d12
46557,8250DB002084,"Seafield Road, stop 2084",53.30552676,-6.21159902,9842.3.60-145-d12-1.330.I,23:28:18,23:28:18,47, Aston Quay,17683.85,60-145-d12-1,145,d12
46558,8250DB000768,"UCD Belfield, stop 768",53.30941819,-6.21877483,9842.3.60-145-d12-1.330.I,23:29:19,23:29:19,48, Aston Quay,18332.61,60-145-d12-1,145,d12
46559,8220DB000769,"Belfield Court, stop 769",53.31190109,-6.221327857,9842.3.60-145-d12-1.330.I,23:29:41,23:29:41,49, Aston Quay,18660.17,60-145-d12-1,145,d12
46560,8220DB000770,"RTE, stop 770",53.31463619,-6.225731811,9842.3.60-145-d12-1.330.I,23:30:15,23:30:15,50, Aston Quay,19103.19,60-145-d12-1,145,d12
46561,8220DB000771,"Teresian School, stop 771",53.31588007,-6.227781522,9842.3.60-145-d12-1.330.I,23:30:29,23:30:29,51, Aston Quay,19294.0,60-145-d12-1,145,d12
46562,8220DB000772,"Donnybrook Garage, stop 772",53.31848526,-6.231321064,9842.3.60-145-d12-1.330.I,23:30:57,23:30:57,52, Aston Quay,19667.55,60-145-d12-1,145,d12
46563,8220DB000773,"Donnybrook Road, stop 773",53.31991635,-6.233273319,9842.3.60-145-d12-1.330.I,23:31:15,23:31:15,53, Aston Quay,19870.88,60-145-d12-1,145,d12
46564,8220DB000774,"Donnybrook Garda Stn, stop 774",53.32161212,-6.235499996,9842.3.60-145-d12-1.330.I,23:31:36,23:31:36,54, Aston Quay,20112.76,60-145-d12-1,145,d12
46565,8220DB000775,"Donnybrook Village, stop 775",53.32348971,-6.239085447,9842.3.60-145-d12-1.330.I,23:32:05,23:32:05,55, Aston Quay,20436.6,60-145-d12-1,145,d12
46566,8220DB000776,"Morehampton Terrace, stop 776",53.32547924,-6.241735821,9842.3.60-145-d12-1.330.I,23:32:45,23:32:45,56, Aston Quay,20719.48,60-145-d12-1,145,d12
46567,8220DB000777,"Royal Hospital, stop 777",53.32697216,-6.243626144,9842.3.60-145-d12-1.330.I,23:33:08,23:33:08,57, Aston Quay,20927.81,60-145-d12-1,145,d12
46568,8220DB000906,"Leeson St Upper, stop 906",53.32881077,-6.247634377,9842.3.60-145-d12-1.330.I,23:33:46,23:33:46,58, Aston Quay,21268.54,60-145-d12-1,145,d12
46569,8220DB000907,"Dartmouth Road, stop 907",53.32971936,-6.250750109,9842.3.60-145-d12-1.330.I,23:34:25,23:34:25,59, Aston Quay,21501.82,60-145-d12-1,145,d12
46570,8220DB000908,"Grand Parade, stop 908",53.33115429,-6.252373034,9842.3.60-145-d12-1.330.I,23:34:57,23:34:57,60, Aston Quay,21695.7,60-145-d12-1,145,d12
46571,8220DB000909,"Fitzwilliam Place, stop 909",53.33314766,-6.254078364,9842.3.60-145-d12-1.330.I,23:35:39,23:35:39,61, Aston Quay,21949.13,60-145-d12-1,145,d12
46572,8220DB000786,"Embassy of Malta, stop 786",53.33518155,-6.256097534,9842.3.60-145-d12-1.330.I,23:36:24,23:36:24,62, Aston Quay,22210.37,60-145-d12-1,145,d12
46573,8220DB000792,"Dawson Street, stop 792",53.34044899,-6.258585808,9842.3.60-145-d12-1.330.I,23:39:37,23:39:37,63, Aston Quay,22967.73,60-145-d12-1,145,d12
46574,8220DB007586,"National Gallery, stop 7586",53.34197047,-6.253222288,9842.3.60-145-d12-1.330.I,23:41:22,23:41:22,64, Aston Quay,23509.67,60-145-d12-1,145,d12
46575,8220DB007587,"Science Gallery, stop 7587",53.34445793,-6.25122816,9842.3.60-145-d12-1.330.I,23:43:09,23:43:09,65, Aston Quay,24066.5,60-145-d12-1,145,d12
46576,8220DB007588,"Pearse Street, stop 7588",53.34498499,-6.254075317,9842.3.60-145-d12-1.330.I,23:43:46,23:43:46,66, Aston Quay,24264.89,60-145-d12-1,145,d12
46577,8220DB000325,"Aston Quay, stop 325",53.34669705,-6.25990826,9842.3.60-145-d12-1.330.I,23:45:42,23:45:42,67, Aston Quay,24917.2,60-145-d12-1,145,d12
