Index,stop_id,stop_name,stop_lat,stop_lon,trip_id,arrival_time,departure_time,stop_sequence,stop_headsign,shape_dist_traveled,route_id,customer_route_name,project_subnet
0,8220DB004320,"Heuston Station, stop 4320",53.34664066,-6.292083514,15296.2.60-145-b12-1.328.O,08:30:00,08:30:00,1, Ballywaltrim,0.0,60-145-b12-1,145,b12
1,8220DB001476,"Sarsfield Quay, stop 1476",53.34707369,-6.284676275,15296.2.60-145-b12-1.328.O,08:31:48,08:31:48,3, Ballywaltrim,616.4,60-145-b12-1,145,b12
2,8220DB007453,"Arran Quay, stop 7453",53.34633589,-6.278382504,15296.2.60-145-b12-1.328.O,08:33:03,08:33:03,4, Ballywaltrim,1041.85,60-145-b12-1,145,b12
3,8220DB001478,"Four Courts, stop 1478",53.3456082,-6.272809481,15296.2.60-145-b12-1.328.O,08:34:36,08:34:36,5, Ballywaltrim,1424.43,60-145-b12-1,145,b12
4,8220DB001479,"Ormond Quay, stop 1479",53.34598809,-6.268633628,15296.2.60-145-b12-1.328.O,08:35:49,08:35:49,6, Ballywaltrim,1707.58,60-145-b12-1,145,b12
5,8220DB007622,"Bachelors Walk, stop 7622",53.34706992,-6.261440158,15296.2.60-145-b12-1.328.O,08:38:29,08:38:29,7, Ballywaltrim,2203.58,60-145-b12-1,145,b12
6,8220DB000334,"D'Olier Street, stop 334",53.34658116,-6.258125591,15296.2.60-145-b12-1.328.O,08:40:04,08:40:04,8, Ballywaltrim,2499.67,60-145-b12-1,145,b12
7,8220DB000406,"Nassau Street, stop 406",53.34260615,-6.256124946,15296.2.60-145-b12-1.328.O,08:42:36,08:42:36,9, Ballywaltrim,3171.79,60-145-b12-1,145,b12
8,8220DB000747,"Kildare Street, stop 747",53.3399308,-6.255723519,15296.2.60-145-b12-1.328.O,08:44:00,08:44:00,10, Ballywaltrim,3546.81,60-145-b12-1,145,b12
9,8220DB000842,"Stephen's Green East, stop 842",53.33725198,-6.256313389,15296.2.60-145-b12-1.328.O,08:45:28,08:45:28,11, Ballywaltrim,3902.29,60-145-b12-1,145,b12
10,8220DB000845,"Leeson St Lower, stop 845",53.33545345,-6.256251618,15296.2.60-145-b12-1.328.O,08:46:25,08:46:25,12, Ballywaltrim,4140.16,60-145-b12-1,145,b12
11,8220DB000846,"Fitzwilliam Place, stop 846",53.33345373,-6.254110908,15296.2.60-145-b12-1.328.O,08:47:47,08:47:47,13, Ballywaltrim,4403.06,60-145-b12-1,145,b12
12,8220DB000847,"Leeson St Upper, stop 847",53.33160145,-6.25221962,15296.2.60-145-b12-1.328.O,08:49:01,08:49:01,14, Ballywaltrim,4643.32,60-145-b12-1,145,b12
13,8220DB000848,"Sussex Road, stop 848",53.32972799,-6.248887998,15296.2.60-145-b12-1.328.O,08:50:00,08:50:00,15, Ballywaltrim,4965.48,60-145-b12-1,145,b12
14,8220DB002795,"Leeson Village, stop 2795",53.32852998,-6.246264621,15296.2.60-145-b12-1.328.O,08:50:45,08:50:45,16, Ballywaltrim,5186.91,60-145-b12-1,145,b12
15,8220DB000756,"Royal Hospital, stop 756",53.32639976,-6.242598747,15296.2.60-145-b12-1.328.O,08:51:36,08:51:36,17, Ballywaltrim,5527.82,60-145-b12-1,145,b12
16,8220DB000757,"Donnybrook Village, stop 757",53.32408134,-6.23958651,15296.2.60-145-b12-1.328.O,08:52:25,08:52:25,18, Ballywaltrim,5854.25,60-145-b12-1,145,b12
17,8220DB000758,"Victoria Avenue, stop 758",53.32268694,-6.23767738,15296.2.60-145-b12-1.328.O,08:52:59,08:52:59,19, Ballywaltrim,6054.33,60-145-b12-1,145,b12
18,8220DB000759,"Donnybrook Stadium, stop 759",53.32034885,-6.233345517,15296.2.60-145-b12-1.328.O,08:54:09,08:54:09,20, Ballywaltrim,6450.78,60-145-b12-1,145,b12
19,8220DB000760,"Donnybrook Church, stop 760",53.31833019,-6.230561956,15296.2.60-145-b12-1.328.O,08:55:01,08:55:01,21, Ballywaltrim,6743.02,60-145-b12-1,145,b12
20,8220DB000761,"Teresian School, stop 761",53.3161004,-6.227487214,15296.2.60-145-b12-1.328.O,08:55:33,08:55:33,22, Ballywaltrim,7064.26,60-145-b12-1,145,b12
21,8220DB000762,"RTE, stop 762",53.31451706,-6.224370944,15296.2.60-145-b12-1.328.O,08:56:01,08:56:01,23, Ballywaltrim,7343.57,60-145-b12-1,145,b12
22,8220DB000763,"Belfield Court, stop 763",53.31232014,-6.221100319,15296.2.60-145-b12-1.328.O,08:56:38,08:56:38,24, Ballywaltrim,7671.26,60-145-b12-1,145,b12
23,8250DB002007,"Woodbine Road, stop 2007",53.30887504,-6.216111205,15296.2.60-145-b12-1.328.O,08:57:29,08:57:29,25, Ballywaltrim,8190.61,60-145-b12-1,145,b12
24,8250DB002008,"Seafield Road, stop 2008",53.3056004,-6.211115757,15296.2.60-145-b12-1.328.O,08:58:17,08:58:17,26, Ballywaltrim,8683.48,60-145-b12-1,145,b12
25,8250DB002009,"Radisson Hotel, stop 2009",53.30333957,-6.207804139,15296.2.60-145-b12-1.328.O,08:58:59,08:58:59,27, Ballywaltrim,9017.04,60-145-b12-1,145,b12
26,8250DB002010,"Booterstown Avenue, stop 2010",53.29889724,-6.20467441,15296.2.60-145-b12-1.328.O,09:00:07,09:00:07,28, Ballywaltrim,9552.36,60-145-b12-1,145,b12
27,8250DB000435,"Sycamore Crescent, stop 435",53.29598904,-6.203746226,15296.2.60-145-b12-1.328.O,09:00:42,09:00:42,29, Ballywaltrim,9882.49,60-145-b12-1,145,b12
28,8250DB007353,"Priory Grove, stop 7353",53.29349573,-6.201720633,15296.2.60-145-b12-1.328.O,09:01:34,09:01:34,30, Ballywaltrim,10196.39,60-145-b12-1,145,b12
29,8250DB004571,"Stillorgan Park, stop 4571",53.28897905,-6.194875358,15296.2.60-145-b12-1.328.O,09:03:13,09:03:13,31, Ballywaltrim,10874.09,60-145-b12-1,145,b12
30,8250DB002013,"St John of Gods, stop 2013",53.28531453,-6.194459898,15296.2.60-145-b12-1.328.O,09:03:49,09:03:49,32, Ballywaltrim,11283.85,60-145-b12-1,145,b12
31,8250DB002014,"Brewery Road, stop 2014",53.28211826,-6.192914933,15296.2.60-145-b12-1.328.O,09:04:28,09:04:28,33, Ballywaltrim,11663.1,60-145-b12-1,145,b12
32,8250DB004636,"Galloping Green, stop 4636",53.28069152,-6.19011069,15296.2.60-145-b12-1.328.O,09:05:04,09:05:04,34, Ballywaltrim,11916.98,60-145-b12-1,145,b12
33,8250DB002016,"Newtownpark Avenue, stop 2016",53.27820873,-6.184067149,15296.2.60-145-b12-1.328.O,09:06:11,09:06:11,35, Ballywaltrim,12404.52,60-145-b12-1,145,b12
34,8250DB002015,"Knocksinna, stop 2015",53.27553484,-6.179067107,15296.2.60-145-b12-1.328.O,09:06:51,09:06:51,36, Ballywaltrim,12849.02,60-145-b12-1,145,b12
35,8250DB002017,"Foxrock Church, stop 2017",53.27419654,-6.175015407,15296.2.60-145-b12-1.328.O,09:07:20,09:07:20,37, Ballywaltrim,13164.35,60-145-b12-1,145,b12
36,8250DB003259,"Westminister Grove, stop 3259",53.27283367,-6.171714725,15296.2.60-145-b12-1.328.O,09:07:55,09:07:55,38, Ballywaltrim,13429.21,60-145-b12-1,145,b12
37,8250DB007361,"Old Bray Road, stop 7361",53.27058329,-6.166233138,15296.2.60-145-b12-1.328.O,09:08:35,09:08:35,39, Ballywaltrim,13874.49,60-145-b12-1,145,b12
38,8250DB007362,"Clonkeen Road, stop 7362",53.26593943,-6.157691547,15296.2.60-145-b12-1.328.O,09:09:44,09:09:44,40, Ballywaltrim,14644.35,60-145-b12-1,145,b12
39,8250DB003129,"Johnstown Road, stop 3129",53.26245527,-6.150360925,15296.2.60-145-b12-1.328.O,09:10:49,09:10:49,41, Ballywaltrim,15268.67,60-145-b12-1,145,b12
40,8250DB003130,"Shrewsbury Lawn, stop 3130",53.25860364,-6.146015318,15296.2.60-145-b12-1.328.O,09:11:26,09:11:26,43, Ballywaltrim,15791.1,60-145-b12-1,145,b12
41,8250DB003131,"Kilbogget Grove, stop 3131",53.255517,-6.145204556,15296.2.60-145-b12-1.328.O,09:11:53,09:11:53,44, Ballywaltrim,16138.9,60-145-b12-1,145,b12
42,8250DB003132,"Shanganagh Vale, stop 3132",53.25271382,-6.142972818,15296.2.60-145-b12-1.328.O,09:12:30,09:12:30,45, Ballywaltrim,16485.52,60-145-b12-1,145,b12
43,8250DB003133,"St Laurence College, stop 3133",53.25038947,-6.14090044,15296.2.60-145-b12-1.328.O,09:13:01,09:13:01,46, Ballywaltrim,16779.11,60-145-b12-1,145,b12
44,8250DB003134,"Wyattville Road, stop 3134",53.2469068,-6.136031335,15296.2.60-145-b12-1.328.O,09:13:53,09:13:53,47, Ballywaltrim,17288.3,60-145-b12-1,145,b12
45,8250DB003135,"St Columcille's Hosp, stop 3135",53.24292904,-6.130555257,15296.2.60-145-b12-1.328.O,09:14:34,09:14:34,48, Ballywaltrim,17864.77,60-145-b12-1,145,b12
46,8250DB003136,"Kentfield, stop 3136",53.23773734,-6.127350617,15296.2.60-145-b12-1.328.O,09:15:36,09:15:36,49, Ballywaltrim,18516.27,60-145-b12-1,145,b12
47,8250DB003138,"Station Road, stop 3138",53.23435261,-6.124741866,15296.2.60-145-b12-1.328.O,09:16:16,09:16:16,50, Ballywaltrim,18937.88,60-145-b12-1,145,b12
48,8250DB003139,"Stonebridge Close, stop 3139",53.23006385,-6.124090471,15296.2.60-145-b12-1.328.O,09:17:24,09:17:24,51, Ballywaltrim,19459.4,60-145-b12-1,145,b12
49,8250DB004124,"Claremount, stop 4124",53.22783032,-6.124382846,15296.2.60-145-b12-1.328.O,09:17:47,09:17:47,52, Ballywaltrim,19713.23,60-145-b12-1,145,b12
50,8250DB004125,"Shanganagh Castle, stop 4125",53.22343165,-6.12360158,15296.2.60-145-b12-1.328.O,09:18:35,09:18:35,53, Ballywaltrim,20237.21,60-145-b12-1,145,b12
51,8250DB004126,"Shanganagh Cemetery, stop 4126",53.22218317,-6.121948811,15296.2.60-145-b12-1.328.O,09:18:52,09:18:52,54, Ballywaltrim,20413.71,60-145-b12-1,145,b12
52,8250DB004127,"St James's Church, stop 4127",53.2187787,-6.119806509,15296.2.60-145-b12-1.328.O,09:19:32,09:19:32,55, Ballywaltrim,20819.94,60-145-b12-1,145,b12
53,8250DB004128,"Woodbrook College, stop 4128",53.21592353,-6.119437408,15296.2.60-145-b12-1.328.O,09:19:58,09:19:58,56, Ballywaltrim,21136.64,60-145-b12-1,145,b12
54,8350DB004129,"Old Connaught Avenue, stop 4129",53.21085564,-6.117263738,15296.2.60-145-b12-1.328.O,09:21:09,09:21:09,57, Ballywaltrim,21737.19,60-145-b12-1,145,b12
