Index,stop_id,stop_name,stop_lat,stop_lon,trip_id,arrival_time,departure_time,stop_sequence,stop_headsign,shape_dist_traveled,route_id,customer_route_name,project_subnet
32594,8220DB004320,"Heuston Station, stop 4320",53.34664066,-6.292083514,6429.1.60-145-b12-1.325.O,09:30:00,09:30:00,1, Bray,0.0,60-145-b12-1,145,b12
32595,8220DB001476,"Sarsfield Quay, stop 1476",53.34707369,-6.284676275,6429.1.60-145-b12-1.325.O,09:32:57,09:32:57,3, Bray,616.4,60-145-b12-1,145,b12
32596,8220DB007453,"Arran Quay, stop 7453",53.34633589,-6.278382504,6429.1.60-145-b12-1.325.O,09:35:00,09:35:00,4, Bray,1041.85,60-145-b12-1,145,b12
32597,8220DB001478,"Four Courts, stop 1478",53.3456082,-6.272809481,6429.1.60-145-b12-1.325.O,09:36:41,09:36:41,5, Bray,1424.43,60-145-b12-1,145,b12
32598,8220DB001479,"Ormond Quay, stop 1479",53.34598809,-6.268633628,6429.1.60-145-b12-1.325.O,09:38:00,09:38:00,6, Bray,1707.58,60-145-b12-1,145,b12
32599,8220DB007622,"Bachelors Walk, stop 7622",53.34706992,-6.261440158,6429.1.60-145-b12-1.325.O,09:41:45,09:41:45,7, Bray,2203.58,60-145-b12-1,145,b12
32600,8220DB000334,"D'Olier Street, stop 334",53.34658116,-6.258125591,6429.1.60-145-b12-1.325.O,09:44:00,09:44:00,8, Bray,2499.67,60-145-b12-1,145,b12
32601,8220DB000406,"Nassau Street, stop 406",53.34260615,-6.256124946,6429.1.60-145-b12-1.325.O,09:47:52,09:47:52,9, Bray,3171.79,60-145-b12-1,145,b12
32602,8220DB000747,"Kildare Street, stop 747",53.3399308,-6.255723519,6429.1.60-145-b12-1.325.O,09:50:00,09:50:00,10, Bray,3546.81,60-145-b12-1,145,b12
32603,8220DB000842,"Stephen's Green East, stop 842",53.33725198,-6.256313389,6429.1.60-145-b12-1.325.O,09:51:49,09:51:49,11, Bray,3902.29,60-145-b12-1,145,b12
32604,8220DB000845,"Leeson St Lower, stop 845",53.33545345,-6.256251618,6429.1.60-145-b12-1.325.O,09:53:00,09:53:00,12, Bray,4140.16,60-145-b12-1,145,b12
32605,8220DB000846,"Fitzwilliam Place, stop 846",53.33345373,-6.254110908,6429.1.60-145-b12-1.325.O,09:54:34,09:54:34,13, Bray,4403.06,60-145-b12-1,145,b12
32606,8220DB000847,"Leeson St Upper, stop 847",53.33160145,-6.25221962,6429.1.60-145-b12-1.325.O,09:56:00,09:56:00,14, Bray,4643.32,60-145-b12-1,145,b12
32607,8220DB000848,"Sussex Road, stop 848",53.32972799,-6.248887998,6429.1.60-145-b12-1.325.O,09:57:08,09:57:08,15, Bray,4965.48,60-145-b12-1,145,b12
32608,8220DB002795,"Leeson Village, stop 2795",53.32852998,-6.246264621,6429.1.60-145-b12-1.325.O,09:58:00,09:58:00,16, Bray,5186.91,60-145-b12-1,145,b12
32609,8220DB000756,"Royal Hospital, stop 756",53.32639976,-6.242598747,6429.1.60-145-b12-1.325.O,09:59:01,09:59:01,17, Bray,5527.82,60-145-b12-1,145,b12
32610,8220DB000757,"Donnybrook Village, stop 757",53.32408134,-6.23958651,6429.1.60-145-b12-1.325.O,10:00:00,10:00:00,18, Bray,5854.25,60-145-b12-1,145,b12
32611,8220DB000758,"Victoria Avenue, stop 758",53.32268694,-6.23767738,6429.1.60-145-b12-1.325.O,10:01:00,10:01:00,19, Bray,6054.33,60-145-b12-1,145,b12
32612,8220DB000759,"Donnybrook Stadium, stop 759",53.32034885,-6.233345517,6429.1.60-145-b12-1.325.O,10:02:09,10:02:09,20, Bray,6450.78,60-145-b12-1,145,b12
32613,8220DB000760,"Donnybrook Church, stop 760",53.31833019,-6.230561956,6429.1.60-145-b12-1.325.O,10:03:00,10:03:00,21, Bray,6743.02,60-145-b12-1,145,b12
32614,8220DB000761,"Teresian School, stop 761",53.3161004,-6.227487214,6429.1.60-145-b12-1.325.O,10:04:05,10:04:05,22, Bray,7064.26,60-145-b12-1,145,b12
32615,8220DB000762,"RTE, stop 762",53.31451706,-6.224370944,6429.1.60-145-b12-1.325.O,10:05:00,10:05:00,23, Bray,7343.57,60-145-b12-1,145,b12
32616,8220DB000763,"Belfield Court, stop 763",53.31232014,-6.221100319,6429.1.60-145-b12-1.325.O,10:06:00,10:06:00,24, Bray,7671.26,60-145-b12-1,145,b12
32617,8250DB002007,"Woodbine Road, stop 2007",53.30887504,-6.216111205,6429.1.60-145-b12-1.325.O,10:07:02,10:07:02,25, Bray,8190.61,60-145-b12-1,145,b12
32618,8250DB002008,"Seafield Road, stop 2008",53.3056004,-6.211115757,6429.1.60-145-b12-1.325.O,10:08:00,10:08:00,26, Bray,8683.48,60-145-b12-1,145,b12
32619,8250DB002009,"Radisson Hotel, stop 2009",53.30333957,-6.207804139,6429.1.60-145-b12-1.325.O,10:08:46,10:08:46,27, Bray,9017.04,60-145-b12-1,145,b12
32620,8250DB002010,"Booterstown Avenue, stop 2010",53.29889724,-6.20467441,6429.1.60-145-b12-1.325.O,10:10:00,10:10:00,28, Bray,9552.36,60-145-b12-1,145,b12
32621,8250DB000435,"Sycamore Crescent, stop 435",53.29598904,-6.203746226,6429.1.60-145-b12-1.325.O,10:11:00,10:11:00,29, Bray,9882.49,60-145-b12-1,145,b12
32622,8250DB007353,"Priory Grove, stop 7353",53.29349573,-6.201720633,6429.1.60-145-b12-1.325.O,10:12:00,10:12:00,30, Bray,10196.39,60-145-b12-1,145,b12
32623,8250DB004571,"Stillorgan Park, stop 4571",53.28897905,-6.194875358,6429.1.60-145-b12-1.325.O,10:13:00,10:13:00,31, Bray,10874.09,60-145-b12-1,145,b12
32624,8250DB002013,"St John of Gods, stop 2013",53.28531453,-6.194459898,6429.1.60-145-b12-1.325.O,10:14:00,10:14:00,32, Bray,11283.85,60-145-b12-1,145,b12
32625,8250DB002014,"Brewery Road, stop 2014",53.28211826,-6.192914933,6429.1.60-145-b12-1.325.O,10:15:00,10:15:00,33, Bray,11663.1,60-145-b12-1,145,b12
32626,8250DB004636,"Galloping Green, stop 4636",53.28069152,-6.19011069,6429.1.60-145-b12-1.325.O,10:15:41,10:15:41,34, Bray,11916.98,60-145-b12-1,145,b12
32627,8250DB002016,"Newtownpark Avenue, stop 2016",53.27820873,-6.184067149,6429.1.60-145-b12-1.325.O,10:17:00,10:17:00,35, Bray,12404.52,60-145-b12-1,145,b12
32628,8250DB002015,"Knocksinna, stop 2015",53.27553484,-6.179067107,6429.1.60-145-b12-1.325.O,10:17:35,10:17:35,36, Bray,12849.02,60-145-b12-1,145,b12
32629,8250DB002017,"Foxrock Church, stop 2017",53.27419654,-6.175015407,6429.1.60-145-b12-1.325.O,10:18:00,10:18:00,37, Bray,13164.35,60-145-b12-1,145,b12
32630,8250DB003259,"Westminister Grove, stop 3259",53.27283367,-6.171714725,6429.1.60-145-b12-1.325.O,10:19:00,10:19:00,38, Bray,13429.21,60-145-b12-1,145,b12
32631,8250DB007361,"Old Bray Road, stop 7361",53.27058329,-6.166233138,6429.1.60-145-b12-1.325.O,10:19:44,10:19:44,39, Bray,13874.49,60-145-b12-1,145,b12
32632,8250DB007362,"Clonkeen Road, stop 7362",53.26593943,-6.157691547,6429.1.60-145-b12-1.325.O,10:21:00,10:21:00,40, Bray,14644.35,60-145-b12-1,145,b12
32633,8250DB003129,"Johnstown Road, stop 3129",53.26245527,-6.150360925,6429.1.60-145-b12-1.325.O,10:22:35,10:22:35,41, Bray,15268.67,60-145-b12-1,145,b12
32634,8250DB003130,"Shrewsbury Lawn, stop 3130",53.25860364,-6.146015318,6429.1.60-145-b12-1.325.O,10:24:00,10:24:00,43, Bray,15791.1,60-145-b12-1,145,b12
32635,8250DB003131,"Kilbogget Grove, stop 3131",53.255517,-6.145204556,6429.1.60-145-b12-1.325.O,10:25:00,10:25:00,44, Bray,16138.9,60-145-b12-1,145,b12
32636,8250DB003132,"Shanganagh Vale, stop 3132",53.25271382,-6.142972818,6429.1.60-145-b12-1.325.O,10:25:37,10:25:37,45, Bray,16485.52,60-145-b12-1,145,b12
32637,8250DB003133,"St Laurence College, stop 3133",53.25038947,-6.14090044,6429.1.60-145-b12-1.325.O,10:26:08,10:26:08,46, Bray,16779.11,60-145-b12-1,145,b12
32638,8250DB003134,"Wyattville Road, stop 3134",53.2469068,-6.136031335,6429.1.60-145-b12-1.325.O,10:27:00,10:27:00,47, Bray,17288.3,60-145-b12-1,145,b12
32639,8250DB003135,"St Columcille's Hosp, stop 3135",53.24292904,-6.130555257,6429.1.60-145-b12-1.325.O,10:28:00,10:28:00,48, Bray,17864.77,60-145-b12-1,145,b12
32640,8250DB003136,"Kentfield, stop 3136",53.23773734,-6.127350617,6429.1.60-145-b12-1.325.O,10:29:13,10:29:13,49, Bray,18516.27,60-145-b12-1,145,b12
32641,8250DB003138,"Station Road, stop 3138",53.23435261,-6.124741866,6429.1.60-145-b12-1.325.O,10:30:00,10:30:00,50, Bray,18937.88,60-145-b12-1,145,b12
32642,8250DB003139,"Stonebridge Close, stop 3139",53.23006385,-6.124090471,6429.1.60-145-b12-1.325.O,10:31:00,10:31:00,51, Bray,19459.4,60-145-b12-1,145,b12
32643,8250DB004124,"Claremount, stop 4124",53.22783032,-6.124382846,6429.1.60-145-b12-1.325.O,10:31:39,10:31:39,52, Bray,19713.23,60-145-b12-1,145,b12
32644,8250DB004125,"Shanganagh Castle, stop 4125",53.22343165,-6.12360158,6429.1.60-145-b12-1.325.O,10:33:00,10:33:00,53, Bray,20237.21,60-145-b12-1,145,b12
32645,8250DB004126,"Shanganagh Cemetery, stop 4126",53.22218317,-6.121948811,6429.1.60-145-b12-1.325.O,10:33:18,10:33:18,54, Bray,20413.71,60-145-b12-1,145,b12
32646,8250DB004127,"St James's Church, stop 4127",53.2187787,-6.119806509,6429.1.60-145-b12-1.325.O,10:34:00,10:34:00,55, Bray,20819.94,60-145-b12-1,145,b12
32647,8250DB004128,"Woodbrook College, stop 4128",53.21592353,-6.119437408,6429.1.60-145-b12-1.325.O,10:35:00,10:35:00,56, Bray,21136.64,60-145-b12-1,145,b12
32648,8350DB004129,"Old Connaught Avenue, stop 4129",53.21085564,-6.117263738,6429.1.60-145-b12-1.325.O,10:37:00,10:37:00,57, Bray,21737.19,60-145-b12-1,145,b12
