Index,stop_id,stop_name,stop_lat,stop_lon,trip_id,arrival_time,departure_time,stop_sequence,stop_headsign,shape_dist_traveled,route_id,customer_route_name,project_subnet
92,8220DB007391,"Merrion Sq South, stop 7391",53.33909075,-6.249916017,11975.3.60-15B-b12-1.364.O,07:30:00,07:30:00,1, Stocking Ave,0.0,60-15B-b12-1,15B,b12
93,8220DB000493,"Holles Street, stop 493",53.33985342,-6.247376823,11975.3.60-15B-b12-1.364.O,07:31:18,07:31:18,2, Stocking Ave,425.12,60-15B-b12-1,15B,b12
94,8220DB000494,"Clare Street, stop 494",53.34143558,-6.251682252,11975.3.60-15B-b12-1.364.O,07:32:18,07:32:18,3, Stocking Ave,760.46,60-15B-b12-1,15B,b12
95,8220DB000495,"Pearse Station, stop 495",53.34359132,-6.249746705,11975.3.60-15B-b12-1.364.O,07:33:31,07:33:31,4, Stocking Ave,1164.51,60-15B-b12-1,15B,b12
96,8220DB000400,"Shaw Street, stop 400",53.34484912,-6.253389973,11975.3.60-15B-b12-1.364.O,07:34:31,07:34:31,5, Stocking Ave,1498.68,60-15B-b12-1,15B,b12
97,8220DB007581,"Dame Street, stop 7581",53.34415856,-6.263345908,11975.3.60-15B-b12-1.364.O,07:38:02,07:38:02,6, Stocking Ave,2168.31,60-15B-b12-1,15B,b12
98,8220DB001283,"S Great George's St, stop 1283",53.34180872,-6.26492823,11975.3.60-15B-b12-1.364.O,07:39:39,07:39:39,7, Stocking Ave,2505.65,60-15B-b12-1,15B,b12
99,8220DB007579,"Redmond's Hill, stop 7579",53.33824578,-6.265913844,11975.3.60-15B-b12-1.364.O,07:40:52,07:40:52,8, Stocking Ave,2919.61,60-15B-b12-1,15B,b12
100,8220DB001285,"Camden Street Lower, stop 1285",53.33437841,-6.265124754,11975.3.60-15B-b12-1.364.O,07:42:15,07:42:15,9, Stocking Ave,3353.16,60-15B-b12-1,15B,b12
101,8220DB001016,"South Richmond St, stop 1016",53.33115931,-6.26441458,11975.3.60-15B-b12-1.364.O,07:43:26,07:43:26,10, Stocking Ave,3714.99,60-15B-b12-1,15B,b12
102,8220DB001017,"Rathmines Rd Lower, stop 1017",53.32936933,-6.264322097,11975.3.60-15B-b12-1.364.O,07:43:58,07:43:58,11, Stocking Ave,3916.59,60-15B-b12-1,15B,b12
103,8220DB001018,"St Mary's College, stop 1018",53.32758546,-6.264649745,11975.3.60-15B-b12-1.364.O,07:44:30,07:44:30,12, Stocking Ave,4116.14,60-15B-b12-1,15B,b12
104,8220DB001019,"Military Road, stop 1019",53.3265476,-6.264977118,11975.3.60-15B-b12-1.364.O,07:44:52,07:44:52,13, Stocking Ave,4232.47,60-15B-b12-1,15B,b12
105,8220DB001020,"Rathmines, stop 1020",53.32513838,-6.265109364,11975.3.60-15B-b12-1.364.O,07:45:19,07:45:19,14, Stocking Ave,4390.04,60-15B-b12-1,15B,b12
106,8220DB001076,"Swan Centre, stop 1076",53.32313059,-6.265491063,11975.3.60-15B-b12-1.364.O,07:45:57,07:45:57,15, Stocking Ave,4614.64,60-15B-b12-1,15B,b12
107,8220DB001077,"Rathmines Garda Stn, stop 1077",53.32157299,-6.266544985,11975.3.60-15B-b12-1.364.O,07:46:32,07:46:32,16, Stocking Ave,4810.51,60-15B-b12-1,15B,b12
108,8220DB001078,"Rathgar Place, stop 1078",53.31941276,-6.26880907,11975.3.60-15B-b12-1.364.O,07:47:07,07:47:07,17, Stocking Ave,5111.46,60-15B-b12-1,15B,b12
109,8220DB001079,"Frankfort Avenue, stop 1079",53.31665462,-6.270751874,11975.3.60-15B-b12-1.364.O,07:47:48,07:47:48,18, Stocking Ave,5444.0,60-15B-b12-1,15B,b12
110,8220DB001080,"Auburn Villas, stop 1080",53.3149092,-6.271873063,11975.3.60-15B-b12-1.364.O,07:48:17,07:48:17,19, Stocking Ave,5651.17,60-15B-b12-1,15B,b12
111,8220DB001081,"Rathgar Village, stop 1081",53.3126497,-6.273495173,11975.3.60-15B-b12-1.364.O,07:48:58,07:48:58,20, Stocking Ave,5925.14,60-15B-b12-1,15B,b12
112,8220DB002914,"Orwell Road, stop 2914",53.31095519,-6.273788674,11975.3.60-15B-b12-1.364.O,07:49:32,07:49:32,21, Stocking Ave,6155.39,60-15B-b12-1,15B,b12
113,8220DB002915,"Zion Road, stop 2915",53.30940796,-6.273701034,11975.3.60-15B-b12-1.364.O,07:49:58,07:49:58,22, Stocking Ave,6340.93,60-15B-b12-1,15B,b12
114,8220DB002916,"Bushy Park Road, stop 2916",53.30763729,-6.274942975,11975.3.60-15B-b12-1.364.O,07:50:44,07:50:44,23, Stocking Ave,6624.25,60-15B-b12-1,15B,b12
115,8220DB002917,"Meadowbank, stop 2917",53.30748702,-6.277605149,11975.3.60-15B-b12-1.364.O,07:51:13,07:51:13,24, Stocking Ave,6801.36,60-15B-b12-1,15B,b12
116,8220DB002918,"Riversdale Avenue, stop 2918",53.30737142,-6.280806135,11975.3.60-15B-b12-1.364.O,07:51:48,07:51:48,25, Stocking Ave,7014.75,60-15B-b12-1,15B,b12
117,8220DB001300,"Rathdown Park, stop 1300",53.30615075,-6.283421177,11975.3.60-15B-b12-1.364.O,07:52:39,07:52:39,26, Stocking Ave,7328.7,60-15B-b12-1,15B,b12
118,8230DB001301,"Dodder Park Road, stop 1301",53.30389581,-6.283496631,11975.3.60-15B-b12-1.364.O,07:53:22,07:53:22,27, Stocking Ave,7580.03,60-15B-b12-1,15B,b12
119,8230DB001302,"Crannagh Road, stop 1302",53.30166272,-6.283841275,11975.3.60-15B-b12-1.364.O,07:53:42,07:53:42,28, Stocking Ave,7833.22,60-15B-b12-1,15B,b12
120,8230DB001303,"Rathfarnham Castle, stop 1303",53.29934231,-6.283739278,11975.3.60-15B-b12-1.364.O,07:54:04,07:54:04,29, Stocking Ave,8092.57,60-15B-b12-1,15B,b12
121,8230DB005129,"Butterfield Avenue, stop 5129",53.29770872,-6.285770158,11975.3.60-15B-b12-1.364.O,07:54:35,07:54:35,30, Stocking Ave,8356.19,60-15B-b12-1,15B,b12
122,8230DB005130,"Charleville Square, stop 5130",53.29669359,-6.293327059,11975.3.60-15B-b12-1.364.O,07:55:39,07:55:39,31, Stocking Ave,8884.14,60-15B-b12-1,15B,b12
123,8230DB001135,"Marian Road, stop 1135",53.29344271,-6.297297012,11975.3.60-15B-b12-1.364.O,07:56:48,07:56:48,32, Stocking Ave,9443.99,60-15B-b12-1,15B,b12
124,8230DB007064,"Rosemount SC, stop 7064",53.28950964,-6.298188432,11975.3.60-15B-b12-1.364.O,07:57:47,07:57:47,33, Stocking Ave,9886.75,60-15B-b12-1,15B,b12
125,8230DB007066,"Butterfield Park, stop 7066",53.28770296,-6.296295333,11975.3.60-15B-b12-1.364.O,07:58:29,07:58:29,34, Stocking Ave,10192.7,60-15B-b12-1,15B,b12
126,8230DB002924,"Everton Hall, stop 2924",53.28582821,-6.294045133,11975.3.60-15B-b12-1.364.O,07:59:12,07:59:12,35, Stocking Ave,10514.04,60-15B-b12-1,15B,b12
127,8230DB002925,"Ballyboden Road, stop 2925",53.28334382,-6.296303789,11975.3.60-15B-b12-1.364.O,07:59:44,07:59:44,36, Stocking Ave,10832.27,60-15B-b12-1,15B,b12
128,8230DB007442,"St Enda's GAA Club, stop 7442",53.2824898,-6.300702033,11975.3.60-15B-b12-1.364.O,08:00:21,08:00:21,37, Stocking Ave,11232.83,60-15B-b12-1,15B,b12
129,8230DB007446,"Templeroan Estate, stop 7446",53.2811782,-6.30706782,11975.3.60-15B-b12-1.364.O,08:01:08,08:01:08,38, Stocking Ave,11724.47,60-15B-b12-1,15B,b12
130,8230DB007070,"Boden Park, stop 7070",53.2794291,-6.306687066,11975.3.60-15B-b12-1.364.O,08:01:44,08:01:44,39, Stocking Ave,12022.86,60-15B-b12-1,15B,b12
131,8230DB007445,"Scholarstown Road, stop 7445",53.27961175,-6.302465838,11975.3.60-15B-b12-1.364.O,08:02:20,08:02:20,40, Stocking Ave,12314.67,60-15B-b12-1,15B,b12
132,8230DB006339,"Stocking Lane, stop 6339",53.27935684,-6.300976303,11975.3.60-15B-b12-1.364.O,08:02:43,08:02:43,41, Stocking Ave,12497.51,60-15B-b12-1,15B,b12
133,8230DB006324,"Prospect Estate, stop 6324",53.27633615,-6.30219078,11975.3.60-15B-b12-1.364.O,08:03:26,08:03:26,42, Stocking Ave,12842.87,60-15B-b12-1,15B,b12
134,8230DB006325,"Airpark Avenue, stop 6325",53.27454825,-6.303506202,11975.3.60-15B-b12-1.364.O,08:03:53,08:03:53,43, Stocking Ave,13064.65,60-15B-b12-1,15B,b12
135,8230DB006341,"Stocking Hill, stop 6341",53.27301246,-6.30865004,11975.3.60-15B-b12-1.364.O,08:04:53,08:04:53,44, Stocking Ave,13495.83,60-15B-b12-1,15B,b12
136,8230DB006277,"Stocking Avenue, stop 6277",53.27291255,-6.313017269,11975.3.60-15B-b12-1.364.O,08:05:28,08:05:28,45, Stocking Ave,13789.5,60-15B-b12-1,15B,b12
137,8230DB006278,"Stocking Wood, stop 6278",53.27334552,-6.315669195,11975.3.60-15B-b12-1.364.O,08:05:51,08:05:51,46, Stocking Ave,13979.47,60-15B-b12-1,15B,b12
138,8230DB006279,"Woodstown, stop 6279",53.27178019,-6.322582855,11975.3.60-15B-b12-1.364.O,08:06:55,08:06:55,47, Stocking Ave,14508.7,60-15B-b12-1,15B,b12
139,8230DB006280,"Dalriada, stop 6280",53.27108282,-6.326043656,11975.3.60-15B-b12-1.364.O,08:07:26,08:07:26,48, Stocking Ave,14766.46,60-15B-b12-1,15B,b12
