Index,stop_id,stop_name,stop_lat,stop_lon,trip_id,arrival_time,departure_time,stop_sequence,stop_headsign,shape_dist_traveled,route_id,customer_route_name,project_subnet
0,8220DB007564,"Poolbeg St, stop 7564",53.34683414,-6.254525457,10484.3.60-65B-b12-1.282.O,05:50:00,05:50:00,1, Citywest,0.0,60-65B-b12-1,65B,b12
1,8220DB004521,"College Green, stop 4521",53.34430106,-6.260171051,10484.3.60-65B-b12-1.282.O,05:52:22,05:52:22,2, Citywest,589.01,60-65B-b12-1,65B,b12
2,8220DB001283,"S Great George's St, stop 1283",53.34180872,-6.26492823,10484.3.60-65B-b12-1.282.O,05:54:03,05:54:03,3, Citywest,1136.75,60-65B-b12-1,65B,b12
3,8220DB004456,"Whitefriars St, stop 4456",53.3399144,-6.265695957,10484.3.60-65B-b12-1.282.O,05:54:41,05:54:41,4, Citywest,1360.53,60-65B-b12-1,65B,b12
4,8220DB001284,"Redmond's Hill, stop 1284",53.33812835,-6.265873557,10484.3.60-65B-b12-1.282.O,05:55:16,05:55:16,5, Citywest,1563.46,60-65B-b12-1,65B,b12
5,8220DB001285,"Camden Street Lower, stop 1285",53.33437841,-6.265124754,10484.3.60-65B-b12-1.282.O,05:56:27,05:56:27,6, Citywest,1984.54,60-65B-b12-1,65B,b12
6,8220DB001016,"South Richmond St, stop 1016",53.33115931,-6.26441458,10484.3.60-65B-b12-1.282.O,05:57:28,05:57:28,7, Citywest,2346.38,60-65B-b12-1,65B,b12
7,8220DB001017,"Rathmines Rd Lower, stop 1017",53.32936933,-6.264322097,10484.3.60-65B-b12-1.282.O,05:57:50,05:57:50,8, Citywest,2547.98,60-65B-b12-1,65B,b12
8,8220DB001018,"St Mary's College, stop 1018",53.32758546,-6.264649745,10484.3.60-65B-b12-1.282.O,05:58:13,05:58:13,9, Citywest,2747.53,60-65B-b12-1,65B,b12
9,8220DB001019,"Military Road, stop 1019",53.3265476,-6.264977118,10484.3.60-65B-b12-1.282.O,05:58:26,05:58:26,10, Citywest,2863.85,60-65B-b12-1,65B,b12
10,8220DB001020,"Rathmines, stop 1020",53.32513838,-6.265109364,10484.3.60-65B-b12-1.282.O,05:58:42,05:58:42,11, Citywest,3021.43,60-65B-b12-1,65B,b12
11,8220DB001076,"Swan Centre, stop 1076",53.32313059,-6.265491063,10484.3.60-65B-b12-1.282.O,05:59:04,05:59:04,12, Citywest,3246.03,60-65B-b12-1,65B,b12
12,8220DB001077,"Rathmines Garda Stn, stop 1077",53.32157299,-6.266544985,10484.3.60-65B-b12-1.282.O,05:59:25,05:59:25,13, Citywest,3441.9,60-65B-b12-1,65B,b12
13,8220DB001078,"Rathgar Place, stop 1078",53.31941276,-6.26880907,10484.3.60-65B-b12-1.282.O,05:59:50,05:59:50,14, Citywest,3742.85,60-65B-b12-1,65B,b12
14,8220DB001079,"Frankfort Avenue, stop 1079",53.31665462,-6.270751874,10484.3.60-65B-b12-1.282.O,06:00:19,06:00:19,15, Citywest,4075.39,60-65B-b12-1,65B,b12
15,8220DB001080,"Auburn Villas, stop 1080",53.3149092,-6.271873063,10484.3.60-65B-b12-1.282.O,06:00:36,06:00:36,16, Citywest,4282.56,60-65B-b12-1,65B,b12
16,8220DB001081,"Rathgar Village, stop 1081",53.3126497,-6.273495173,10484.3.60-65B-b12-1.282.O,06:01:01,06:01:01,17, Citywest,4556.53,60-65B-b12-1,65B,b12
17,8220DB001082,"Terenure Road East, stop 1082",53.31167595,-6.275770632,10484.3.60-65B-b12-1.282.O,06:01:18,06:01:18,18, Citywest,4746.7,60-65B-b12-1,65B,b12
18,8220DB001083,"Brighton Road, stop 1083",53.31114556,-6.278253253,10484.3.60-65B-b12-1.282.O,06:01:33,06:01:33,19, Citywest,4924.1,60-65B-b12-1,65B,b12
19,8220DB001085,"St Joseph's BNS, stop 1085",53.31009949,-6.282377314,10484.3.60-65B-b12-1.282.O,06:01:59,06:01:59,20, Citywest,5222.1,60-65B-b12-1,65B,b12
20,8220DB001121,"Templeogue Road, stop 1121",53.3090016,-6.285407748,10484.3.60-65B-b12-1.282.O,06:02:21,06:02:21,21, Citywest,5464.55,60-65B-b12-1,65B,b12
21,8220DB001122,"Rathdown Park, stop 1122",53.30721963,-6.288375353,10484.3.60-65B-b12-1.282.O,06:02:45,06:02:45,22, Citywest,5743.5,60-65B-b12-1,65B,b12
22,8220DB001123,"Lakelands Park, stop 1123",53.30557702,-6.29103703,10484.3.60-65B-b12-1.282.O,06:03:03,06:03:03,23, Citywest,5997.13,60-65B-b12-1,65B,b12
23,8220DB001124,"Terenure College, stop 1124",53.30417282,-6.293403898,10484.3.60-65B-b12-1.282.O,06:03:18,06:03:18,24, Citywest,6219.55,60-65B-b12-1,65B,b12
24,8230DB001125,"Bushy Park House, stop 1125",53.30108536,-6.29811825,10484.3.60-65B-b12-1.282.O,06:03:51,06:03:51,25, Citywest,6685.07,60-65B-b12-1,65B,b12
25,8230DB001127,"Riverside Cottages, stop 1127",53.29845626,-6.302843743,10484.3.60-65B-b12-1.282.O,06:04:38,06:04:38,26, Citywest,7116.39,60-65B-b12-1,65B,b12
26,8230DB001130,"Templeogue Bridge, stop 1130",53.29634173,-6.308373431,10484.3.60-65B-b12-1.282.O,06:05:28,06:05:28,27, Citywest,7568.82,60-65B-b12-1,65B,b12
27,8230DB002550,"Cheeverstown House, stop 2550",53.29479059,-6.314990504,10484.3.60-65B-b12-1.282.O,06:06:15,06:06:15,28, Citywest,8046.91,60-65B-b12-1,65B,b12
28,8230DB002516,"Cremore, stop 2516",53.29022327,-6.315530273,10484.3.60-65B-b12-1.282.O,06:07:39,06:07:39,29, Citywest,8930.27,60-65B-b12-1,65B,b12
29,8230DB002517,"Green Acre Court, stop 2517",53.28921498,-6.318599903,10484.3.60-65B-b12-1.282.O,06:07:54,06:07:54,30, Citywest,9160.88,60-65B-b12-1,65B,b12
30,8230DB002518,"Knocklyon Avenue, stop 2518",53.28853245,-6.324386536,10484.3.60-65B-b12-1.282.O,06:08:21,06:08:21,31, Citywest,9571.92,60-65B-b12-1,65B,b12
31,8230DB004749,"Ballycullen Road, stop 4749",53.28542669,-6.330447458,10484.3.60-65B-b12-1.282.O,06:09:15,06:09:15,32, Citywest,10212.54,60-65B-b12-1,65B,b12
32,8230DB004750,"Glenvara Park, stop 4750",53.28248499,-6.330262195,10484.3.60-65B-b12-1.282.O,06:09:42,06:09:42,33, Citywest,10543.18,60-65B-b12-1,65B,b12
33,8230DB003006,"Glenlyon Park, stop 3006",53.27875011,-6.331202595,10484.3.60-65B-b12-1.282.O,06:10:20,06:10:20,34, Citywest,10968.59,60-65B-b12-1,65B,b12
34,8230DB004871,"Wood Dale View, stop 4871",53.27611069,-6.336568732,10484.3.60-65B-b12-1.282.O,06:11:15,06:11:15,35, Citywest,11567.85,60-65B-b12-1,65B,b12
35,8230DB004872,"Parklands, stop 4872",53.27556201,-6.342348107,10484.3.60-65B-b12-1.282.O,06:11:54,06:11:54,36, Citywest,11963.87,60-65B-b12-1,65B,b12
36,8230DB004873,"Old Court Farm, stop 4873",53.27503279,-6.346956988,10484.3.60-65B-b12-1.282.O,06:12:23,06:12:23,37, Citywest,12278.37,60-65B-b12-1,65B,b12
37,8230DB004874,"Old Court Road, stop 4874",53.27469715,-6.350628634,10484.3.60-65B-b12-1.282.O,06:12:42,06:12:42,38, Citywest,12525.73,60-65B-b12-1,65B,b12
38,8230DB002532,"Old Bawn Centre, stop 2532",53.27560359,-6.354432442,10484.3.60-65B-b12-1.282.O,06:13:10,06:13:10,39, Citywest,12801.9,60-65B-b12-1,65B,b12
39,8230DB004877,"Firhouse Road West, stop 4877",53.27657338,-6.359583555,10484.3.60-65B-b12-1.282.O,06:14:03,06:14:03,40, Citywest,13203.61,60-65B-b12-1,65B,b12
40,8230DB004878,"St Martin De Porres, stop 4878",53.27678379,-6.366398381,10484.3.60-65B-b12-1.282.O,06:15:03,06:15:03,41, Citywest,13657.46,60-65B-b12-1,65B,b12
41,8230DB007180,"Heatherview Close, stop 7180",53.27696951,-6.372749348,10484.3.60-65B-b12-1.282.O,06:15:59,06:15:59,42, Citywest,14080.21,60-65B-b12-1,65B,b12
42,8230DB007331,"Killinarden Park, stop 7331",53.2771737,-6.377840047,10484.3.60-65B-b12-1.282.O,06:16:45,06:16:45,43, Citywest,14429.05,60-65B-b12-1,65B,b12
43,8230DB002559,"Health Care Centre, stop 2559",53.27638048,-6.378994724,10484.3.60-65B-b12-1.282.O,06:17:08,06:17:08,44, Citywest,14600.87,60-65B-b12-1,65B,b12
44,8230DB002560,"Cushlawn Park, stop 2560",53.27390226,-6.379838215,10484.3.60-65B-b12-1.282.O,06:17:45,06:17:45,45, Citywest,14886.21,60-65B-b12-1,65B,b12
45,8230DB002561,"Donomore Crescent, stop 2561",53.2727603,-6.384439548,10484.3.60-65B-b12-1.282.O,06:18:25,06:18:25,46, Citywest,15233.18,60-65B-b12-1,65B,b12
46,8230DB002562,"Sacred Heart FC, stop 2562",53.27318507,-6.387932135,10484.3.60-65B-b12-1.282.O,06:18:53,06:18:53,47, Citywest,15467.44,60-65B-b12-1,65B,b12
47,8230DB002564,"Killinarden Heights, stop 2564",53.2737655,-6.391643858,10484.3.60-65B-b12-1.282.O,06:19:23,06:19:23,48, Citywest,15722.92,60-65B-b12-1,65B,b12
48,8230DB004927,"Hazel Grove, stop 4927",53.27483557,-6.394347694,10484.3.60-65B-b12-1.282.O,06:19:48,06:19:48,49, Citywest,15940.24,60-65B-b12-1,65B,b12
49,8230DB004928,"Killinarden Comm Sch, stop 4928",53.27599292,-6.394859128,10484.3.60-65B-b12-1.282.O,06:20:03,06:20:03,50, Citywest,16072.37,60-65B-b12-1,65B,b12
50,8230DB002352,"Jobstown House, stop 2352",53.27753723,-6.397410482,10484.3.60-65B-b12-1.282.O,06:20:53,06:20:53,51, Citywest,16498.63,60-65B-b12-1,65B,b12
51,8230DB002573,"Kiltalown Cottages, stop 2573",53.27427537,-6.406859019,10484.3.60-65B-b12-1.282.O,06:21:52,06:21:52,52, Citywest,17283.47,60-65B-b12-1,65B,b12
52,8230DB002574,"De Selby Estate, stop 2574",53.27456075,-6.410731975,10484.3.60-65B-b12-1.282.O,06:22:12,06:22:12,53, Citywest,17544.29,60-65B-b12-1,65B,b12
53,8230DB002575,"Corbally Vale, stop 2575",53.27715801,-6.418823085,10484.3.60-65B-b12-1.282.O,06:23:01,06:23:01,54, Citywest,18207.04,60-65B-b12-1,65B,b12
54,8230DB004929,"Verschoyle Avenue, stop 4929",53.28080557,-6.421417814,10484.3.60-65B-b12-1.282.O,06:23:54,06:23:54,55, Citywest,18658.16,60-65B-b12-1,65B,b12
55,8230DB007460,"Citywest SC, stop 7460",53.28263162,-6.421530473,10484.3.60-65B-b12-1.282.O,06:24:17,06:24:17,56, Citywest,18860.61,60-65B-b12-1,65B,b12
56,8230DB004930,"Citywest Avenue, stop 4930",53.28756971,-6.422488364,10484.3.60-65B-b12-1.282.O,06:25:24,06:25:24,57, Citywest,19434.27,60-65B-b12-1,65B,b12
57,8230DB004931,"Orchard Avenue, stop 4931",53.28901878,-6.425359879,10484.3.60-65B-b12-1.282.O,06:25:56,06:25:56,58, Citywest,19706.03,60-65B-b12-1,65B,b12
58,8230DB007459,"Logic Drive, stop 7459",53.29084182,-6.427287849,10484.3.60-65B-b12-1.282.O,06:26:25,06:26:25,59, Citywest,19953.02,60-65B-b12-1,65B,b12
