Index,stop_id,stop_name,stop_lat,stop_lon,trip_id,arrival_time,departure_time,stop_sequence,stop_headsign,shape_dist_traveled,route_id,customer_route_name,project_subnet
118,8230DB004713,"Bianconi Avenue, stop 4713",53.29128922,-6.427136411,10485.3.60-65B-b12-1.283.I,07:00:00,07:00:00,1, Poolbeg St,0.0,60-65B-b12-1,65B,b12
119,8230DB004714,"Castle Drive, stop 4714",53.28874724,-6.423854925,10485.3.60-65B-b12-1.283.I,07:00:47,07:00:47,2, Poolbeg St,394.98,60-65B-b12-1,65B,b12
120,8230DB004960,"Citywest Road, stop 4960",53.28505059,-6.421621287,10485.3.60-65B-b12-1.283.I,07:01:42,07:01:42,3, Poolbeg St,860.17,60-65B-b12-1,65B,b12
121,8230DB004932,"Magna Drive, stop 4932",53.27886099,-6.42049975,10485.3.60-65B-b12-1.283.I,07:03:08,07:03:08,4, Poolbeg St,1574.03,60-65B-b12-1,65B,b12
122,8230DB004933,"Belfry, stop 4933",53.2776403,-6.419270143,10485.3.60-65B-b12-1.283.I,07:03:27,07:03:27,5, Poolbeg St,1739.42,60-65B-b12-1,65B,b12
123,8230DB002590,"Belfry Downs, stop 2590",53.27514543,-6.415493584,10485.3.60-65B-b12-1.283.I,07:04:08,07:04:08,6, Poolbeg St,2137.12,60-65B-b12-1,65B,b12
124,8230DB002591,"De Selby Estate, stop 2591",53.27461086,-6.410445221,10485.3.60-65B-b12-1.283.I,07:04:43,07:04:43,7, Poolbeg St,2479.1,60-65B-b12-1,65B,b12
125,8230DB002592,"Kiltalown Cottages, stop 2592",53.2743035,-6.406273192,10485.3.60-65B-b12-1.283.I,07:05:12,07:05:12,8, Poolbeg St,2759.02,60-65B-b12-1,65B,b12
126,8230DB002357,"Jobstown House, stop 2357",53.27796896,-6.39676451,10485.3.60-65B-b12-1.283.I,07:06:35,07:06:35,9, Poolbeg St,3567.85,60-65B-b12-1,65B,b12
127,8230DB002566,"Killinarden School, stop 2566",53.27775591,-6.394958014,10485.3.60-65B-b12-1.283.I,07:06:58,07:06:58,10, Poolbeg St,3736.9,60-65B-b12-1,65B,b12
128,8230DB002567,"Hazelgrove, stop 2567",53.27576591,-6.394687695,10485.3.60-65B-b12-1.283.I,07:07:33,07:07:33,11, Poolbeg St,3958.29,60-65B-b12-1,65B,b12
129,8230DB002568,"Killinarden Heights, stop 2568",53.27372358,-6.390535859,10485.3.60-65B-b12-1.283.I,07:08:37,07:08:37,12, Poolbeg St,4354.13,60-65B-b12-1,65B,b12
130,8230DB002569,"Donomore Avenue, stop 2569",53.27309171,-6.386346283,10485.3.60-65B-b12-1.283.I,07:09:23,07:09:23,13, Poolbeg St,4641.68,60-65B-b12-1,65B,b12
131,8230DB007550,"Donomore Crescent, stop 7550",53.27352574,-6.380572175,10485.3.60-65B-b12-1.283.I,07:10:29,07:10:29,14, Poolbeg St,5053.49,60-65B-b12-1,65B,b12
132,8230DB002570,"Health Care Centre, stop 2570",53.27624655,-6.379059773,10485.3.60-65B-b12-1.283.I,07:11:21,07:11:21,15, Poolbeg St,5388.64,60-65B-b12-1,65B,b12
133,8230DB007222,"Killinarden Park, stop 7222",53.27720719,-6.377658833,10485.3.60-65B-b12-1.283.I,07:11:54,07:11:54,16, Poolbeg St,5587.45,60-65B-b12-1,65B,b12
134,8230DB006170,"Cushlawn, stop 6170",53.2770992,-6.375008732,10485.3.60-65B-b12-1.283.I,07:12:23,07:12:23,17, Poolbeg St,5764.06,60-65B-b12-1,65B,b12
135,8230DB007183,"Firhouse Road West, stop 7183",53.27706403,-6.372430853,10485.3.60-65B-b12-1.283.I,07:12:52,07:12:52,18, Poolbeg St,5952.08,60-65B-b12-1,65B,b12
136,8230DB004880,"St Martin De Porres, stop 4880",53.2769457,-6.366407202,10485.3.60-65B-b12-1.283.I,07:13:56,07:13:56,19, Poolbeg St,6489.51,60-65B-b12-1,65B,b12
137,8230DB002539,"Kiltipper Road, stop 2539",53.2765355,-6.356181079,10485.3.60-65B-b12-1.283.I,07:15:50,07:15:50,20, Poolbeg St,7502.0,60-65B-b12-1,65B,b12
138,8230DB002540,"Old Bawn Centre, stop 2540",53.2755316,-6.35377543,10485.3.60-65B-b12-1.283.I,07:16:21,07:16:21,21, Poolbeg St,7699.99,60-65B-b12-1,65B,b12
139,8230DB004882,"Old Court Road, stop 4882",53.27479203,-6.350340082,10485.3.60-65B-b12-1.283.I,07:16:47,07:16:47,22, Poolbeg St,7953.27,60-65B-b12-1,65B,b12
140,8230DB004883,"Old Court Farm, stop 4883",53.27513893,-6.346832934,10485.3.60-65B-b12-1.283.I,07:17:05,07:17:05,23, Poolbeg St,8191.87,60-65B-b12-1,65B,b12
141,8230DB004884,"Parklands, stop 4884",53.27562844,-6.342600452,10485.3.60-65B-b12-1.283.I,07:17:45,07:17:45,24, Poolbeg St,8480.18,60-65B-b12-1,65B,b12
142,8230DB004885,"Wood Dale View, stop 4885",53.2762189,-6.33659452,10485.3.60-65B-b12-1.283.I,07:18:23,07:18:23,25, Poolbeg St,8886.68,60-65B-b12-1,65B,b12
143,8230DB006343,"Glenlyon Park, stop 6343",53.27960019,-6.331574375,10485.3.60-65B-b12-1.283.I,07:19:18,07:19:18,26, Poolbeg St,9566.41,60-65B-b12-1,65B,b12
144,8230DB004759,"Glenvara Park, stop 4759",53.28244259,-6.330443817,10485.3.60-65B-b12-1.283.I,07:19:44,07:19:44,27, Poolbeg St,9890.5,60-65B-b12-1,65B,b12
145,8230DB004760,"Sally Park Close, stop 4760",53.28535587,-6.330525211,10485.3.60-65B-b12-1.283.I,07:20:10,07:20:10,28, Poolbeg St,10221.9,60-65B-b12-1,65B,b12
146,8230DB002547,"Knocklyon Avenue, stop 2547",53.28910477,-6.323539151,10485.3.60-65B-b12-1.283.I,07:21:09,07:21:09,29, Poolbeg St,10951.71,60-65B-b12-1,65B,b12
147,8230DB002548,"Green Acre Court, stop 2548",53.28950276,-6.317973605,10485.3.60-65B-b12-1.283.I,07:21:36,07:21:36,30, Poolbeg St,11328.57,60-65B-b12-1,65B,b12
148,8230DB002600,"Cheeverstown House, stop 2600",53.29575584,-6.31333228,10485.3.60-65B-b12-1.283.I,07:23:46,07:23:46,31, Poolbeg St,12618.11,60-65B-b12-1,65B,b12
149,8230DB001155,"Ashfield College, stop 1155",53.29677344,-6.307126166,10485.3.60-65B-b12-1.283.I,07:24:29,07:24:29,32, Poolbeg St,13046.5,60-65B-b12-1,65B,b12
150,8230DB001157,"Riverside Cottages, stop 1157",53.29874481,-6.302277184,10485.3.60-65B-b12-1.283.I,07:25:22,07:25:22,33, Poolbeg St,13449.63,60-65B-b12-1,65B,b12
151,8230DB001158,"Springfield Road, stop 1158",53.30070251,-6.299003699,10485.3.60-65B-b12-1.283.I,07:26:04,07:26:04,34, Poolbeg St,13762.68,60-65B-b12-1,65B,b12
152,8220DB001159,"Bushy Park House, stop 1159",53.30239022,-6.296340842,10485.3.60-65B-b12-1.283.I,07:26:30,07:26:30,35, Poolbeg St,14019.69,60-65B-b12-1,65B,b12
153,8220DB001160,"Terenure College, stop 1160",53.30439353,-6.293125002,10485.3.60-65B-b12-1.283.I,07:26:53,07:26:53,36, Poolbeg St,14328.93,60-65B-b12-1,65B,b12
154,8220DB001161,"Lakelands Park, stop 1161",53.30606314,-6.290462401,10485.3.60-65B-b12-1.283.I,07:27:12,07:27:12,37, Poolbeg St,14585.26,60-65B-b12-1,65B,b12
155,8220DB001162,"Rathdown Park, stop 1162",53.30773225,-6.287769597,10485.3.60-65B-b12-1.283.I,07:27:32,07:27:32,38, Poolbeg St,14842.44,60-65B-b12-1,65B,b12
156,8220DB001163,"Terenure Library, stop 1163",53.30887332,-6.285863092,10485.3.60-65B-b12-1.283.I,07:28:02,07:28:02,39, Poolbeg St,15021.77,60-65B-b12-1,65B,b12
157,8220DB001164,"Terenure Road East, stop 1164",53.31041164,-6.281584401,10485.3.60-65B-b12-1.283.I,07:28:55,07:28:55,40, Poolbeg St,15358.2,60-65B-b12-1,65B,b12
158,8220DB001165,"Brighton Road, stop 1165",53.31171244,-6.276429504,10485.3.60-65B-b12-1.283.I,07:29:46,07:29:46,41, Poolbeg St,15729.4,60-65B-b12-1,65B,b12
159,8220DB001166,"Winton Avenue, stop 1166",53.31389051,-6.272904784,10485.3.60-65B-b12-1.283.I,07:30:37,07:30:37,42, Poolbeg St,16104.5,60-65B-b12-1,65B,b12
160,8220DB001167,"Garville Avenue, stop 1167",53.31594491,-6.271395948,10485.3.60-65B-b12-1.283.I,07:31:10,07:31:10,43, Poolbeg St,16353.4,60-65B-b12-1,65B,b12
161,8220DB001168,"Spire View Lane, stop 1168",53.31792917,-6.270009883,10485.3.60-65B-b12-1.283.I,07:31:42,07:31:42,44, Poolbeg St,16591.91,60-65B-b12-1,65B,b12
162,8220DB001169,"Rathmines Park, stop 1169",53.32005626,-6.26855786,10485.3.60-65B-b12-1.283.I,07:32:22,07:32:22,45, Poolbeg St,16847.86,60-65B-b12-1,65B,b12
163,8220DB001170,"Rathmines Garda Stn, stop 1170",53.32168955,-6.266525249,10485.3.60-65B-b12-1.283.I,07:32:59,07:32:59,46, Poolbeg St,17083.24,60-65B-b12-1,65B,b12
164,8220DB001069,"Swan Centre, stop 1069",53.32328526,-6.265619895,10485.3.60-65B-b12-1.283.I,07:33:21,07:33:21,47, Poolbeg St,17287.49,60-65B-b12-1,65B,b12
165,8220DB001070,"Rathmines, stop 1070",53.32498018,-6.265355983,10485.3.60-65B-b12-1.283.I,07:33:41,07:33:41,48, Poolbeg St,17491.2,60-65B-b12-1,65B,b12
166,8220DB001071,"St Mary's College, stop 1071",53.32721804,-6.264724712,10485.3.60-65B-b12-1.283.I,07:34:10,07:34:10,49, Poolbeg St,17745.18,60-65B-b12-1,65B,b12
167,8220DB004528,"Grove Park, stop 4528",53.32889608,-6.26453649,10485.3.60-65B-b12-1.283.I,07:34:56,07:34:56,50, Poolbeg St,17932.79,60-65B-b12-1,65B,b12
168,8220DB001072,"South Richmond St, stop 1072",53.33102697,-6.264585114,10485.3.60-65B-b12-1.283.I,07:35:59,07:35:59,51, Poolbeg St,18173.19,60-65B-b12-1,65B,b12
169,8220DB001352,"Camden Street Lower, stop 1352",53.33444543,-6.265407334,10485.3.60-65B-b12-1.283.I,07:37:05,07:37:05,52, Poolbeg St,18556.32,60-65B-b12-1,65B,b12
170,8220DB001353,"Pleasants Street, stop 1353",53.33600953,-6.265418938,10485.3.60-65B-b12-1.283.I,07:37:36,07:37:36,53, Poolbeg St,18733.19,60-65B-b12-1,65B,b12
171,8220DB001355,"Whitefriars Street, stop 1355",53.34009624,-6.265838755,10485.3.60-65B-b12-1.283.I,07:38:58,07:38:58,55, Poolbeg St,19192.24,60-65B-b12-1,65B,b12
172,8220DB001357,"Exchequer Street, stop 1357",53.34256789,-6.26459703,10485.3.60-65B-b12-1.283.I,07:40:07,07:40:07,56, Poolbeg St,19483.41,60-65B-b12-1,65B,b12
173,8220DB001358,"Dame Street, stop 1358",53.34430471,-6.262889389,10485.3.60-65B-b12-1.283.I,07:41:20,07:41:20,57, Poolbeg St,19765.43,60-65B-b12-1,65B,b12
174,8220DB007564,"Poolbeg St, stop 7564",53.34683414,-6.254525457,10485.3.60-65B-b12-1.283.I,07:45:03,07:45:03,58, Poolbeg St,20618.58,60-65B-b12-1,65B,b12
