Index,stop_id,stop_name,stop_lat,stop_lon,trip_id,arrival_time,departure_time,stop_sequence,stop_headsign,shape_dist_traveled,route_id,customer_route_name,project_subnet
14324,8220DB000300,"Liberty Hall, stop 300",53.34829924,-6.255757376,4427.1.60-27B-b12-1.120.O,08:50:00,08:50:00,1, Coolock Lane,0.0,60-27B-b12-1,27B,b12
14325,8220DB000497,"Connolly, stop 497",53.35052608,-6.250694343,4427.1.60-27B-b12-1.120.O,08:51:59,08:51:59,3, Coolock Lane,492.22,60-27B-b12-1,27B,b12
14326,8220DB000515,"Portland Row, stop 515",53.35353487,-6.248092401,4427.1.60-27B-b12-1.120.O,08:53:44,08:53:44,4, Coolock Lane,869.64,60-27B-b12-1,27B,b12
14327,8220DB000516,"North Strand Road, stop 516",53.35568392,-6.245705684,4427.1.60-27B-b12-1.120.O,08:55:04,08:55:04,5, Coolock Lane,1154.32,60-27B-b12-1,27B,b12
14328,8220DB004384,"Bayview Avenue, stop 4384",53.35768013,-6.242709027,4427.1.60-27B-b12-1.120.O,08:56:05,08:56:05,6, Coolock Lane,1453.35,60-27B-b12-1,27B,b12
14329,8220DB000519,"North Strand Fire Station, stop 519",53.36033876,-6.239534529,4427.1.60-27B-b12-1.120.O,08:57:20,08:57:20,7, Coolock Lane,1819.59,60-27B-b12-1,27B,b12
14330,8220DB000521,"Annesley Bridge, stop 521",53.36163705,-6.237978461,4427.1.60-27B-b12-1.120.O,08:58:11,08:58:11,8, Coolock Lane,1996.11,60-27B-b12-1,27B,b12
14331,8220DB000522,"Fairview, stop 522",53.36328895,-6.235415975,4427.1.60-27B-b12-1.120.O,08:59:23,08:59:23,9, Coolock Lane,2248.08,60-27B-b12-1,27B,b12
14332,8220DB000523,"Marino College, stop 523",53.36428545,-6.231693332,4427.1.60-27B-b12-1.120.O,09:00:31,09:00:31,11, Coolock Lane,2537.74,60-27B-b12-1,27B,b12
14333,8220DB000669,"Malahide Road, stop 669",53.366317,-6.228678905,4427.1.60-27B-b12-1.120.O,09:01:43,09:01:43,12, Coolock Lane,2898.35,60-27B-b12-1,27B,b12
14334,8220DB000670,"Mount Temple School, stop 670",53.36895611,-6.226029664,4427.1.60-27B-b12-1.120.O,09:02:53,09:02:53,13, Coolock Lane,3241.15,60-27B-b12-1,27B,b12
14335,8220DB000671,"Nazareth House, stop 671",53.37071684,-6.224153053,4427.1.60-27B-b12-1.120.O,09:03:34,09:03:34,14, Coolock Lane,3473.74,60-27B-b12-1,27B,b12
14336,8220DB000672,"Donnycarney Road, stop 672",53.37346635,-6.221077821,4427.1.60-27B-b12-1.120.O,09:04:40,09:04:40,15, Coolock Lane,3842.68,60-27B-b12-1,27B,b12
14337,8220DB004382,"Donnycarney Church, stop 4382",53.37496447,-6.219677694,4427.1.60-27B-b12-1.120.O,09:05:13,09:05:13,16, Coolock Lane,4065.82,60-27B-b12-1,27B,b12
14338,8220DB001196,"Elm Mount Road, stop 1196",53.37778751,-6.214915296,4427.1.60-27B-b12-1.120.O,09:06:08,09:06:08,17, Coolock Lane,4581.07,60-27B-b12-1,27B,b12
14339,8220DB001197,"Killester Avenue, stop 1197",53.37923228,-6.211758333,4427.1.60-27B-b12-1.120.O,09:06:41,09:06:41,18, Coolock Lane,4845.2,60-27B-b12-1,27B,b12
14340,8220DB001198,"Mornington Grove, stop 1198",53.3825122,-6.206915591,4427.1.60-27B-b12-1.120.O,09:07:46,09:07:46,19, Coolock Lane,5332.14,60-27B-b12-1,27B,b12
14341,8220DB001222,"Ardlea Road, stop 1222",53.38406616,-6.206850282,4427.1.60-27B-b12-1.120.O,09:08:32,09:08:32,20, Coolock Lane,5593.42,60-27B-b12-1,27B,b12
14342,8220DB001223,"Chanel Avenue, stop 1223",53.38525062,-6.208514352,4427.1.60-27B-b12-1.120.O,09:09:02,09:09:02,21, Coolock Lane,5765.26,60-27B-b12-1,27B,b12
14343,8220DB001224,"Maryfield Crescent, stop 1224",53.38664416,-6.210936491,4427.1.60-27B-b12-1.120.O,09:09:42,09:09:42,22, Coolock Lane,5995.83,60-27B-b12-1,27B,b12
14344,8220DB001225,"Maryfield Drive, stop 1225",53.38685938,-6.213904269,4427.1.60-27B-b12-1.120.O,09:10:47,09:10:47,23, Coolock Lane,6202.83,60-27B-b12-1,27B,b12
14345,8220DB001226,"Ardmore Drive, stop 1226",53.38858246,-6.214929676,4427.1.60-27B-b12-1.120.O,09:12:18,09:12:18,24, Coolock Lane,6471.38,60-27B-b12-1,27B,b12
14346,8220DB001227,"Castlekevin Road, stop 1227",53.39113731,-6.215078366,4427.1.60-27B-b12-1.120.O,09:13:22,09:13:22,25, Coolock Lane,6756.38,60-27B-b12-1,27B,b12
14347,8220DB001228,"Kilbarron Road, stop 1228",53.39242898,-6.218512737,4427.1.60-27B-b12-1.120.O,09:14:34,09:14:34,26, Coolock Lane,7079.15,60-27B-b12-1,27B,b12
14348,8220DB001244,"Cromcastle Green, stop 1244",53.39290724,-6.220447503,4427.1.60-27B-b12-1.120.O,09:15:02,09:15:02,27, Coolock Lane,7217.91,60-27B-b12-1,27B,b12
14349,8220DB000254,"Beaumont Hospital, stop 254",53.3902653,-6.224106114,4427.1.60-27B-b12-1.120.O,09:18:14,09:18:14,28, Coolock Lane,7905.75,60-27B-b12-1,27B,b12
14350,8220DB001246,"Kilbarron Park, stop 1246",53.39349323,-6.222979289,4427.1.60-27B-b12-1.120.O,09:20:52,09:20:52,29, Coolock Lane,8658.13,60-27B-b12-1,27B,b12
14351,8220DB001229,"Kilbarron Drive, stop 1229",53.3943116,-6.225426289,4427.1.60-27B-b12-1.120.O,09:21:26,09:21:26,30, Coolock Lane,8843.94,60-27B-b12-1,27B,b12
14352,8220DB001231,"Castletimon Road, stop 1231",53.395489,-6.227843426,4427.1.60-27B-b12-1.120.O,09:22:06,09:22:06,31, Coolock Lane,9107.48,60-27B-b12-1,27B,b12
14353,8220DB001232,"Castletimon Park, stop 1232",53.39528548,-6.23048341,4427.1.60-27B-b12-1.120.O,09:22:32,09:22:32,32, Coolock Lane,9283.94,60-27B-b12-1,27B,b12
14354,8220DB001233,"Castletimon Drive, stop 1233",53.39436199,-6.231243501,4427.1.60-27B-b12-1.120.O,09:22:52,09:22:52,33, Coolock Lane,9412.19,60-27B-b12-1,27B,b12
14355,8220DB001234,"Ballyshannon Avenue, stop 1234",53.39468787,-6.232613397,4427.1.60-27B-b12-1.120.O,09:23:15,09:23:15,34, Coolock Lane,9561.75,60-27B-b12-1,27B,b12
14356,8220DB007358,"Castletimon Park, stop 7358",53.3954603,-6.22954384,4427.1.60-27B-b12-1.120.O,09:23:58,09:23:58,35, Coolock Lane,9831.71,60-27B-b12-1,27B,b12
14357,8220DB005174,"Dundaniel Road, stop 5174",53.39570886,-6.225097474,4427.1.60-27B-b12-1.120.O,09:24:54,09:24:54,36, Coolock Lane,10191.24,60-27B-b12-1,27B,b12
14358,8220DB006078,"Cromcastle Road, stop 6078",53.39724178,-6.224221621,4427.1.60-27B-b12-1.120.O,09:25:21,09:25:21,37, Coolock Lane,10372.06,60-27B-b12-1,27B,b12
14359,8220DB007112,"Astro Park, stop 7112",53.397549,-6.229171401,4427.1.60-27B-b12-1.120.O,09:26:26,09:26:26,38, Coolock Lane,10789.21,60-27B-b12-1,27B,b12
14360,8220DB000972,"Aulden Grange, stop 972",53.39699604,-6.234923799,4427.1.60-27B-b12-1.120.O,09:27:26,09:27:26,39, Coolock Lane,11175.97,60-27B-b12-1,27B,b12
