Index,stop_id,stop_name,stop_lat,stop_lon,trip_id,arrival_time,departure_time,stop_sequence,stop_headsign,shape_dist_traveled,route_id,customer_route_name,project_subnet
0,8240DB000943,"Portmarnock Bridge, stop 943",53.41824783,-6.142175806,6437.1.60-42D-b12-1.131.I,07:30:00,07:30:00,1, DCU,0.0,60-42D-b12-1,42D,b12
1,8240DB003599,"Portmarnock, stop 3599",53.42164641,-6.136475335,6437.1.60-42D-b12-1.131.I,07:31:00,07:31:00,2, DCU,535.74,60-42D-b12-1,42D,b12
2,8240DB003600,"The Dunes, stop 3600",53.42351919,-6.133805247,6437.1.60-42D-b12-1.131.I,07:31:33,07:31:33,3, DCU,810.03,60-42D-b12-1,42D,b12
3,8240DB003601,"Blackberry Rise, stop 3601",53.42610173,-6.13111883,6437.1.60-42D-b12-1.131.I,07:32:14,07:32:14,4, DCU,1148.85,60-42D-b12-1,42D,b12
4,8240DB003602,"Blackberry Lane, stop 3602",53.42838305,-6.128716204,6437.1.60-42D-b12-1.131.I,07:32:50,07:32:50,5, DCU,1447.98,60-42D-b12-1,42D,b12
5,8240DB003604,"Portmarnock Crescent, stop 3604",53.43242931,-6.124805855,6437.1.60-42D-b12-1.131.I,07:33:34,07:33:34,6, DCU,1969.08,60-42D-b12-1,42D,b12
6,8240DB003607,"Redfern Avenue, stop 3607",53.43490103,-6.136286688,6437.1.60-42D-b12-1.131.I,07:36:14,07:36:14,7, DCU,3036.0,60-42D-b12-1,42D,b12
7,8240DB006051,"PSLC, stop 6051",53.43475688,-6.137993811,6437.1.60-42D-b12-1.131.I,07:36:31,07:36:31,8, DCU,3149.53,60-42D-b12-1,42D,b12
8,8240DB006053,"Malahide Golf Club, stop 6053",53.43411912,-6.143214369,6437.1.60-42D-b12-1.131.I,07:37:24,07:37:24,9, DCU,3503.88,60-42D-b12-1,42D,b12
9,8240DB007327,"Blackwood Lane, stop 7327",53.43400824,-6.150549122,6437.1.60-42D-b12-1.131.I,07:38:37,07:38:37,10, DCU,3991.45,60-42D-b12-1,42D,b12
10,8240DB003629,"The Hill Malahide, stop 3629",53.43551469,-6.153223103,6437.1.60-42D-b12-1.131.I,07:39:26,07:39:26,11, DCU,4313.73,60-42D-b12-1,42D,b12
11,8240DB003630,"Community School, stop 3630",53.4384604,-6.151906175,6437.1.60-42D-b12-1.131.I,07:40:12,07:40:12,12, DCU,4656.66,60-42D-b12-1,42D,b12
12,8240DB003631,"Seamount Road, stop 3631",53.44196612,-6.151347539,6437.1.60-42D-b12-1.131.I,07:41:05,07:41:05,13, DCU,5048.45,60-42D-b12-1,42D,b12
13,8240DB003632,"Hill Drive, stop 3632",53.44441982,-6.152505591,6437.1.60-42D-b12-1.131.I,07:41:44,07:41:44,14, DCU,5337.68,60-42D-b12-1,42D,b12
14,8240DB003633,"Church Street, stop 3633",53.44839489,-6.153236429,6437.1.60-42D-b12-1.131.I,07:42:43,07:42:43,15, DCU,5782.98,60-42D-b12-1,42D,b12
15,8240DB003634,"Malahide Station, stop 3634",53.45045531,-6.155119488,6437.1.60-42D-b12-1.131.I,07:44:06,07:44:06,16, DCU,6146.55,60-42D-b12-1,42D,b12
16,8240DB003635,"Cricket Club, stop 3635",53.44963995,-6.160530062,6437.1.60-42D-b12-1.131.I,07:45:30,07:45:30,17, DCU,6516.84,60-42D-b12-1,42D,b12
17,8240DB003636,"St Sylvesters School, stop 3636",53.44942245,-6.162165573,6437.1.60-42D-b12-1.131.I,07:45:56,07:45:56,18, DCU,6625.98,60-42D-b12-1,42D,b12
18,8240DB000905,"Yellow Walls Road, stop 905",53.45156174,-6.170369781,6437.1.60-42D-b12-1.131.I,07:47:38,07:47:38,19, DCU,7244.96,60-42D-b12-1,42D,b12
19,8240DB004331,"Seabury Road, stop 4331",53.45539992,-6.179209839,6437.1.60-42D-b12-1.131.I,07:49:44,07:49:44,20, DCU,7994.88,60-42D-b12-1,42D,b12
20,8240DB004339,"Estuary Road, stop 4339",53.45268719,-6.183451712,6437.1.60-42D-b12-1.131.I,07:51:07,07:51:07,21, DCU,8490.82,60-42D-b12-1,42D,b12
21,8240DB007692,"Chamley Park, stop 7692",53.45080989,-6.18767252,6437.1.60-42D-b12-1.131.I,07:52:21,07:52:21,22, DCU,8943.93,60-42D-b12-1,42D,b12
22,8240DB006010,"Waterside, stop 6010",53.45287713,-6.198365821,6437.1.60-42D-b12-1.131.I,07:54:24,07:54:24,23, DCU,9696.35,60-42D-b12-1,42D,b12
23,8240DB003656,"Feltrim Business Pk, stop 3656",53.44852823,-6.204421813,6437.1.60-42D-b12-1.131.I,07:56:55,07:56:55,24, DCU,10608.29,60-42D-b12-1,42D,b12
24,8240DB007194,"Holywell View, stop 7194",53.44722698,-6.207548068,6437.1.60-42D-b12-1.131.I,07:57:44,07:57:44,25, DCU,10904.13,60-42D-b12-1,42D,b12
25,8240DB006310,"Holywell Crescent, stop 6310",53.44356734,-6.211044234,6437.1.60-42D-b12-1.131.I,08:00:22,08:00:22,26, DCU,11920.66,60-42D-b12-1,42D,b12
26,8240DB006311,"Holywell Close, stop 6311",53.44342396,-6.209273847,6437.1.60-42D-b12-1.131.I,08:00:34,08:00:34,27, DCU,12039.11,60-42D-b12-1,42D,b12
27,8220DB000112,"Civic Centre, stop 112",53.3961544,-6.26395104,6437.1.60-42D-b12-1.131.I,08:14:08,08:14:08,28, DCU,20286.88,60-42D-b12-1,42D,b12
28,8220DB000113,"Trinity Comp School, stop 113",53.39226796,-6.263703255,6437.1.60-42D-b12-1.131.I,08:16:22,08:16:22,29, DCU,20719.7,60-42D-b12-1,42D,b12
29,8220DB000114,"Ballymun Road, stop 114",53.39133332,-6.263711229,6437.1.60-42D-b12-1.131.I,08:16:54,08:16:54,30, DCU,20823.63,60-42D-b12-1,42D,b12
30,8220DB001646,"DCU Collins Avenue, stop 1646",53.38715465,-6.256980537,6437.1.60-42D-b12-1.131.I,08:21:06,08:21:06,31, DCU,21633.37,60-42D-b12-1,42D,b12
31,8220DB007571,"DCU Helix, stop 7571",53.38677565,-6.258724958,6437.1.60-42D-b12-1.131.I,08:23:29,08:23:29,32, DCU,22096.46,60-42D-b12-1,42D,b12
