Index,stop_id,stop_name,stop_lat,stop_lon,trip_id,arrival_time,departure_time,stop_sequence,stop_headsign,shape_dist_traveled,route_id,customer_route_name,project_subnet
0,8250DB003057,"Dalkey Village, stop 3057",53.27838434,-6.106948197,1491.1.60-7D-b12-1.148.I,05:20:00,05:20:00,1, Mountjoy Square,0.0,60-7D-b12-1,7D,b12
1,8250DB004830,"Barnhill Road, stop 4830",53.27725409,-6.114466208,1491.1.60-7D-b12-1.148.I,05:20:49,05:20:49,2, Mountjoy Square,533.0,60-7D-b12-1,7D,b12
2,8250DB007667,"Saval Park Road, stop 7667",53.27682755,-6.11932867,1491.1.60-7D-b12-1.148.I,05:21:20,05:21:20,3, Mountjoy Square,878.24,60-7D-b12-1,7D,b12
3,8250DB003091,"Avondale Road, stop 3091",53.27364541,-6.123876855,1491.1.60-7D-b12-1.148.I,05:22:07,05:22:07,4, Mountjoy Square,1371.77,60-7D-b12-1,7D,b12
4,8250DB003092,"Arnold Grove, stop 3092",53.27207385,-6.126824577,1491.1.60-7D-b12-1.148.I,05:22:31,05:22:31,5, Mountjoy Square,1637.39,60-7D-b12-1,7D,b12
5,8250DB003093,"Arnold Park, stop 3093",53.27034594,-6.13012376,1491.1.60-7D-b12-1.148.I,05:22:59,05:22:59,6, Mountjoy Square,1933.06,60-7D-b12-1,7D,b12
6,8250DB003535,"Church Road, stop 3535",53.25681752,-6.127206594,1491.1.60-7D-b12-1.148.I,05:25:47,05:25:47,7, Mountjoy Square,3719.94,60-7D-b12-1,7D,b12
7,8250DB003536,"Ballybrack Village, stop 3536",53.25386108,-6.124967677,1491.1.60-7D-b12-1.148.I,05:26:21,05:26:21,8, Mountjoy Square,4080.91,60-7D-b12-1,7D,b12
8,8250DB003537,"Ballybrack Cross, stop 3537",53.25195289,-6.123657329,1491.1.60-7D-b12-1.148.I,05:26:42,05:26:42,9, Mountjoy Square,4310.74,60-7D-b12-1,7D,b12
9,8250DB003538,"Sheelin Estate, stop 3538",53.24966244,-6.123188089,1491.1.60-7D-b12-1.148.I,05:27:06,05:27:06,10, Mountjoy Square,4569.66,60-7D-b12-1,7D,b12
10,8250DB007556,"The Elms, stop 7556",53.24804398,-6.123154034,1491.1.60-7D-b12-1.148.I,05:27:23,05:27:23,11, Mountjoy Square,4750.15,60-7D-b12-1,7D,b12
11,8250DB003539,"River Close, stop 3539",53.24401834,-6.121517115,1491.1.60-7D-b12-1.148.I,05:28:10,05:28:10,12, Mountjoy Square,5252.18,60-7D-b12-1,7D,b12
12,8250DB003540,"Shanganagh Bridge, stop 3540",53.24268093,-6.121635635,1491.1.60-7D-b12-1.148.I,05:28:24,05:28:24,13, Mountjoy Square,5403.55,60-7D-b12-1,7D,b12
13,8250DB003541,"Hazelwood, stop 3541",53.23882609,-6.122853245,1491.1.60-7D-b12-1.148.I,05:29:05,05:29:05,14, Mountjoy Square,5848.06,60-7D-b12-1,7D,b12
14,8250DB003542,"Rathsallagh, stop 3542",53.23640017,-6.122914465,1491.1.60-7D-b12-1.148.I,05:29:30,05:29:30,15, Mountjoy Square,6118.23,60-7D-b12-1,7D,b12
15,8250DB003543,"St Anne's Church, stop 3543",53.23372864,-6.123360944,1491.1.60-7D-b12-1.148.I,05:29:59,05:29:59,16, Mountjoy Square,6420.4,60-7D-b12-1,7D,b12
16,8250DB003141,"Station Road, stop 3141",53.23455658,-6.125137439,1491.1.60-7D-b12-1.148.I,05:30:23,05:30:23,17, Mountjoy Square,6692.02,60-7D-b12-1,7D,b12
17,8250DB003142,"Kentfield, stop 3142",53.2380654,-6.12763594,1491.1.60-7D-b12-1.148.I,05:31:03,05:31:03,18, Mountjoy Square,7123.41,60-7D-b12-1,7D,b12
18,8250DB003224,"Ashlawn, stop 3224",53.25194585,-6.132365195,1491.1.60-7D-b12-1.148.I,05:34:39,05:34:39,19, Mountjoy Square,9427.03,60-7D-b12-1,7D,b12
19,8250DB003225,"Ballybrack SC, stop 3225",53.25529487,-6.13385301,1491.1.60-7D-b12-1.148.I,05:35:28,05:35:28,20, Mountjoy Square,9965.72,60-7D-b12-1,7D,b12
20,8250DB003226,"Kilbogget Park, stop 3226",53.25854707,-6.137773558,1491.1.60-7D-b12-1.148.I,05:36:15,05:36:15,21, Mountjoy Square,10410.75,60-7D-b12-1,7D,b12
21,8250DB003227,"Auburn Drive, stop 3227",53.26195417,-6.137805394,1491.1.60-7D-b12-1.148.I,05:36:58,05:36:58,22, Mountjoy Square,10804.38,60-7D-b12-1,7D,b12
22,8250DB003228,"Church Road, stop 3228",53.26475425,-6.134655395,1491.1.60-7D-b12-1.148.I,05:37:40,05:37:40,23, Mountjoy Square,11190.99,60-7D-b12-1,7D,b12
23,8250DB003229,"Churchview Road, stop 3229",53.26535278,-6.134419453,1491.1.60-7D-b12-1.148.I,05:37:56,05:37:56,24, Mountjoy Square,11330.15,60-7D-b12-1,7D,b12
24,8250DB007472,"Killiney SC, stop 7472",53.26706808,-6.136623621,1491.1.60-7D-b12-1.148.I,05:38:24,05:38:24,25, Mountjoy Square,11576.57,60-7D-b12-1,7D,b12
25,8250DB003230,Drumkeen Manor,53.26850153,-6.139200039,1491.1.60-7D-b12-1.148.I,05:38:48,05:38:48,26, Mountjoy Square,11810.14,60-7D-b12-1,7D,b12
26,8250DB003232,"Pearse Villas, stop 3232",53.27160397,-6.140444733,1491.1.60-7D-b12-1.148.I,05:39:51,05:39:51,27, Mountjoy Square,12368.19,60-7D-b12-1,7D,b12
27,8250DB003233,"Pearse Street, stop 3233",53.27274148,-6.141340004,1491.1.60-7D-b12-1.148.I,05:40:11,05:40:11,28, Mountjoy Square,12560.39,60-7D-b12-1,7D,b12
28,8250DB003234,"Sallynoggin College, stop 3234",53.27360361,-6.139563206,1491.1.60-7D-b12-1.148.I,05:40:38,05:40:38,29, Mountjoy Square,12711.89,60-7D-b12-1,7D,b12
29,8250DB004462,"Sallynoggin, stop 4462",53.27516727,-6.137815818,1491.1.60-7D-b12-1.148.I,05:41:20,05:41:20,30, Mountjoy Square,12968.32,60-7D-b12-1,7D,b12
30,8250DB003235,"Pearse Park, stop 3235",53.27718071,-6.140697486,1491.1.60-7D-b12-1.148.I,05:42:17,05:42:17,31, Mountjoy Square,13296.71,60-7D-b12-1,7D,b12
31,8250DB003236,"Honey Park, stop 3236",53.2779835,-6.140302725,1491.1.60-7D-b12-1.148.I,05:42:38,05:42:38,32, Mountjoy Square,13422.43,60-7D-b12-1,7D,b12
32,8250DB003237,"Sarsfield Street, stop 3237",53.27914236,-6.137957911,1491.1.60-7D-b12-1.148.I,05:43:04,05:43:04,33, Mountjoy Square,13624.6,60-7D-b12-1,7D,b12
33,8250DB003238,"Holmston Avenue, stop 3238",53.28330973,-6.133727199,1491.1.60-7D-b12-1.148.I,05:44:18,05:44:18,34, Mountjoy Square,14190.16,60-7D-b12-1,7D,b12
34,8250DB003239,"Crosthwaite Park, stop 3239",53.2843865,-6.133035331,1491.1.60-7D-b12-1.148.I,05:44:35,05:44:35,35, Mountjoy Square,14317.86,60-7D-b12-1,7D,b12
35,8250DB003240,"Corrig Road, stop 3240",53.28717187,-6.131248929,1491.1.60-7D-b12-1.148.I,05:45:19,05:45:19,36, Mountjoy Square,14651.18,60-7D-b12-1,7D,b12
36,8250DB003068,"George's St Upper, stop 3068",53.28982949,-6.130487902,1491.1.60-7D-b12-1.148.I,05:46:05,05:46:05,37, Mountjoy Square,14999.94,60-7D-b12-1,7D,b12
37,8250DB003069,"Corrig Avenue, stop 3069",53.29075303,-6.132637683,1491.1.60-7D-b12-1.148.I,05:46:28,05:46:28,38, Mountjoy Square,15175.68,60-7D-b12-1,7D,b12
38,8250DB003070,"Dun Laoghaire SC, stop 3070",53.2921151,-6.135818534,1491.1.60-7D-b12-1.148.I,05:47:01,05:47:01,39, Mountjoy Square,15436.48,60-7D-b12-1,7D,b12
39,8250DB002041,"St Michael's Hosp, stop 2041",53.2935976,-6.139234377,1491.1.60-7D-b12-1.148.I,05:47:32,05:47:32,40, Mountjoy Square,15717.63,60-7D-b12-1,7D,b12
40,8250DB003071,"De Vesci Park, stop 3071",53.29498472,-6.145189969,1491.1.60-7D-b12-1.148.I,05:48:18,05:48:18,41, Mountjoy Square,16158.72,60-7D-b12-1,7D,b12
41,8250DB003072,"Grosvenor Terrace, stop 3072",53.29418522,-6.148690061,1491.1.60-7D-b12-1.148.I,05:48:45,05:48:45,42, Mountjoy Square,16415.98,60-7D-b12-1,7D,b12
42,8250DB003073,"Monkstown Road, stop 3073",53.29378259,-6.155188246,1491.1.60-7D-b12-1.148.I,05:49:31,05:49:31,43, Mountjoy Square,16856.58,60-7D-b12-1,7D,b12
43,8250DB003074,"Drayton Close, stop 3074",53.29449303,-6.159283182,1491.1.60-7D-b12-1.148.I,05:50:02,05:50:02,44, Mountjoy Square,17139.32,60-7D-b12-1,7D,b12
44,8250DB003075,"Queen's Park, stop 3075",53.29488038,-6.162251951,1491.1.60-7D-b12-1.148.I,05:50:23,05:50:23,45, Mountjoy Square,17341.09,60-7D-b12-1,7D,b12
45,8250DB003076,"Montpellier Parade, stop 3076",53.29543281,-6.166023823,1491.1.60-7D-b12-1.148.I,05:50:50,05:50:50,46, Mountjoy Square,17598.87,60-7D-b12-1,7D,b12
46,8250DB003077,"Montpellier Manor, stop 3077",53.29591972,-6.168463369,1491.1.60-7D-b12-1.148.I,05:51:21,05:51:21,47, Mountjoy Square,17769.58,60-7D-b12-1,7D,b12
47,8250DB003084,"Frascati SC, stop 3084",53.30138125,-6.181163412,1491.1.60-7D-b12-1.148.I,05:54:57,05:54:57,48, Mountjoy Square,18874.69,60-7D-b12-1,7D,b12
48,8250DB000469,"Rock Road, stop 469",53.30284573,-6.184072133,1491.1.60-7D-b12-1.148.I,05:55:26,05:55:26,49, Mountjoy Square,19162.23,60-7D-b12-1,7D,b12
49,8250DB000470,"Blackrock Clinic, stop 470",53.30562585,-6.188981104,1491.1.60-7D-b12-1.148.I,05:56:15,05:56:15,50, Mountjoy Square,19614.27,60-7D-b12-1,7D,b12
50,8250DB000471,"Blackrock College, stop 471",53.30687081,-6.191059299,1491.1.60-7D-b12-1.148.I,05:56:37,05:56:37,51, Mountjoy Square,19815.6,60-7D-b12-1,7D,b12
51,8250DB000472,"Booterstown Station, stop 472",53.30788203,-6.194918267,1491.1.60-7D-b12-1.148.I,05:57:08,05:57:08,52, Mountjoy Square,20094.57,60-7D-b12-1,7D,b12
52,8250DB000473,"Grotto Avenue, stop 473",53.30924058,-6.197382139,1491.1.60-7D-b12-1.148.I,05:57:33,05:57:33,53, Mountjoy Square,20317.64,60-7D-b12-1,7D,b12
53,8250DB004705,"St Helen's Road, stop 4705",53.31081827,-6.200077066,1491.1.60-7D-b12-1.148.I,05:57:59,05:57:59,54, Mountjoy Square,20568.28,60-7D-b12-1,7D,b12
54,8250DB000475,"Bellevue Avenue, stop 475",53.31270616,-6.201888675,1491.1.60-7D-b12-1.148.I,05:58:25,05:58:25,55, Mountjoy Square,20807.37,60-7D-b12-1,7D,b12
55,8220DB000476,"Merrion Gates, stop 476",53.31575153,-6.204762523,1491.1.60-7D-b12-1.148.I,05:59:08,05:59:08,56, Mountjoy Square,21203.83,60-7D-b12-1,7D,b12
56,8220DB000477,"Herbert Avenue, stop 477",53.31686305,-6.20695232,1491.1.60-7D-b12-1.148.I,05:59:29,05:59:29,57, Mountjoy Square,21399.63,60-7D-b12-1,7D,b12
57,8220DB000478,"St Vincent's Hosp, stop 478",53.3181143,-6.211267825,1491.1.60-7D-b12-1.148.I,06:00:04,06:00:04,58, Mountjoy Square,21718.28,60-7D-b12-1,7D,b12
58,8220DB007053,"Nutley Lane, stop 7053",53.31837371,-6.213583567,1491.1.60-7D-b12-1.148.I,06:00:29,06:00:29,59, Mountjoy Square,21903.4,60-7D-b12-1,7D,b12
59,8220DB002088,"St Vincent's Hosp, stop 2088",53.31729669,-6.216090175,1491.1.60-7D-b12-1.148.I,06:00:55,06:00:55,60, Mountjoy Square,22112.29,60-7D-b12-1,7D,b12
60,8220DB002089,"RTE, stop 2089",53.31530199,-6.219745554,1491.1.60-7D-b12-1.148.I,06:01:38,06:01:38,61, Mountjoy Square,22441.16,60-7D-b12-1,7D,b12
61,8220DB000770,"RTE, stop 770",53.31463619,-6.225731811,1491.1.60-7D-b12-1.148.I,06:02:42,06:02:42,62, Mountjoy Square,22932.94,60-7D-b12-1,7D,b12
62,8220DB000771,"Teresian School, stop 771",53.31588007,-6.227781522,1491.1.60-7D-b12-1.148.I,06:03:06,06:03:06,63, Mountjoy Square,23123.74,60-7D-b12-1,7D,b12
63,8220DB000772,"Donnybrook Garage, stop 772",53.31848526,-6.231321064,1491.1.60-7D-b12-1.148.I,06:03:55,06:03:55,64, Mountjoy Square,23497.3,60-7D-b12-1,7D,b12
64,8220DB000417,"Merrion Road, stop 417",53.32769959,-6.22597042,1491.1.60-7D-b12-1.148.I,06:08:30,06:08:30,65, Mountjoy Square,24809.01,60-7D-b12-1,7D,b12
65,8220DB000485,"RDS Ballsbridge, stop 485",53.32825151,-6.228634971,1491.1.60-7D-b12-1.148.I,06:08:53,06:08:53,66, Mountjoy Square,24994.29,60-7D-b12-1,7D,b12
66,8220DB000487,"American Embassy, stop 487",53.33085529,-6.233902308,1491.1.60-7D-b12-1.148.I,06:09:48,06:09:48,67, Mountjoy Square,25457.27,60-7D-b12-1,7D,b12
67,8220DB000488,"Lansdowne Park, stop 488",53.33309855,-6.236076947,1491.1.60-7D-b12-1.148.I,06:10:24,06:10:24,68, Mountjoy Square,25746.24,60-7D-b12-1,7D,b12
68,8220DB000489,"St Mary's Rd South, stop 489",53.334942,-6.237352313,1491.1.60-7D-b12-1.148.I,06:10:51,06:10:51,69, Mountjoy Square,25966.71,60-7D-b12-1,7D,b12
69,8220DB000490,"Haddington Road, stop 490",53.33657384,-6.238906806,1491.1.60-7D-b12-1.148.I,06:11:17,06:11:17,70, Mountjoy Square,26180.71,60-7D-b12-1,7D,b12
70,8220DB000491,"Mount Street Bridge, stop 491",53.33781405,-6.241333511,1491.1.60-7D-b12-1.148.I,06:11:43,06:11:43,71, Mountjoy Square,26397.18,60-7D-b12-1,7D,b12
71,8220DB000492,"Mount Street Lower, stop 492",53.33858469,-6.243614462,1491.1.60-7D-b12-1.148.I,06:12:15,06:12:15,72, Mountjoy Square,26571.65,60-7D-b12-1,7D,b12
72,8220DB000493,"Holles Street, stop 493",53.33985342,-6.247376823,1491.1.60-7D-b12-1.148.I,06:13:08,06:13:08,73, Mountjoy Square,26858.82,60-7D-b12-1,7D,b12
73,8220DB000494,"Clare Street, stop 494",53.34143558,-6.251682252,1491.1.60-7D-b12-1.148.I,06:14:10,06:14:10,74, Mountjoy Square,27194.16,60-7D-b12-1,7D,b12
74,8220DB000495,"Pearse Station, stop 495",53.34359132,-6.249746705,1491.1.60-7D-b12-1.148.I,06:15:24,06:15:24,75, Mountjoy Square,27598.21,60-7D-b12-1,7D,b12
75,8220DB007587,"Science Gallery, stop 7587",53.34445793,-6.25122816,1491.1.60-7D-b12-1.148.I,06:15:58,06:15:58,76, Mountjoy Square,27781.81,60-7D-b12-1,7D,b12
76,8220DB000345,"Pearse St Garda Stn, stop 345",53.34547582,-6.256293194,1491.1.60-7D-b12-1.148.I,06:17:05,06:17:05,77, Mountjoy Square,28137.3,60-7D-b12-1,7D,b12
77,8220DB000320,"Westmoreland Street, stop 320",53.34564563,-6.259305233,1491.1.60-7D-b12-1.148.I,06:18:06,06:18:06,78, Mountjoy Square,28365.51,60-7D-b12-1,7D,b12
78,8220DB000281,"O'Connell St Upper, stop 281",53.35134353,-6.261116008,1491.1.60-7D-b12-1.148.I,06:20:57,06:20:57,80, Mountjoy Square,29018.55,60-7D-b12-1,7D,b12
79,8220DB000004,"Parnell Square West, stop 4",53.35257451,-6.264175486,1491.1.60-7D-b12-1.148.I,06:22:11,06:22:11,82, Mountjoy Square,29268.05,60-7D-b12-1,7D,b12
80,8220DB004962,"Mountjoy Square, stop 4962",53.35703972,-6.258495314,1491.1.60-7D-b12-1.148.I,06:26:36,06:26:36,83, Mountjoy Square,30022.09,60-7D-b12-1,7D,b12
