Index,stop_id,stop_name,stop_lat,stop_lon,trip_id,arrival_time,departure_time,stop_sequence,stop_headsign,shape_dist_traveled,route_id,customer_route_name,project_subnet
0,8230DB002955,"Ballyboden Church, stop 2955",53.27787197,-6.289533367,4054.1.60-116-b12-1.54.I,07:40:00,07:40:00,1, Parnell Sq,0.0,60-116-b12-1,116,b12
1,8230DB007067,"Whitechurch Way, stop 7067",53.27783383,-6.288755104,4054.1.60-116-b12-1.54.I,07:40:10,07:40:10,2, Parnell Sq,51.84,60-116-b12-1,116,b12
2,8230DB002956,"Glenmore Park, stop 2956",53.27812019,-6.286164354,4054.1.60-116-b12-1.54.I,07:40:44,07:40:44,3, Parnell Sq,227.5,60-116-b12-1,116,b12
3,8230DB002965,"Whitechurch Road, stop 2965",53.28030415,-6.28427735,4054.1.60-116-b12-1.54.I,07:41:51,07:41:51,4, Parnell Sq,598.45,60-116-b12-1,116,b12
4,8230DB002967,"Eden Avenue, stop 2967",53.2813395,-6.276917275,4054.1.60-116-b12-1.54.I,07:43:37,07:43:37,5, Parnell Sq,1275.95,60-116-b12-1,116,b12
5,8230DB002968,"Three Rock Rovers, stop 2968",53.28032933,-6.273568645,4054.1.60-116-b12-1.54.I,07:44:16,07:44:16,6, Parnell Sq,1524.89,60-116-b12-1,116,b12
6,8250DB002969,"Marley Park, stop 2969",53.27940273,-6.270411749,4054.1.60-116-b12-1.54.I,07:44:53,07:44:53,7, Parnell Sq,1758.61,60-116-b12-1,116,b12
7,8250DB002970,"Grange Road, stop 2970",53.27817063,-6.267267347,4054.1.60-116-b12-1.54.I,07:45:31,07:45:31,8, Parnell Sq,2006.96,60-116-b12-1,116,b12
8,8250DB004988,"Heather Lawn, stop 4988",53.27765231,-6.263149456,4054.1.60-116-b12-1.54.I,07:46:42,07:46:42,9, Parnell Sq,2389.34,60-116-b12-1,116,b12
9,8250DB002853,"Ballinteer Comm Sch, stop 2853",53.28082534,-6.260696242,4054.1.60-116-b12-1.54.I,07:48:04,07:48:04,10, Parnell Sq,2835.61,60-116-b12-1,116,b12
10,8250DB002854,"Broadford Walk, stop 2854",53.28072154,-6.257281152,4054.1.60-116-b12-1.54.I,07:48:49,07:48:49,11, Parnell Sq,3061.3,60-116-b12-1,116,b12
11,8250DB002855,"Chestnut Grove, stop 2855",53.27918962,-6.255169005,4054.1.60-116-b12-1.54.I,07:49:33,07:49:33,12, Parnell Sq,3289.29,60-116-b12-1,116,b12
12,8250DB002856,"Broadford Close, stop 2856",53.27719148,-6.25498048,4054.1.60-116-b12-1.54.I,07:50:18,07:50:18,13, Parnell Sq,3513.02,60-116-b12-1,116,b12
13,8250DB002857,"Ballinteer Drive, stop 2857",53.27477027,-6.255364017,4054.1.60-116-b12-1.54.I,07:51:10,07:51:10,14, Parnell Sq,3785.96,60-116-b12-1,116,b12
14,8250DB002858,"Ballinteer Avenue, stop 2858",53.27518603,-6.252453043,4054.1.60-116-b12-1.54.I,07:52:14,07:52:14,15, Parnell Sq,4080.67,60-116-b12-1,116,b12
15,8250DB002859,"Ballinteer Park, stop 2859",53.2769905,-6.248630505,4054.1.60-116-b12-1.54.I,07:53:26,07:53:26,16, Parnell Sq,4405.0,60-116-b12-1,116,b12
16,8250DB002860,"Mayfield Terrace, stop 2860",53.27816728,-6.246138024,4054.1.60-116-b12-1.54.I,07:54:35,07:54:35,17, Parnell Sq,4615.52,60-116-b12-1,116,b12
17,8250DB002861,"Wesley College, stop 2861",53.27957834,-6.244910506,4054.1.60-116-b12-1.54.I,07:55:42,07:55:42,18, Parnell Sq,4812.47,60-116-b12-1,116,b12
18,8250DB002829,"Balally Drive, stop 2829",53.28438525,-6.236869391,4054.1.60-116-b12-1.54.I,08:01:32,08:01:32,19, Parnell Sq,5857.33,60-116-b12-1,116,b12
19,8250DB002830,"Dun Emer Road, stop 2830",53.28235912,-6.233578355,4054.1.60-116-b12-1.54.I,08:02:52,08:02:52,20, Parnell Sq,6189.05,60-116-b12-1,116,b12
20,8250DB002831,"Balally Hill, stop 2831",53.27905763,-6.231570033,4054.1.60-116-b12-1.54.I,08:04:28,08:04:28,21, Parnell Sq,6582.73,60-116-b12-1,116,b12
21,8250DB002832,"Clonard Road, stop 2832",53.27725094,-6.23035499,4054.1.60-116-b12-1.54.I,08:05:21,08:05:21,22, Parnell Sq,6804.51,60-116-b12-1,116,b12
22,8250DB004349,"Blackthorn Drive, stop 4349",53.2758455,-6.227713898,4054.1.60-116-b12-1.54.I,08:06:35,08:06:35,23, Parnell Sq,7112.67,60-116-b12-1,116,b12
23,8250DB003184,"Moreen Avenue, stop 3184",53.2761924,-6.223845715,4054.1.60-116-b12-1.54.I,08:07:39,08:07:39,24, Parnell Sq,7374.85,60-116-b12-1,116,b12
24,8250DB000449,"Blackthorn Road, stop 449",53.27632283,-6.216927379,4054.1.60-116-b12-1.54.I,08:10:31,08:10:31,25, Parnell Sq,7918.27,60-116-b12-1,116,b12
25,8250DB000450,"Heather Road, stop 450",53.27509405,-6.213499669,4054.1.60-116-b12-1.54.I,08:11:57,08:11:57,26, Parnell Sq,8201.55,60-116-b12-1,116,b12
26,8250DB003181,"Carmanhall Road, stop 3181",53.27673392,-6.207777904,4054.1.60-116-b12-1.54.I,08:14:52,08:14:52,27, Parnell Sq,8738.58,60-116-b12-1,116,b12
27,8250DB000451,"Blackthorn Drive, stop 451",53.2783061,-6.207727113,4054.1.60-116-b12-1.54.I,08:16:13,08:16:13,28, Parnell Sq,8971.48,60-116-b12-1,116,b12
28,8250DB000447,"Stillorgan Luas, stop 447",53.28021817,-6.210556493,4054.1.60-116-b12-1.54.I,08:18:15,08:18:15,29, Parnell Sq,9340.96,60-116-b12-1,116,b12
29,8250DB005045,"St Raphaela's Road, stop 5045",53.28357696,-6.209171297,4054.1.60-116-b12-1.54.I,08:20:24,08:20:24,30, Parnell Sq,9733.16,60-116-b12-1,116,b12
30,8250DB004460,"Whately Place, stop 4460",53.28728248,-6.208131349,4054.1.60-116-b12-1.54.I,08:23:51,08:23:51,31, Parnell Sq,10152.02,60-116-b12-1,116,b12
31,8250DB000453,"Kilmacud Park, stop 453",53.28858628,-6.207566788,4054.1.60-116-b12-1.54.I,08:25:00,08:25:00,32, Parnell Sq,10302.53,60-116-b12-1,116,b12
32,8250DB004477,"Kilmacud Road Lower, stop 4477",53.28897261,-6.205165619,4054.1.60-116-b12-1.54.I,08:26:43,08:26:43,33, Parnell Sq,10515.22,60-116-b12-1,116,b12
33,8250DB003321,"Stillorgan SC, stop 3321",53.28846936,-6.200401779,4054.1.60-116-b12-1.54.I,08:29:34,08:29:34,34, Parnell Sq,10868.03,60-116-b12-1,116,b12
34,8250DB004727,"Laurence Park, stop 4727",53.29081171,-6.19778321,4054.1.60-116-b12-1.54.I,08:31:31,08:31:31,35, Parnell Sq,11402.16,60-116-b12-1,116,b12
35,8250DB004728,"Oatlands College, stop 4728",53.29333789,-6.201982289,4054.1.60-116-b12-1.54.I,08:32:57,08:32:57,36, Parnell Sq,11798.17,60-116-b12-1,116,b12
36,8250DB000461,"Stillorgan Pk Hotel, stop 461",53.2947995,-6.203541111,4054.1.60-116-b12-1.54.I,08:33:38,08:33:38,37, Parnell Sq,11988.18,60-116-b12-1,116,b12
37,8250DB002068,"Greenfield Road, stop 2068",53.29809576,-6.204573003,4054.1.60-116-b12-1.54.I,08:35:00,08:35:00,38, Parnell Sq,12360.62,60-116-b12-1,116,b12
38,8250DB002069,"Booterstown Avenue, stop 2069",53.29977469,-6.205642853,4054.1.60-116-b12-1.54.I,08:36:32,08:36:32,39, Parnell Sq,12560.59,60-116-b12-1,116,b12
39,8250DB002070,"St Thomas Road, stop 2070",53.30306607,-6.208145702,4054.1.60-116-b12-1.54.I,08:38:26,08:38:26,40, Parnell Sq,12969.73,60-116-b12-1,116,b12
40,8250DB002084,"Seafield Road, stop 2084",53.30552676,-6.21159902,4054.1.60-116-b12-1.54.I,08:39:22,08:39:22,41, Parnell Sq,13326.66,60-116-b12-1,116,b12
41,8250DB000768,"UCD Belfield, stop 768",53.30941819,-6.21877483,4054.1.60-116-b12-1.54.I,08:41:06,08:41:06,42, Parnell Sq,13975.42,60-116-b12-1,116,b12
42,8220DB000769,"Belfield Court, stop 769",53.31190109,-6.221327857,4054.1.60-116-b12-1.54.I,08:41:36,08:41:36,43, Parnell Sq,14302.98,60-116-b12-1,116,b12
43,8220DB000770,"RTE, stop 770",53.31463619,-6.225731811,4054.1.60-116-b12-1.54.I,08:42:52,08:42:52,44, Parnell Sq,14746.0,60-116-b12-1,116,b12
44,8220DB000771,"Teresian School, stop 771",53.31588007,-6.227781522,4054.1.60-116-b12-1.54.I,08:43:23,08:43:23,45, Parnell Sq,14936.81,60-116-b12-1,116,b12
45,8220DB000772,"Donnybrook Garage, stop 772",53.31848526,-6.231321064,4054.1.60-116-b12-1.54.I,08:44:26,08:44:26,46, Parnell Sq,15310.36,60-116-b12-1,116,b12
46,8220DB000773,"Donnybrook Road, stop 773",53.31991635,-6.233273319,4054.1.60-116-b12-1.54.I,08:45:08,08:45:08,47, Parnell Sq,15513.69,60-116-b12-1,116,b12
47,8220DB000774,"Donnybrook Garda Stn, stop 774",53.32161212,-6.235499996,4054.1.60-116-b12-1.54.I,08:45:58,08:45:58,48, Parnell Sq,15755.57,60-116-b12-1,116,b12
48,8220DB000775,"Donnybrook Village, stop 775",53.32348971,-6.239085447,4054.1.60-116-b12-1.54.I,08:47:07,08:47:07,49, Parnell Sq,16079.41,60-116-b12-1,116,b12
49,8220DB000776,"Morehampton Terrace, stop 776",53.32547924,-6.241735821,4054.1.60-116-b12-1.54.I,08:48:07,08:48:07,50, Parnell Sq,16362.3,60-116-b12-1,116,b12
50,8220DB000777,"Royal Hospital, stop 777",53.32697216,-6.243626144,4054.1.60-116-b12-1.54.I,08:48:46,08:48:46,51, Parnell Sq,16570.62,60-116-b12-1,116,b12
51,8220DB000906,"Leeson St Upper, stop 906",53.32881077,-6.247634377,4054.1.60-116-b12-1.54.I,08:49:52,08:49:52,52, Parnell Sq,16911.35,60-116-b12-1,116,b12
52,8220DB000907,"Dartmouth Road, stop 907",53.32971936,-6.250750109,4054.1.60-116-b12-1.54.I,08:51:34,08:51:34,53, Parnell Sq,17144.63,60-116-b12-1,116,b12
53,8220DB000908,"Grand Parade, stop 908",53.33115429,-6.252373034,4054.1.60-116-b12-1.54.I,08:52:58,08:52:58,54, Parnell Sq,17338.51,60-116-b12-1,116,b12
54,8220DB000909,"Fitzwilliam Place, stop 909",53.33314766,-6.254078364,4054.1.60-116-b12-1.54.I,08:54:48,08:54:48,55, Parnell Sq,17591.94,60-116-b12-1,116,b12
55,8220DB000786,"Embassy of Malta, stop 786",53.33518155,-6.256097534,4054.1.60-116-b12-1.54.I,08:56:43,08:56:43,56, Parnell Sq,17853.18,60-116-b12-1,116,b12
56,8220DB000792,"Dawson Street, stop 792",53.34044899,-6.258585808,4054.1.60-116-b12-1.54.I,09:02:09,09:02:09,57, Parnell Sq,18610.54,60-116-b12-1,116,b12
57,8220DB007586,"National Gallery, stop 7586",53.34197047,-6.253222288,4054.1.60-116-b12-1.54.I,09:04:39,09:04:39,58, Parnell Sq,19152.48,60-116-b12-1,116,b12
58,8220DB007587,"Science Gallery, stop 7587",53.34445793,-6.25122816,4054.1.60-116-b12-1.54.I,09:07:13,09:07:13,59, Parnell Sq,19709.31,60-116-b12-1,116,b12
59,8220DB007588,"Pearse Street, stop 7588",53.34498499,-6.254075317,4054.1.60-116-b12-1.54.I,09:08:06,09:08:06,60, Parnell Sq,19907.7,60-116-b12-1,116,b12
60,8220DB000281,"O'Connell St Upper, stop 281",53.35134353,-6.261116008,4054.1.60-116-b12-1.54.I,09:12:56,09:12:56,61, Parnell Sq,21009.94,60-116-b12-1,116,b12
61,8220DB000261,"Parnell Square East, stop 261",53.35405628,-6.262853361,4054.1.60-116-b12-1.54.I,09:16:18,09:16:18,62, Parnell Sq,21700.6,60-116-b12-1,116,b12
