Index,stop_id,stop_name,stop_lat,stop_lon,trip_id,arrival_time,departure_time,stop_sequence,stop_headsign,shape_dist_traveled,route_id,customer_route_name,project_subnet
54,8250DB004953,"UCD, stop 4953",53.30496107,-6.21703967,3929.1.60-41X-b12-1.246.O,17:30:00,17:30:00,1, Swords Manor,0.0,60-41X-b12-1,41X,b12
55,8250DB000768,"UCD Belfield, stop 768",53.30941819,-6.21877483,3929.1.60-41X-b12-1.246.O,17:32:08,17:32:08,2, Swords Manor,672.84,60-41X-b12-1,41X,b12
56,8220DB000769,"Belfield Court, stop 769",53.31190109,-6.221327857,3929.1.60-41X-b12-1.246.O,17:33:08,17:33:08,3, Swords Manor,1000.39,60-41X-b12-1,41X,b12
57,8220DB000770,"RTE, stop 770",53.31463619,-6.225731811,3929.1.60-41X-b12-1.246.O,17:34:08,17:34:08,4, Swords Manor,1443.42,60-41X-b12-1,41X,b12
58,8220DB000771,"Teresian School, stop 771",53.31588007,-6.227781522,3929.1.60-41X-b12-1.246.O,17:34:32,17:34:32,5, Swords Manor,1634.22,60-41X-b12-1,41X,b12
59,8220DB000772,"Donnybrook Garage, stop 772",53.31848526,-6.231321064,3929.1.60-41X-b12-1.246.O,17:35:22,17:35:22,6, Swords Manor,2007.78,60-41X-b12-1,41X,b12
60,8220DB000773,"Donnybrook Road, stop 773",53.31991635,-6.233273319,3929.1.60-41X-b12-1.246.O,17:36:00,17:36:00,7, Swords Manor,2211.1,60-41X-b12-1,41X,b12
61,8220DB000774,"Donnybrook Garda Stn, stop 774",53.32161212,-6.235499996,3929.1.60-41X-b12-1.246.O,17:36:45,17:36:45,8, Swords Manor,2452.98,60-41X-b12-1,41X,b12
62,8220DB000775,"Donnybrook Village, stop 775",53.32348971,-6.239085447,3929.1.60-41X-b12-1.246.O,17:37:45,17:37:45,9, Swords Manor,2776.83,60-41X-b12-1,41X,b12
63,8220DB000776,"Morehampton Terrace, stop 776",53.32547924,-6.241735821,3929.1.60-41X-b12-1.246.O,17:39:13,17:39:13,10, Swords Manor,3059.71,60-41X-b12-1,41X,b12
64,8220DB000777,"Royal Hospital, stop 777",53.32697216,-6.243626144,3929.1.60-41X-b12-1.246.O,17:40:03,17:40:03,11, Swords Manor,3268.04,60-41X-b12-1,41X,b12
65,8220DB000906,"Leeson St Upper, stop 906",53.32881077,-6.247634377,3929.1.60-41X-b12-1.246.O,17:41:27,17:41:27,12, Swords Manor,3608.76,60-41X-b12-1,41X,b12
66,8220DB000909,"Fitzwilliam Place, stop 909",53.33314766,-6.254078364,3929.1.60-41X-b12-1.246.O,17:44:13,17:44:13,13, Swords Manor,4289.35,60-41X-b12-1,41X,b12
67,8220DB000790,"Stephen's Green Nth, stop 790",53.33929437,-6.258302473,3929.1.60-41X-b12-1.246.O,17:48:48,17:48:48,15, Swords Manor,5165.85,60-41X-b12-1,41X,b12
68,8220DB007585,"National Gallery, stop 7585",53.34203708,-6.25347488,3929.1.60-41X-b12-1.246.O,17:52:44,17:52:44,17, Swords Manor,5830.65,60-41X-b12-1,41X,b12
69,8220DB007587,"Science Gallery, stop 7587",53.34445793,-6.25122816,3929.1.60-41X-b12-1.246.O,17:56:04,17:56:04,18, Swords Manor,6406.5,60-41X-b12-1,41X,b12
70,8220DB000407,"Custom House, stop 407",53.34833489,-6.253893353,3929.1.60-41X-b12-1.246.O,18:00:04,18:00:04,19, Swords Manor,7082.69,60-41X-b12-1,41X,b12
71,8220DB002498,"IFSC, stop 2498",53.34824354,-6.250111878,3929.1.60-41X-b12-1.246.O,18:00:31,18:00:31,20, Swords Manor,7334.16,60-41X-b12-1,41X,b12
72,8220DB002499,"CHQ, stop 2499",53.34812783,-6.24712751,3929.1.60-41X-b12-1.246.O,18:00:53,18:00:53,21, Swords Manor,7533.14,60-41X-b12-1,41X,b12
73,8220DB002500,"Beckett Bridge, stop 2500",53.34778834,-6.242379931,3929.1.60-41X-b12-1.246.O,18:01:28,18:01:28,22, Swords Manor,7850.09,60-41X-b12-1,41X,b12
74,8220DB002501,"Spencer Place, stop 2501",53.34737591,-6.236358699,3929.1.60-41X-b12-1.246.O,18:02:12,18:02:12,23, Swords Manor,8253.1,60-41X-b12-1,41X,b12
75,8220DB007623,"Br an Phoirt Thoir, stop 7623",53.34691411,-6.229453427,3929.1.60-41X-b12-1.246.O,18:03:02,18:03:02,24, Swords Manor,8713.62,60-41X-b12-1,41X,b12
76,8240DB005030,"Boroimhe Maples, stop 5030",53.44456372,-6.231476784,3929.1.60-41X-b12-1.246.O,18:26:21,18:26:21,25, Swords Manor,21535.96,60-41X-b12-1,41X,b12
77,8240DB005031,"Boroimhe Cherry, stop 5031",53.44519944,-6.23495817,3929.1.60-41X-b12-1.246.O,18:27:07,18:27:07,26, Swords Manor,21788.93,60-41X-b12-1,41X,b12
78,8240DB006033,"Rathingle Road, stop 6033",53.44782497,-6.23807125,3929.1.60-41X-b12-1.246.O,18:28:12,18:28:12,27, Swords Manor,22146.99,60-41X-b12-1,41X,b12
79,8240DB003089,"Cherry Avenue, stop 3089",53.44896476,-6.239785649,3929.1.60-41X-b12-1.246.O,18:28:43,18:28:43,28, Swords Manor,22319.22,60-41X-b12-1,41X,b12
80,8240DB003090,"Forest View, stop 3090",53.44958376,-6.241536711,3929.1.60-41X-b12-1.246.O,18:29:08,18:29:08,29, Swords Manor,22457.55,60-41X-b12-1,41X,b12
81,8240DB003706,"Forest Crescent, stop 3706",53.45129665,-6.244944119,3929.1.60-41X-b12-1.246.O,18:30:16,18:30:16,30, Swords Manor,22838.78,60-41X-b12-1,41X,b12
82,8240DB003707,"Rathingle Road, stop 3707",53.45235151,-6.244554298,3929.1.60-41X-b12-1.246.O,18:30:39,18:30:39,31, Swords Manor,22960.06,60-41X-b12-1,41X,b12
83,8240DB003708,"Hilltown Road, stop 3708",53.45326395,-6.238764599,3929.1.60-41X-b12-1.246.O,18:32:10,18:32:10,32, Swords Manor,23471.2,60-41X-b12-1,41X,b12
84,8240DB003709,"River Valley Heights, stop 3709",53.45263157,-6.236110528,3929.1.60-41X-b12-1.246.O,18:32:44,18:32:44,33, Swords Manor,23660.52,60-41X-b12-1,41X,b12
85,8240DB003710,"River Valley Drive, stop 3710",53.45205601,-6.231225689,3929.1.60-41X-b12-1.246.O,18:33:46,18:33:46,34, Swords Manor,23996.87,60-41X-b12-1,41X,b12
86,8240DB004925,"Ballintrane Wood, stop 4925",53.45216092,-6.228601343,3929.1.60-41X-b12-1.246.O,18:34:02,18:34:02,35, Swords Manor,24193.64,60-41X-b12-1,41X,b12
87,8240DB003679,"Fingal Co Co, stop 3679",53.45908168,-6.220135723,3929.1.60-41X-b12-1.246.O,18:35:23,18:35:23,36, Swords Manor,25209.28,60-41X-b12-1,41X,b12
88,8240DB005075,"Rathbeale Road, stop 5075",53.4596634,-6.223590263,3929.1.60-41X-b12-1.246.O,18:35:46,18:35:46,37, Swords Manor,25493.29,60-41X-b12-1,41X,b12
89,8240DB005076,"Brackenstown Ave, stop 5076",53.46125341,-6.228373393,3929.1.60-41X-b12-1.246.O,18:36:16,18:36:16,38, Swords Manor,25859.35,60-41X-b12-1,41X,b12
90,8240DB003682,"Glasmore Park, stop 3682",53.46202403,-6.231248052,3929.1.60-41X-b12-1.246.O,18:36:33,18:36:33,39, Swords Manor,26070.35,60-41X-b12-1,41X,b12
91,8240DB003864,"Abbylea Close, stop 3864",53.46399913,-6.234133062,3929.1.60-41X-b12-1.246.O,18:36:56,18:36:56,40, Swords Manor,26357.58,60-41X-b12-1,41X,b12
92,8240DB003865,"Daleview Road, stop 3865",53.46609106,-6.237631049,3929.1.60-41X-b12-1.246.O,18:37:22,18:37:22,41, Swords Manor,26688.33,60-41X-b12-1,41X,b12
93,8240DB004910,"Ardcian Park, stop 4910",53.46663536,-6.23919006,3929.1.60-41X-b12-1.246.O,18:37:37,18:37:37,42, Swords Manor,26874.6,60-41X-b12-1,41X,b12
94,8240DB004911,"Cianlea, stop 4911",53.46560858,-6.239654302,3929.1.60-41X-b12-1.246.O,18:37:48,18:37:48,43, Swords Manor,26998.8,60-41X-b12-1,41X,b12
95,8240DB004912,"Lioscian, stop 4912",53.46413955,-6.239383737,3929.1.60-41X-b12-1.246.O,18:38:01,18:38:01,44, Swords Manor,27163.27,60-41X-b12-1,41X,b12
96,8240DB004913,"St Cronan's Avenue, stop 4913",53.46161913,-6.240346503,3929.1.60-41X-b12-1.246.O,18:38:25,18:38:25,45, Swords Manor,27454.92,60-41X-b12-1,41X,b12
97,8240DB004914,"Valley View, stop 4914",53.45985177,-6.241790066,3929.1.60-41X-b12-1.246.O,18:38:41,18:38:41,46, Swords Manor,27672.23,60-41X-b12-1,41X,b12
98,8240DB004915,"Ormond Avenue, stop 4915",53.45986299,-6.2449974,3929.1.60-41X-b12-1.246.O,18:39:01,18:39:01,47, Swords Manor,27916.51,60-41X-b12-1,41X,b12
99,8240DB004957,"Abbeyvale, stop 4957",53.45962615,-6.250910686,3929.1.60-41X-b12-1.246.O,18:39:51,18:39:51,48, Swords Manor,28317.99,60-41X-b12-1,41X,b12
