Index,stop_id,stop_name,stop_lat,stop_lon,trip_id,arrival_time,departure_time,stop_sequence,stop_headsign,shape_dist_traveled,route_id,customer_route_name,project_subnet
464,8220DB004962,"Mountjoy Square, stop 4962",53.35703972,-6.258495314,4411.1.60-7B-b12-1.144.O,17:10:00,17:10:00,1, Shankill,0.0,60-7B-b12-1,7B,b12
465,8220DB006059,"The Spire of Dublin, stop 6059",53.35022443,-6.260185175,4411.1.60-7B-b12-1.144.O,17:14:34,17:14:34,2, Shankill,985.8,60-7B-b12-1,7B,b12
466,8220DB000334,"D'Olier Street, stop 334",53.34658116,-6.258125591,4411.1.60-7B-b12-1.144.O,17:17:34,17:17:34,3, Shankill,1420.96,60-7B-b12-1,7B,b12
467,8220DB000406,"Nassau Street, stop 406",53.34260615,-6.256124946,4411.1.60-7B-b12-1.144.O,17:22:12,17:22:12,4, Shankill,2093.08,60-7B-b12-1,7B,b12
468,8220DB000747,"Kildare Street, stop 747",53.3399308,-6.255723519,4411.1.60-7B-b12-1.144.O,17:24:46,17:24:46,5, Shankill,2468.09,60-7B-b12-1,7B,b12
469,8220DB000842,"Stephen's Green East, stop 842",53.33725198,-6.256313389,4411.1.60-7B-b12-1.144.O,17:26:53,17:26:53,6, Shankill,2823.58,60-7B-b12-1,7B,b12
470,8220DB000845,"Leeson St Lower, stop 845",53.33545345,-6.256251618,4411.1.60-7B-b12-1.144.O,17:28:16,17:28:16,7, Shankill,3061.45,60-7B-b12-1,7B,b12
471,8220DB000846,"Fitzwilliam Place, stop 846",53.33345373,-6.254110908,4411.1.60-7B-b12-1.144.O,17:30:05,17:30:05,8, Shankill,3324.35,60-7B-b12-1,7B,b12
472,8220DB000847,"Leeson St Upper, stop 847",53.33160145,-6.25221962,4411.1.60-7B-b12-1.144.O,17:31:44,17:31:44,9, Shankill,3564.61,60-7B-b12-1,7B,b12
473,8220DB000848,"Sussex Road, stop 848",53.32972799,-6.248887998,4411.1.60-7B-b12-1.144.O,17:33:12,17:33:12,10, Shankill,3886.76,60-7B-b12-1,7B,b12
474,8220DB002795,"Leeson Village, stop 2795",53.32852998,-6.246264621,4411.1.60-7B-b12-1.144.O,17:34:18,17:34:18,11, Shankill,4108.2,60-7B-b12-1,7B,b12
475,8220DB000756,"Royal Hospital, stop 756",53.32639976,-6.242598747,4411.1.60-7B-b12-1.144.O,17:35:35,17:35:35,12, Shankill,4449.1,60-7B-b12-1,7B,b12
476,8220DB000757,"Donnybrook Village, stop 757",53.32408134,-6.23958651,4411.1.60-7B-b12-1.144.O,17:36:48,17:36:48,13, Shankill,4775.54,60-7B-b12-1,7B,b12
477,8220DB000758,"Victoria Avenue, stop 758",53.32268694,-6.23767738,4411.1.60-7B-b12-1.144.O,17:37:27,17:37:27,14, Shankill,4975.61,60-7B-b12-1,7B,b12
478,8220DB000759,"Donnybrook Stadium, stop 759",53.32034885,-6.233345517,4411.1.60-7B-b12-1.144.O,17:38:46,17:38:46,15, Shankill,5372.06,60-7B-b12-1,7B,b12
479,8220DB000760,"Donnybrook Church, stop 760",53.31833019,-6.230561956,4411.1.60-7B-b12-1.144.O,17:39:45,17:39:45,16, Shankill,5664.31,60-7B-b12-1,7B,b12
480,8220DB000761,"Teresian School, stop 761",53.3161004,-6.227487214,4411.1.60-7B-b12-1.144.O,17:40:25,17:40:25,17, Shankill,5985.54,60-7B-b12-1,7B,b12
481,8220DB000762,"RTE, stop 762",53.31451706,-6.224370944,4411.1.60-7B-b12-1.144.O,17:41:00,17:41:00,18, Shankill,6264.85,60-7B-b12-1,7B,b12
482,8220DB000763,"Belfield Court, stop 763",53.31232014,-6.221100319,4411.1.60-7B-b12-1.144.O,17:42:15,17:42:15,19, Shankill,6592.55,60-7B-b12-1,7B,b12
483,8250DB002007,"Woodbine Road, stop 2007",53.30887504,-6.216111205,4411.1.60-7B-b12-1.144.O,17:43:29,17:43:29,20, Shankill,7111.9,60-7B-b12-1,7B,b12
484,8250DB002008,"Seafield Road, stop 2008",53.3056004,-6.211115757,4411.1.60-7B-b12-1.144.O,17:44:38,17:44:38,21, Shankill,7604.77,60-7B-b12-1,7B,b12
485,8250DB002009,"Radisson Hotel, stop 2009",53.30333957,-6.207804139,4411.1.60-7B-b12-1.144.O,17:45:41,17:45:41,22, Shankill,7938.32,60-7B-b12-1,7B,b12
486,8250DB002010,"Booterstown Avenue, stop 2010",53.29889724,-6.20467441,4411.1.60-7B-b12-1.144.O,17:47:21,17:47:21,23, Shankill,8473.64,60-7B-b12-1,7B,b12
487,8250DB000435,"Sycamore Crescent, stop 435",53.29598904,-6.203746226,4411.1.60-7B-b12-1.144.O,17:48:13,17:48:13,24, Shankill,8803.78,60-7B-b12-1,7B,b12
488,8250DB007353,"Priory Grove, stop 7353",53.29349573,-6.201720633,4411.1.60-7B-b12-1.144.O,17:48:57,17:48:57,25, Shankill,9117.68,60-7B-b12-1,7B,b12
489,8250DB007584,"Stillorgan Grove, stop 7584",53.29013296,-6.192726647,4411.1.60-7B-b12-1.144.O,17:51:35,17:51:35,26, Shankill,9933.55,60-7B-b12-1,7B,b12
490,8250DB003344,"Coppinger Wood, stop 3344",53.28989966,-6.186241352,4411.1.60-7B-b12-1.144.O,17:53:07,17:53:07,27, Shankill,10402.05,60-7B-b12-1,7B,b12
491,8250DB007421,"Annaville Terrace, stop 7421",53.28941319,-6.176151839,4411.1.60-7B-b12-1.144.O,17:55:23,17:55:23,28, Shankill,11100.29,60-7B-b12-1,7B,b12
492,8250DB007422,"Rowanbyrn, stop 7422",53.28752413,-6.170772479,4411.1.60-7B-b12-1.144.O,17:56:42,17:56:42,29, Shankill,11518.76,60-7B-b12-1,7B,b12
493,8250DB006085,"Grange Grove, stop 6085",53.28649209,-6.166196821,4411.1.60-7B-b12-1.144.O,17:58:00,17:58:00,30, Shankill,11867.2,60-7B-b12-1,7B,b12
494,8250DB002053,"Abbey Park, stop 2053",53.28484623,-6.160297856,4411.1.60-7B-b12-1.144.O,18:00:03,18:00:03,31, Shankill,12403.15,60-7B-b12-1,7B,b12
495,8250DB002054,"Rory O'Connor Park, stop 2054",53.28323854,-6.159212076,4411.1.60-7B-b12-1.144.O,18:00:47,18:00:47,32, Shankill,12596.53,60-7B-b12-1,7B,b12
496,8250DB002055,"Casement Villas, stop 2055",53.28145994,-6.158118729,4411.1.60-7B-b12-1.144.O,18:01:33,18:01:33,33, Shankill,12808.09,60-7B-b12-1,7B,b12
497,8250DB004732,"National Rehab Hosp, stop 4732",53.2758242,-6.151148256,4411.1.60-7B-b12-1.144.O,18:03:31,18:03:31,34, Shankill,13614.62,60-7B-b12-1,7B,b12
498,8250DB003243,"Somerton, stop 3243",53.27417334,-6.148445451,4411.1.60-7B-b12-1.144.O,18:04:08,18:04:08,35, Shankill,13872.26,60-7B-b12-1,7B,b12
499,8250DB003244,"Garden Centre, stop 3244",53.27255006,-6.145786641,4411.1.60-7B-b12-1.144.O,18:04:43,18:04:43,36, Shankill,14125.63,60-7B-b12-1,7B,b12
500,8250DB003245,"Johnstown Road, stop 3245",53.27068361,-6.142523828,4411.1.60-7B-b12-1.144.O,18:05:29,18:05:29,37, Shankill,14424.22,60-7B-b12-1,7B,b12
501,8250DB003212,"Granitefield, stop 3212",53.26911504,-6.139923051,4411.1.60-7B-b12-1.144.O,18:06:09,18:06:09,38, Shankill,14670.63,60-7B-b12-1,7B,b12
502,8250DB003213,"Killiney SC, stop 3213",53.26706199,-6.136234082,4411.1.60-7B-b12-1.144.O,18:07:03,18:07:03,39, Shankill,15006.66,60-7B-b12-1,7B,b12
503,8250DB003214,"Churchview Road, stop 3214",53.26460084,-6.134617098,4411.1.60-7B-b12-1.144.O,18:08:13,18:08:13,40, Shankill,15446.97,60-7B-b12-1,7B,b12
504,8250DB003215,"Auburn Drive, stop 3215",53.26203127,-6.137562192,4411.1.60-7B-b12-1.144.O,18:09:09,18:09:09,41, Shankill,15813.94,60-7B-b12-1,7B,b12
505,8250DB003216,"Kilbogget Park, stop 3216",53.25887231,-6.137879343,4411.1.60-7B-b12-1.144.O,18:10:07,18:10:07,42, Shankill,16186.54,60-7B-b12-1,7B,b12
506,8250DB003217,"Ballybrack SC, stop 3217",53.2570426,-6.135830404,4411.1.60-7B-b12-1.144.O,18:10:46,18:10:46,43, Shankill,16432.75,60-7B-b12-1,7B,b12
507,8250DB003218,"Pinewood, stop 3218",53.25492344,-6.13252024,4411.1.60-7B-b12-1.144.O,18:11:38,18:11:38,44, Shankill,16764.28,60-7B-b12-1,7B,b12
508,8250DB003219,"Oakton Park, stop 3219",53.25311038,-6.130965577,4411.1.60-7B-b12-1.144.O,18:12:26,18:12:26,45, Shankill,17061.61,60-7B-b12-1,7B,b12
509,8250DB003537,"Ballybrack Cross, stop 3537",53.25195289,-6.123657329,4411.1.60-7B-b12-1.144.O,18:14:57,18:14:57,46, Shankill,17897.88,60-7B-b12-1,7B,b12
510,8250DB003538,"Sheelin Estate, stop 3538",53.24966244,-6.123188089,4411.1.60-7B-b12-1.144.O,18:15:15,18:15:15,47, Shankill,18156.81,60-7B-b12-1,7B,b12
511,8250DB007556,"The Elms, stop 7556",53.24804398,-6.123154034,4411.1.60-7B-b12-1.144.O,18:15:42,18:15:42,48, Shankill,18337.3,60-7B-b12-1,7B,b12
512,8250DB003539,"River Close, stop 3539",53.24401834,-6.121517115,4411.1.60-7B-b12-1.144.O,18:16:54,18:16:54,49, Shankill,18839.33,60-7B-b12-1,7B,b12
513,8250DB003540,"Shanganagh Bridge, stop 3540",53.24268093,-6.121635635,4411.1.60-7B-b12-1.144.O,18:17:15,18:17:15,50, Shankill,18990.7,60-7B-b12-1,7B,b12
514,8250DB003541,"Hazelwood, stop 3541",53.23882609,-6.122853245,4411.1.60-7B-b12-1.144.O,18:18:09,18:18:09,51, Shankill,19435.21,60-7B-b12-1,7B,b12
515,8250DB003542,"Rathsallagh, stop 3542",53.23640017,-6.122914465,4411.1.60-7B-b12-1.144.O,18:18:42,18:18:42,52, Shankill,19705.38,60-7B-b12-1,7B,b12
516,8250DB003544,"Beechfield Manor, stop 3544",53.23436713,-6.122239394,4411.1.60-7B-b12-1.144.O,18:19:17,18:19:17,53, Shankill,19989.32,60-7B-b12-1,7B,b12
