Index,stop_id,stop_name,stop_lat,stop_lon,trip_id,arrival_time,departure_time,stop_sequence,stop_headsign,shape_dist_traveled,route_id,customer_route_name,project_subnet
132,8220DB002492,"Stannaway Ave, stop 2492",53.31630636,-6.307884119,15039.2.60-83A-b12-1.311.I,09:20:00,09:20:00,1, Charlestown,0.0,60-83A-b12-1,83A,b12
133,8220DB002493,"Captain's Road, stop 2493",53.31833048,-6.308644599,15039.2.60-83A-b12-1.311.I,09:20:58,09:20:58,2, Charlestown,357.7,60-83A-b12-1,83A,b12
134,8220DB002465,"Armagh Road, stop 2465",53.31998846,-6.308939283,15039.2.60-83A-b12-1.311.I,09:21:36,09:21:36,3, Charlestown,583.6,60-83A-b12-1,83A,b12
135,8220DB002466,"Scoil Colm, stop 2466",53.32065423,-6.306451176,15039.2.60-83A-b12-1.311.I,09:22:06,09:22:06,4, Charlestown,767.45,60-83A-b12-1,83A,b12
136,8220DB002467,"Cashel Road, stop 2467",53.31923418,-6.303925628,15039.2.60-83A-b12-1.311.I,09:22:51,09:22:51,5, Charlestown,1034.5,60-83A-b12-1,83A,b12
137,8220DB002494,"Stannaway Road, stop 2494",53.31969667,-6.300424844,15039.2.60-83A-b12-1.311.I,09:24:02,09:24:02,6, Charlestown,1387.63,60-83A-b12-1,83A,b12
138,8220DB002495,"Ferns Road, stop 2495",53.32121991,-6.296941782,15039.2.60-83A-b12-1.311.I,09:25:06,09:25:06,7, Charlestown,1674.57,60-83A-b12-1,83A,b12
139,8220DB002496,"Eamonn Ceannt Park, stop 2496",53.32196775,-6.293924742,15039.2.60-83A-b12-1.311.I,09:25:57,09:25:57,8, Charlestown,1930.55,60-83A-b12-1,83A,b12
140,8220DB002497,"Sundrive Park, stop 2497",53.32032995,-6.291903584,15039.2.60-83A-b12-1.311.I,09:26:40,09:26:40,9, Charlestown,2158.37,60-83A-b12-1,83A,b12
141,8220DB002471,"Larkfield Park, stop 2471",53.31868158,-6.289147501,15039.2.60-83A-b12-1.311.I,09:27:27,09:27:27,10, Charlestown,2417.4,60-83A-b12-1,83A,b12
142,8220DB002472,"Harolds Cross NS, stop 2472",53.31767791,-6.285600295,15039.2.60-83A-b12-1.311.I,09:28:01,09:28:01,11, Charlestown,2690.43,60-83A-b12-1,83A,b12
143,8220DB002473,"Clareville Road, stop 2473",53.31788873,-6.283385384,15039.2.60-83A-b12-1.311.I,09:28:19,09:28:19,12, Charlestown,2843.05,60-83A-b12-1,83A,b12
144,8220DB002474,"Westfield Road, stop 2474",53.31875601,-6.281819529,15039.2.60-83A-b12-1.311.I,09:28:36,09:28:36,13, Charlestown,2991.19,60-83A-b12-1,83A,b12
145,8220DB002475,"Kenilworth Park, stop 2475",53.31886589,-6.280088932,15039.2.60-83A-b12-1.311.I,09:28:54,09:28:54,14, Charlestown,3130.12,60-83A-b12-1,83A,b12
146,8220DB002476,"Kenilworth Square N, stop 2476",53.31904381,-6.277469975,15039.2.60-83A-b12-1.311.I,09:29:28,09:29:28,15, Charlestown,3325.86,60-83A-b12-1,83A,b12
147,8220DB002477,"Kenilworth Road, stop 2477",53.31987794,-6.274239109,15039.2.60-83A-b12-1.311.I,09:30:12,09:30:12,16, Charlestown,3559.23,60-83A-b12-1,83A,b12
148,8220DB002478,"Grosvenor Road, stop 2478",53.32057759,-6.269797669,15039.2.60-83A-b12-1.311.I,09:31:20,09:31:20,17, Charlestown,3918.69,60-83A-b12-1,83A,b12
149,8220DB001170,"Rathmines Garda Stn, stop 1170",53.32168955,-6.266525249,15039.2.60-83A-b12-1.311.I,09:32:06,09:32:06,18, Charlestown,4169.13,60-83A-b12-1,83A,b12
150,8220DB001069,"Swan Centre, stop 1069",53.32328526,-6.265619895,15039.2.60-83A-b12-1.311.I,09:32:44,09:32:44,19, Charlestown,4373.39,60-83A-b12-1,83A,b12
151,8220DB001070,"Rathmines, stop 1070",53.32498018,-6.265355983,15039.2.60-83A-b12-1.311.I,09:33:19,09:33:19,20, Charlestown,4577.09,60-83A-b12-1,83A,b12
152,8220DB001071,"St Mary's College, stop 1071",53.32721804,-6.264724712,15039.2.60-83A-b12-1.311.I,09:34:07,09:34:07,21, Charlestown,4831.08,60-83A-b12-1,83A,b12
153,8220DB004528,"Grove Park, stop 4528",53.32889608,-6.26453649,15039.2.60-83A-b12-1.311.I,09:34:42,09:34:42,22, Charlestown,5018.68,60-83A-b12-1,83A,b12
154,8220DB001072,"South Richmond St, stop 1072",53.33102697,-6.264585114,15039.2.60-83A-b12-1.311.I,09:35:31,09:35:31,23, Charlestown,5259.09,60-83A-b12-1,83A,b12
155,8220DB001352,"Camden Street Lower, stop 1352",53.33444543,-6.265407334,15039.2.60-83A-b12-1.311.I,09:36:47,09:36:47,24, Charlestown,5642.21,60-83A-b12-1,83A,b12
156,8220DB001353,"Pleasants Street, stop 1353",53.33600953,-6.265418938,15039.2.60-83A-b12-1.311.I,09:37:22,09:37:22,25, Charlestown,5819.08,60-83A-b12-1,83A,b12
157,8220DB001355,"Whitefriars Street, stop 1355",53.34009624,-6.265838755,15039.2.60-83A-b12-1.311.I,09:39:02,09:39:02,26, Charlestown,6278.13,60-83A-b12-1,83A,b12
158,8220DB001357,"Exchequer Street, stop 1357",53.34256789,-6.26459703,15039.2.60-83A-b12-1.311.I,09:39:53,09:39:53,27, Charlestown,6569.31,60-83A-b12-1,83A,b12
159,8220DB001359,"College Green, stop 1359",53.34439941,-6.26136859,15039.2.60-83A-b12-1.311.I,09:42:13,09:42:13,28, Charlestown,6954.69,60-83A-b12-1,83A,b12
160,8220DB000319,"Westmoreland Street, stop 319",53.34627443,-6.259279614,15039.2.60-83A-b12-1.311.I,09:44:12,09:44:12,29, Charlestown,7275.76,60-83A-b12-1,83A,b12
161,8220DB001443,"Civic Offices, stop 1443",53.34512939,-6.269539559,15039.2.60-83A-b12-1.311.I,09:46:29,09:46:29,30, Charlestown,8075.25,60-83A-b12-1,83A,b12
162,8220DB001616,"St Michan's Church, stop 1616",53.34728507,-6.275024773,15039.2.60-83A-b12-1.311.I,09:49:21,09:49:21,31, Charlestown,8728.3,60-83A-b12-1,83A,b12
163,8220DB001617,"Capuchin Church, stop 1617",53.34933121,-6.274806964,15039.2.60-83A-b12-1.311.I,09:50:22,09:50:22,32, Charlestown,8957.83,60-83A-b12-1,83A,b12
164,8220DB001618,"Church Street Upper, stop 1618",53.35088706,-6.274248419,15039.2.60-83A-b12-1.311.I,09:51:00,09:51:00,33, Charlestown,9134.41,60-83A-b12-1,83A,b12
165,8220DB001619,"Constitution Hill, stop 1619",53.3529127,-6.273235199,15039.2.60-83A-b12-1.311.I,09:51:51,09:51:51,34, Charlestown,9372.78,60-83A-b12-1,83A,b12
166,8220DB000195,"Broadstone, stop 195",53.35501178,-6.27357098,15039.2.60-83A-b12-1.311.I,09:52:42,09:52:42,35, Charlestown,9964.64,60-83A-b12-1,83A,b12
167,8220DB000196,"Fire Station, stop 196",53.3568839,-6.273750704,15039.2.60-83A-b12-1.311.I,09:53:27,09:53:27,36, Charlestown,10189.42,60-83A-b12-1,83A,b12
168,8220DB000197,"Monck Place, stop 197",53.35895263,-6.273231374,15039.2.60-83A-b12-1.311.I,09:54:16,09:54:16,37, Charlestown,10419.49,60-83A-b12-1,83A,b12
169,8220DB000198,"Phibsborough SC, stop 198",53.36162538,-6.27283781,15039.2.60-83A-b12-1.311.I,09:55:22,09:55:22,38, Charlestown,10725.16,60-83A-b12-1,83A,b12
170,8220DB000199,"Munster Street, stop 199",53.36362181,-6.272291246,15039.2.60-83A-b12-1.311.I,09:56:03,09:56:03,39, Charlestown,10950.83,60-83A-b12-1,83A,b12
171,8220DB000200,"Prospect Way, stop 200",53.36742269,-6.271596444,15039.2.60-83A-b12-1.311.I,09:57:38,09:57:38,40, Charlestown,11462.08,60-83A-b12-1,83A,b12
172,8220DB000201,"Botanic Road, stop 201",53.3682911,-6.270118627,15039.2.60-83A-b12-1.311.I,09:58:16,09:58:16,41, Charlestown,11648.37,60-83A-b12-1,83A,b12
173,8220DB000202,"Fairfield Road, stop 202",53.37008009,-6.268903978,15039.2.60-83A-b12-1.311.I,09:58:43,09:58:43,42, Charlestown,11861.88,60-83A-b12-1,83A,b12
174,8220DB000151,"Botanic Gardens, stop 151",53.37195526,-6.269293828,15039.2.60-83A-b12-1.311.I,09:59:13,09:59:13,43, Charlestown,12097.94,60-83A-b12-1,83A,b12
175,8220DB000153,"Met Eireann, stop 153",53.37568851,-6.270134439,15039.2.60-83A-b12-1.311.I,10:00:14,10:00:14,44, Charlestown,12569.76,60-83A-b12-1,83A,b12
176,8220DB000154,"St Brigid's School, stop 154",53.377259,-6.275557037,15039.2.60-83A-b12-1.311.I,10:01:18,10:01:18,45, Charlestown,12974.84,60-83A-b12-1,83A,b12
177,8220DB000155,"Old Finglas Road, stop 155",53.37787425,-6.279575527,15039.2.60-83A-b12-1.311.I,10:02:03,10:02:03,46, Charlestown,13254.61,60-83A-b12-1,83A,b12
178,8220DB000156,"Tolka Estate, stop 156",53.37862339,-6.281664739,15039.2.60-83A-b12-1.311.I,10:02:35,10:02:35,47, Charlestown,13452.65,60-83A-b12-1,83A,b12
179,8220DB000157,"Glasilawn Road, stop 157",53.38041162,-6.281637825,15039.2.60-83A-b12-1.311.I,10:03:12,10:03:12,48, Charlestown,13684.66,60-83A-b12-1,83A,b12
180,8220DB000158,"Griffith Road, stop 158",53.38148195,-6.283563954,15039.2.60-83A-b12-1.311.I,10:03:57,10:03:57,49, Charlestown,13966.11,60-83A-b12-1,83A,b12
181,8220DB000159,"Griffith Parade, stop 159",53.38278372,-6.282835112,15039.2.60-83A-b12-1.311.I,10:04:25,10:04:25,50, Charlestown,14147.87,60-83A-b12-1,83A,b12
182,8220DB001539,"Glasanaon Road, stop 1539",53.3831358,-6.279198016,15039.2.60-83A-b12-1.311.I,10:05:05,10:05:05,51, Charlestown,14467.22,60-83A-b12-1,83A,b12
183,8220DB001540,"Johnstown Park, stop 1540",53.38434031,-6.284200629,15039.2.60-83A-b12-1.311.I,10:05:52,10:05:52,52, Charlestown,14847.0,60-83A-b12-1,83A,b12
184,8220DB007426,"Ballygall Parade, stop 7426",53.38545638,-6.288064506,15039.2.60-83A-b12-1.311.I,10:06:28,10:06:28,53, Charlestown,15138.57,60-83A-b12-1,83A,b12
185,8220DB007427,"Ballygall Place, stop 7427",53.38779679,-6.29207501,15039.2.60-83A-b12-1.311.I,10:07:34,10:07:34,54, Charlestown,15509.39,60-83A-b12-1,83A,b12
186,8220DB007428,"Ballygall Road Junc, stop 7428",53.38908976,-6.293241074,15039.2.60-83A-b12-1.311.I,10:08:02,10:08:02,55, Charlestown,15673.45,60-83A-b12-1,83A,b12
187,8220DB000138,"St Canice's BNS, stop 138",53.38999501,-6.291806573,15039.2.60-83A-b12-1.311.I,10:08:37,10:08:37,56, Charlestown,15873.57,60-83A-b12-1,83A,b12
188,8220DB000133,"Grove Park Road, stop 133",53.39079693,-6.286301509,15039.2.60-83A-b12-1.311.I,10:09:50,10:09:50,57, Charlestown,16286.79,60-83A-b12-1,83A,b12
189,8220DB000134,"Sycamore Road, stop 134",53.39309459,-6.286073865,15039.2.60-83A-b12-1.311.I,10:10:35,10:10:35,58, Charlestown,16567.0,60-83A-b12-1,83A,b12
190,8220DB004890,"Sycamore Park, stop 4890",53.39516758,-6.290862585,15039.2.60-83A-b12-1.311.I,10:11:37,10:11:37,59, Charlestown,16960.24,60-83A-b12-1,83A,b12
191,8220DB004369,"Oakwood Road, stop 4369",53.3972652,-6.292357491,15039.2.60-83A-b12-1.311.I,10:12:31,10:12:31,60, Charlestown,17303.76,60-83A-b12-1,83A,b12
192,8240DB006219,"St Margaret's Road, stop 6219",53.39983649,-6.293036536,15039.2.60-83A-b12-1.311.I,10:13:30,10:13:30,61, Charlestown,17701.48,60-83A-b12-1,83A,b12
193,8240DB006229,"Melville, stop 6229",53.40204632,-6.298617971,15039.2.60-83A-b12-1.311.I,10:14:37,10:14:37,62, Charlestown,18153.36,60-83A-b12-1,83A,b12
194,8240DB007131,"Charlestown SC, stop 7131",53.40295145,-6.304116512,15039.2.60-83A-b12-1.311.I,10:15:33,10:15:33,63, Charlestown,18534.06,60-83A-b12-1,83A,b12
