Index,stop_id,stop_name,stop_lat,stop_lon,trip_id,arrival_time,departure_time,stop_sequence,stop_headsign,shape_dist_traveled,route_id,customer_route_name,project_subnet
3736,8220DB002492,"Stannaway Ave, stop 2492",53.31630636,-6.307884119,3691.1.60-83A-b12-1.310.I,21:40:00,21:40:00,1, Harristown,0.0,60-83A-b12-1,83A,b12
3737,8220DB002493,"Captain's Road, stop 2493",53.31833048,-6.308644599,3691.1.60-83A-b12-1.310.I,21:40:46,21:40:46,2, Harristown,357.7,60-83A-b12-1,83A,b12
3738,8220DB002465,"Armagh Road, stop 2465",53.31998846,-6.308939283,3691.1.60-83A-b12-1.310.I,21:41:17,21:41:17,3, Harristown,583.6,60-83A-b12-1,83A,b12
3739,8220DB002466,"Scoil Colm, stop 2466",53.32065423,-6.306451176,3691.1.60-83A-b12-1.310.I,21:41:41,21:41:41,4, Harristown,767.45,60-83A-b12-1,83A,b12
3740,8220DB002467,"Cashel Road, stop 2467",53.31923418,-6.303925628,3691.1.60-83A-b12-1.310.I,21:42:18,21:42:18,5, Harristown,1034.5,60-83A-b12-1,83A,b12
3741,8220DB002494,"Stannaway Road, stop 2494",53.31969667,-6.300424844,3691.1.60-83A-b12-1.310.I,21:43:16,21:43:16,6, Harristown,1387.63,60-83A-b12-1,83A,b12
3742,8220DB002495,"Ferns Road, stop 2495",53.32121991,-6.296941782,3691.1.60-83A-b12-1.310.I,21:44:08,21:44:08,7, Harristown,1674.57,60-83A-b12-1,83A,b12
3743,8220DB002496,"Eamonn Ceannt Park, stop 2496",53.32196775,-6.293924742,3691.1.60-83A-b12-1.310.I,21:44:50,21:44:50,8, Harristown,1930.55,60-83A-b12-1,83A,b12
3744,8220DB002497,"Sundrive Park, stop 2497",53.32032995,-6.291903584,3691.1.60-83A-b12-1.310.I,21:45:25,21:45:25,9, Harristown,2158.37,60-83A-b12-1,83A,b12
3745,8220DB002471,"Larkfield Park, stop 2471",53.31868158,-6.289147501,3691.1.60-83A-b12-1.310.I,21:46:03,21:46:03,10, Harristown,2417.4,60-83A-b12-1,83A,b12
3746,8220DB002472,"Harolds Cross NS, stop 2472",53.31767791,-6.285600295,3691.1.60-83A-b12-1.310.I,21:46:39,21:46:39,11, Harristown,2690.43,60-83A-b12-1,83A,b12
3747,8220DB002473,"Clareville Road, stop 2473",53.31788873,-6.283385384,3691.1.60-83A-b12-1.310.I,21:46:58,21:46:58,12, Harristown,2843.05,60-83A-b12-1,83A,b12
3748,8220DB002474,"Westfield Road, stop 2474",53.31875601,-6.281819529,3691.1.60-83A-b12-1.310.I,21:47:16,21:47:16,13, Harristown,2991.19,60-83A-b12-1,83A,b12
3749,8220DB002475,"Kenilworth Park, stop 2475",53.31886589,-6.280088932,3691.1.60-83A-b12-1.310.I,21:47:36,21:47:36,14, Harristown,3130.12,60-83A-b12-1,83A,b12
3750,8220DB002476,"Kenilworth Square N, stop 2476",53.31904381,-6.277469975,3691.1.60-83A-b12-1.310.I,21:48:15,21:48:15,15, Harristown,3325.86,60-83A-b12-1,83A,b12
3751,8220DB002477,"Kenilworth Road, stop 2477",53.31987794,-6.274239109,3691.1.60-83A-b12-1.310.I,21:49:06,21:49:06,16, Harristown,3559.23,60-83A-b12-1,83A,b12
3752,8220DB002478,"Grosvenor Road, stop 2478",53.32057759,-6.269797669,3691.1.60-83A-b12-1.310.I,21:50:24,21:50:24,17, Harristown,3918.69,60-83A-b12-1,83A,b12
3753,8220DB001170,"Rathmines Garda Stn, stop 1170",53.32168955,-6.266525249,3691.1.60-83A-b12-1.310.I,21:51:16,21:51:16,18, Harristown,4169.13,60-83A-b12-1,83A,b12
3754,8220DB001069,"Swan Centre, stop 1069",53.32328526,-6.265619895,3691.1.60-83A-b12-1.310.I,21:51:57,21:51:57,19, Harristown,4373.39,60-83A-b12-1,83A,b12
3755,8220DB001070,"Rathmines, stop 1070",53.32498018,-6.265355983,3691.1.60-83A-b12-1.310.I,21:52:34,21:52:34,20, Harristown,4577.09,60-83A-b12-1,83A,b12
3756,8220DB001071,"St Mary's College, stop 1071",53.32721804,-6.264724712,3691.1.60-83A-b12-1.310.I,21:53:25,21:53:25,21, Harristown,4831.08,60-83A-b12-1,83A,b12
3757,8220DB004528,"Grove Park, stop 4528",53.32889608,-6.26453649,3691.1.60-83A-b12-1.310.I,21:54:04,21:54:04,22, Harristown,5018.68,60-83A-b12-1,83A,b12
3758,8220DB001072,"South Richmond St, stop 1072",53.33102697,-6.264585114,3691.1.60-83A-b12-1.310.I,21:54:59,21:54:59,23, Harristown,5259.09,60-83A-b12-1,83A,b12
3759,8220DB001352,"Camden Street Lower, stop 1352",53.33444543,-6.265407334,3691.1.60-83A-b12-1.310.I,21:56:25,21:56:25,24, Harristown,5642.21,60-83A-b12-1,83A,b12
3760,8220DB001353,"Pleasants Street, stop 1353",53.33600953,-6.265418938,3691.1.60-83A-b12-1.310.I,21:57:04,21:57:04,25, Harristown,5819.08,60-83A-b12-1,83A,b12
3761,8220DB001355,"Whitefriars Street, stop 1355",53.34009624,-6.265838755,3691.1.60-83A-b12-1.310.I,21:59:16,21:59:16,26, Harristown,6278.13,60-83A-b12-1,83A,b12
3762,8220DB001357,"Exchequer Street, stop 1357",53.34256789,-6.26459703,3691.1.60-83A-b12-1.310.I,22:00:48,22:00:48,27, Harristown,6569.31,60-83A-b12-1,83A,b12
3763,8220DB001359,"College Green, stop 1359",53.34439941,-6.26136859,3691.1.60-83A-b12-1.310.I,22:03:46,22:03:46,28, Harristown,6954.69,60-83A-b12-1,83A,b12
3764,8220DB000319,"Westmoreland Street, stop 319",53.34627443,-6.259279614,3691.1.60-83A-b12-1.310.I,22:06:17,22:06:17,29, Harristown,7275.76,60-83A-b12-1,83A,b12
3765,8220DB001443,"Civic Offices, stop 1443",53.34512939,-6.269539559,3691.1.60-83A-b12-1.310.I,22:08:55,22:08:55,30, Harristown,8075.25,60-83A-b12-1,83A,b12
3766,8220DB001616,"St Michan's Church, stop 1616",53.34728507,-6.275024773,3691.1.60-83A-b12-1.310.I,22:12:35,22:12:35,31, Harristown,8728.3,60-83A-b12-1,83A,b12
3767,8220DB001617,"Capuchin Church, stop 1617",53.34933121,-6.274806964,3691.1.60-83A-b12-1.310.I,22:13:53,22:13:53,32, Harristown,8957.83,60-83A-b12-1,83A,b12
3768,8220DB001618,"Church Street Upper, stop 1618",53.35088706,-6.274248419,3691.1.60-83A-b12-1.310.I,22:14:27,22:14:27,33, Harristown,9134.41,60-83A-b12-1,83A,b12
3769,8220DB001619,"Constitution Hill, stop 1619",53.3529127,-6.273235199,3691.1.60-83A-b12-1.310.I,22:15:12,22:15:12,34, Harristown,9372.78,60-83A-b12-1,83A,b12
3770,8220DB000195,"Broadstone, stop 195",53.35501178,-6.27357098,3691.1.60-83A-b12-1.310.I,22:15:58,22:15:58,35, Harristown,9964.64,60-83A-b12-1,83A,b12
3771,8220DB000196,"Fire Station, stop 196",53.3568839,-6.273750704,3691.1.60-83A-b12-1.310.I,22:16:38,22:16:38,36, Harristown,10189.42,60-83A-b12-1,83A,b12
3772,8220DB000197,"Monck Place, stop 197",53.35895263,-6.273231374,3691.1.60-83A-b12-1.310.I,22:17:22,22:17:22,37, Harristown,10419.49,60-83A-b12-1,83A,b12
3773,8220DB000198,"Phibsborough SC, stop 198",53.36162538,-6.27283781,3691.1.60-83A-b12-1.310.I,22:18:20,22:18:20,38, Harristown,10725.16,60-83A-b12-1,83A,b12
3774,8220DB000199,"Munster Street, stop 199",53.36362181,-6.272291246,3691.1.60-83A-b12-1.310.I,22:19:06,22:19:06,39, Harristown,10950.83,60-83A-b12-1,83A,b12
3775,8220DB000200,"Prospect Way, stop 200",53.36742269,-6.271596444,3691.1.60-83A-b12-1.310.I,22:20:50,22:20:50,40, Harristown,11462.08,60-83A-b12-1,83A,b12
3776,8220DB000201,"Botanic Road, stop 201",53.3682911,-6.270118627,3691.1.60-83A-b12-1.310.I,22:21:16,22:21:16,41, Harristown,11648.37,60-83A-b12-1,83A,b12
3777,8220DB000202,"Fairfield Road, stop 202",53.37008009,-6.268903978,3691.1.60-83A-b12-1.310.I,22:21:43,22:21:43,42, Harristown,11861.88,60-83A-b12-1,83A,b12
3778,8220DB000151,"Botanic Gardens, stop 151",53.37195526,-6.269293828,3691.1.60-83A-b12-1.310.I,22:22:13,22:22:13,43, Harristown,12097.94,60-83A-b12-1,83A,b12
3779,8220DB000153,"Met Eireann, stop 153",53.37568851,-6.270134439,3691.1.60-83A-b12-1.310.I,22:23:15,22:23:15,44, Harristown,12569.76,60-83A-b12-1,83A,b12
3780,8220DB000154,"St Brigid's School, stop 154",53.377259,-6.275557037,3691.1.60-83A-b12-1.310.I,22:24:22,22:24:22,45, Harristown,12974.84,60-83A-b12-1,83A,b12
3781,8220DB000155,"Old Finglas Road, stop 155",53.37787425,-6.279575527,3691.1.60-83A-b12-1.310.I,22:25:09,22:25:09,46, Harristown,13254.61,60-83A-b12-1,83A,b12
3782,8220DB000156,"Tolka Estate, stop 156",53.37862339,-6.281664739,3691.1.60-83A-b12-1.310.I,22:25:42,22:25:42,47, Harristown,13452.65,60-83A-b12-1,83A,b12
3783,8220DB000157,"Glasilawn Road, stop 157",53.38041162,-6.281637825,3691.1.60-83A-b12-1.310.I,22:26:21,22:26:21,48, Harristown,13684.66,60-83A-b12-1,83A,b12
3784,8220DB000158,"Griffith Road, stop 158",53.38148195,-6.283563954,3691.1.60-83A-b12-1.310.I,22:27:08,22:27:08,49, Harristown,13966.11,60-83A-b12-1,83A,b12
3785,8220DB000159,"Griffith Parade, stop 159",53.38278372,-6.282835112,3691.1.60-83A-b12-1.310.I,22:27:37,22:27:37,50, Harristown,14147.87,60-83A-b12-1,83A,b12
3786,8220DB001539,"Glasanaon Road, stop 1539",53.3831358,-6.279198016,3691.1.60-83A-b12-1.310.I,22:28:24,22:28:24,51, Harristown,14467.22,60-83A-b12-1,83A,b12
3787,8220DB001540,"Johnstown Park, stop 1540",53.38434031,-6.284200629,3691.1.60-83A-b12-1.310.I,22:29:20,22:29:20,52, Harristown,14847.0,60-83A-b12-1,83A,b12
3788,8220DB007426,"Ballygall Parade, stop 7426",53.38545638,-6.288064506,3691.1.60-83A-b12-1.310.I,22:30:02,22:30:02,53, Harristown,15138.57,60-83A-b12-1,83A,b12
3789,8220DB007427,"Ballygall Place, stop 7427",53.38779679,-6.29207501,3691.1.60-83A-b12-1.310.I,22:30:57,22:30:57,54, Harristown,15509.39,60-83A-b12-1,83A,b12
3790,8220DB007428,"Ballygall Road Junc, stop 7428",53.38908976,-6.293241074,3691.1.60-83A-b12-1.310.I,22:31:21,22:31:21,55, Harristown,15673.45,60-83A-b12-1,83A,b12
3791,8220DB000138,"St Canice's BNS, stop 138",53.38999501,-6.291806573,3691.1.60-83A-b12-1.310.I,22:31:51,22:31:51,56, Harristown,15873.57,60-83A-b12-1,83A,b12
3792,8220DB000133,"Grove Park Road, stop 133",53.39079693,-6.286301509,3691.1.60-83A-b12-1.310.I,22:32:52,22:32:52,57, Harristown,16286.79,60-83A-b12-1,83A,b12
3793,8220DB000134,"Sycamore Road, stop 134",53.39309459,-6.286073865,3691.1.60-83A-b12-1.310.I,22:33:34,22:33:34,58, Harristown,16567.0,60-83A-b12-1,83A,b12
3794,8220DB004890,"Sycamore Park, stop 4890",53.39516758,-6.290862585,3691.1.60-83A-b12-1.310.I,22:34:32,22:34:32,59, Harristown,16960.24,60-83A-b12-1,83A,b12
3795,8220DB004369,"Oakwood Road, stop 4369",53.3972652,-6.292357491,3691.1.60-83A-b12-1.310.I,22:35:22,22:35:22,60, Harristown,17303.76,60-83A-b12-1,83A,b12
3796,8240DB006219,"St Margaret's Road, stop 6219",53.39983649,-6.293036536,3691.1.60-83A-b12-1.310.I,22:36:19,22:36:19,61, Harristown,17701.48,60-83A-b12-1,83A,b12
3797,8240DB006229,"Melville, stop 6229",53.40204632,-6.298617971,3691.1.60-83A-b12-1.310.I,22:37:24,22:37:24,62, Harristown,18153.36,60-83A-b12-1,83A,b12
3798,8240DB006348,"Charlestown SC, stop 6348",53.40350243,-6.302410113,3691.1.60-83A-b12-1.310.I,22:38:14,22:38:14,63, Harristown,18504.76,60-83A-b12-1,83A,b12
3799,8240DB001182,"Charlestown, stop 1182",53.40562047,-6.300926983,3691.1.60-83A-b12-1.310.I,22:38:50,22:38:50,64, Harristown,18758.86,60-83A-b12-1,83A,b12
3800,8240DB001550,"M50 Flyover, stop 1550",53.40755029,-6.300744777,3691.1.60-83A-b12-1.310.I,22:39:15,22:39:15,65, Harristown,19013.02,60-83A-b12-1,83A,b12
3801,8240DB001551,"Rockmount, stop 1551",53.40970015,-6.304660304,3691.1.60-83A-b12-1.310.I,22:39:45,22:39:45,66, Harristown,19374.41,60-83A-b12-1,83A,b12
3802,8240DB001552,"Logistics Park, stop 1552",53.41911712,-6.307023949,3691.1.60-83A-b12-1.310.I,22:41:15,22:41:15,67, Harristown,20494.03,60-83A-b12-1,83A,b12
3803,8240DB000332,"Harristown, stop 332",53.41735265,-6.278538756,3691.1.60-83A-b12-1.310.I,22:46:14,22:46:14,69, Harristown,23269.11,60-83A-b12-1,83A,b12
