Index,stop_id,stop_name,stop_lat,stop_lon,trip_id,arrival_time,departure_time,stop_sequence,stop_headsign,shape_dist_traveled,route_id,customer_route_name,project_subnet
0,8220DB000395,"Ringsend Road, stop 395",53.34194005,-6.235276454,15160.2.60-56A-b12-1.47.O,11:00:00,11:00:00,1, The Square,0.0,60-56A-b12-1,56A,b12
1,8220DB000396,"Grand Canal Quay, stop 396",53.34244252,-6.239475948,15160.2.60-56A-b12-1.47.O,11:00:50,11:00:50,2, The Square,292.56,60-56A-b12-1,56A,b12
2,8220DB000397,"Pearse Square, stop 397",53.34278556,-6.242015007,15160.2.60-56A-b12-1.47.O,11:01:22,11:01:22,3, The Square,466.34,60-56A-b12-1,56A,b12
3,8220DB000398,"Erne Street, stop 398",53.34329494,-6.245478447,15160.2.60-56A-b12-1.47.O,11:02:05,11:02:05,4, The Square,702.09,60-56A-b12-1,56A,b12
4,8220DB000399,"Pearse Station, stop 399",53.34386682,-6.248308601,15160.2.60-56A-b12-1.47.O,11:02:40,11:02:40,5, The Square,902.06,60-56A-b12-1,56A,b12
5,8220DB000400,"Shaw Street, stop 400",53.34484912,-6.253389973,15160.2.60-56A-b12-1.47.O,11:03:44,11:03:44,6, The Square,1255.93,60-56A-b12-1,56A,b12
6,8220DB004522,"College Green, stop 4522",53.34426249,-6.26060818,15160.2.60-56A-b12-1.47.O,11:06:47,11:06:47,7, The Square,1813.1,60-56A-b12-1,56A,b12
7,8220DB001934,"Dame Street, stop 1934",53.34411836,-6.265525325,15160.2.60-56A-b12-1.47.O,11:08:23,11:08:23,8, The Square,2139.94,60-56A-b12-1,56A,b12
8,8220DB002310,"Werburgh Street, stop 2310",53.3424457,-6.269798428,15160.2.60-56A-b12-1.47.O,11:10:38,11:10:38,9, The Square,2571.72,60-56A-b12-1,56A,b12
9,8220DB002311,"Kevin Street, stop 2311",53.33828528,-6.270492467,15160.2.60-56A-b12-1.47.O,11:12:43,11:12:43,10, The Square,3135.7,60-56A-b12-1,56A,b12
10,8220DB002312,"St Luke's Avenue, stop 2312",53.33887885,-6.275484235,15160.2.60-56A-b12-1.47.O,11:13:59,11:13:59,11, The Square,3516.64,60-56A-b12-1,56A,b12
11,8220DB002313,"Ardee Court, stop 2313",53.33874233,-6.278478182,15160.2.60-56A-b12-1.47.O,11:14:38,11:14:38,12, The Square,3714.47,60-56A-b12-1,56A,b12
12,8220DB002314,"Cork Street, stop 2314",53.33835368,-6.280821493,15160.2.60-56A-b12-1.47.O,11:15:08,11:15:08,13, The Square,3878.2,60-56A-b12-1,56A,b12
13,8220DB002315,"Brickfield Lane, stop 2315",53.33753643,-6.285239284,15160.2.60-56A-b12-1.47.O,11:16:04,11:16:04,14, The Square,4185.8,60-56A-b12-1,56A,b12
14,8220DB002094,"Coombe Hospital, stop 2094",53.33475197,-6.289750638,15160.2.60-56A-b12-1.47.O,11:17:00,11:17:00,15, The Square,4644.98,60-56A-b12-1,56A,b12
15,8220DB001406,"Dolphin's Barn, stop 1406",53.33315293,-6.291691527,15160.2.60-56A-b12-1.47.O,11:17:56,11:17:56,16, The Square,4889.36,60-56A-b12-1,56A,b12
16,8220DB001407,"Crumlin Road, stop 1407",53.3315385,-6.294443677,15160.2.60-56A-b12-1.47.O,11:18:39,11:18:39,17, The Square,5144.38,60-56A-b12-1,56A,b12
17,8220DB001409,"Loreto College, stop 1409",53.33036674,-6.297358156,15160.2.60-56A-b12-1.47.O,11:19:18,11:19:18,18, The Square,5378.61,60-56A-b12-1,56A,b12
18,8220DB002095,"Crumlin SC, stop 2095",53.32903747,-6.302470752,15160.2.60-56A-b12-1.47.O,11:19:57,11:19:57,19, The Square,5749.52,60-56A-b12-1,56A,b12
19,8220DB002096,"Guinness RFC, stop 2096",53.32808359,-6.306817491,15160.2.60-56A-b12-1.47.O,11:20:30,11:20:30,20, The Square,6057.05,60-56A-b12-1,56A,b12
20,8220DB002097,"Iveagh Gardens, stop 2097",53.32743275,-6.309725806,15160.2.60-56A-b12-1.47.O,11:20:57,11:20:57,21, The Square,6263.14,60-56A-b12-1,56A,b12
21,8220DB002099,"Drimnagh Road, stop 2099",53.32556158,-6.316600469,15160.2.60-56A-b12-1.47.O,11:22:05,11:22:05,22, The Square,6773.72,60-56A-b12-1,56A,b12
22,8220DB002101,"Crumlin Hospital, stop 2101",53.32495457,-6.318170639,15160.2.60-56A-b12-1.47.O,11:22:21,11:22:21,23, The Square,6894.64,60-56A-b12-1,56A,b12
23,8220DB002102,"Balfe Road, stop 2102",53.32419485,-6.326141902,15160.2.60-56A-b12-1.47.O,11:23:33,11:23:33,24, The Square,7432.96,60-56A-b12-1,56A,b12
24,8220DB002726,"Long Mile Road, stop 2726",53.32381439,-6.33042018,15160.2.60-56A-b12-1.47.O,11:24:07,11:24:07,25, The Square,7719.62,60-56A-b12-1,56A,b12
25,8220DB002727,"Drimnagh Castle, stop 2727",53.32375897,-6.332884293,15160.2.60-56A-b12-1.47.O,11:24:26,11:24:26,26, The Square,7882.46,60-56A-b12-1,56A,b12
26,8220DB002105,"Walkinstown Parade, stop 2105",53.32365258,-6.337497078,15160.2.60-56A-b12-1.47.O,11:25:04,11:25:04,27, The Square,8188.99,60-56A-b12-1,56A,b12
27,8220DB002728,"Walkinstown Park, stop 2728",53.32137023,-6.339477198,15160.2.60-56A-b12-1.47.O,11:26:07,11:26:07,28, The Square,8706.91,60-56A-b12-1,56A,b12
28,8220DB002729,"Walkinstown Park Est, stop 2729",53.31911061,-6.335992494,15160.2.60-56A-b12-1.47.O,11:26:43,11:26:43,29, The Square,9047.32,60-56A-b12-1,56A,b12
29,8220DB002730,"Walkinstown Comm Cen, stop 2730",53.31793543,-6.334222026,15160.2.60-56A-b12-1.47.O,11:27:01,11:27:01,30, The Square,9224.54,60-56A-b12-1,56A,b12
30,8230DB006083,"Walkinstown Crescent, stop 6083",53.3171053,-6.337211237,15160.2.60-56A-b12-1.47.O,11:27:49,11:27:49,31, The Square,9690.35,60-56A-b12-1,56A,b12
31,8230DB002733,"Ballymount Ind Est, stop 2733",53.31640351,-6.342972068,15160.2.60-56A-b12-1.47.O,11:28:31,11:28:31,32, The Square,10088.76,60-56A-b12-1,56A,b12
32,8230DB002734,"Ballymount Drive, stop 2734",53.31638501,-6.345524361,15160.2.60-56A-b12-1.47.O,11:28:49,11:28:49,33, The Square,10259.29,60-56A-b12-1,56A,b12
33,8230DB005169,"Ballymount Avenue, stop 5169",53.314718,-6.353663508,15160.2.60-56A-b12-1.47.O,11:29:49,11:29:49,34, The Square,10844.6,60-56A-b12-1,56A,b12
34,8230DB002735,"Crosslands Park, stop 2735",53.31378268,-6.356881273,15160.2.60-56A-b12-1.47.O,11:30:14,11:30:14,35, The Square,11084.56,60-56A-b12-1,56A,b12
35,8230DB002736,"Ballymount Retail C, stop 2736",53.31237261,-6.357610787,15160.2.60-56A-b12-1.47.O,11:30:41,11:30:41,36, The Square,11344.42,60-56A-b12-1,56A,b12
36,8230DB002725,"Westgate Park, stop 2725",53.31082837,-6.354473517,15160.2.60-56A-b12-1.47.O,11:31:08,11:31:08,37, The Square,11614.59,60-56A-b12-1,56A,b12
37,8230DB002737,"Sylvan Drive, stop 2737",53.30497259,-6.365907624,15160.2.60-56A-b12-1.47.O,11:33:39,11:33:39,38, The Square,13095.11,60-56A-b12-1,56A,b12
38,8230DB002738,"Kingswood Comm Cen, stop 2738",53.3063743,-6.367189601,15160.2.60-56A-b12-1.47.O,11:34:03,11:34:03,39, The Square,13282.61,60-56A-b12-1,56A,b12
39,8230DB002739,"St Killian's School, stop 2739",53.30724016,-6.370037714,15160.2.60-56A-b12-1.47.O,11:34:35,11:34:35,40, The Square,13529.32,60-56A-b12-1,56A,b12
40,8230DB007177,"Tynan Hall Park, stop 7177",53.30694505,-6.37278003,15160.2.60-56A-b12-1.47.O,11:35:01,11:35:01,41, The Square,13726.72,60-56A-b12-1,56A,b12
41,8230DB002740,"Kingswood Avenue, stop 2740",53.30407226,-6.376985608,15160.2.60-56A-b12-1.47.O,11:36:05,11:36:05,42, The Square,14209.27,60-56A-b12-1,56A,b12
42,8230DB002741,"Cookstown Road, stop 2741",53.30190866,-6.379153237,15160.2.60-56A-b12-1.47.O,11:37:07,11:37:07,43, The Square,14551.39,60-56A-b12-1,56A,b12
43,8230DB002742,"Belgard Heights, stop 2742",53.30005304,-6.382824345,15160.2.60-56A-b12-1.47.O,11:37:27,11:37:27,44, The Square,14871.31,60-56A-b12-1,56A,b12
44,8230DB002743,"Ard Mhuire School, stop 2743",53.29844519,-6.386215739,15160.2.60-56A-b12-1.47.O,11:37:47,11:37:47,45, The Square,15163.61,60-56A-b12-1,56A,b12
45,8230DB002745,"Cairnwood Avenue, stop 2745",53.29361887,-6.388227832,15160.2.60-56A-b12-1.47.O,11:39:19,11:39:19,46, The Square,15823.85,60-56A-b12-1,56A,b12
46,8230DB002746,"St Mark's School, stop 2746",53.29134349,-6.387458474,15160.2.60-56A-b12-1.47.O,11:39:42,11:39:42,47, The Square,16084.7,60-56A-b12-1,56A,b12
47,8230DB002747,"St Mark's GAA Club, stop 2747",53.28926196,-6.387731867,15160.2.60-56A-b12-1.47.O,11:40:07,11:40:07,48, The Square,16321.0,60-56A-b12-1,56A,b12
48,8230DB002748,"Maplewood Road, stop 2748",53.28595442,-6.389731218,15160.2.60-56A-b12-1.47.O,11:40:51,11:40:51,49, The Square,16732.04,60-56A-b12-1,56A,b12
49,8230DB007062,"Whitebrook, stop 7062",53.28480977,-6.39349379,15160.2.60-56A-b12-1.47.O,11:42:00,11:42:00,50, The Square,17151.54,60-56A-b12-1,56A,b12
50,8230DB006075,"Whitebrook Park, stop 6075",53.28322944,-6.390943502,15160.2.60-56A-b12-1.47.O,11:42:28,11:42:28,51, The Square,17396.54,60-56A-b12-1,56A,b12
51,8230DB002631,"Raheen Drive, stop 2631",53.28219617,-6.3889727,15160.2.60-56A-b12-1.47.O,11:42:49,11:42:49,52, The Square,17571.14,60-56A-b12-1,56A,b12
52,8230DB002359,"Maplewood Avenue, stop 2359",53.28359003,-6.384375966,15160.2.60-56A-b12-1.47.O,11:43:50,11:43:50,53, The Square,17974.88,60-56A-b12-1,56A,b12
53,8230DB002360,"Alderwood, stop 2360",53.28469482,-6.37968488,15160.2.60-56A-b12-1.47.O,11:44:45,11:44:45,54, The Square,18339.99,60-56A-b12-1,56A,b12
54,8230DB004340,"The Square, stop 4340",53.28600745,-6.373770777,15160.2.60-56A-b12-1.47.O,11:46:07,11:46:07,55, The Square,18889.5,60-56A-b12-1,56A,b12
