Index,stop_id,stop_name,stop_lat,stop_lon,trip_id,arrival_time,departure_time,stop_sequence,stop_headsign,shape_dist_traveled,route_id,customer_route_name,project_subnet
110,8250DB007639,"Brides Glen Luas, stop 7639",53.24139897,-6.143073229,1001.1.60-7-b12-1.134.I,11:45:00,11:45:00,1, Mountjoy Square,0.0,60-7-b12-1,7,b12
111,8250DB007640,"Cherrywood Bus Pk, stop 7640",53.24334835,-6.140696243,1001.1.60-7-b12-1.134.I,11:45:56,11:45:56,2, Mountjoy Square,369.96,60-7-b12-1,7,b12
112,8250DB005047,"Valley Drive, stop 5047",53.24581195,-6.14016984,1001.1.60-7-b12-1.134.I,11:47:19,11:47:19,3, Mountjoy Square,815.83,60-7-b12-1,7,b12
113,8250DB003224,"Ashlawn, stop 3224",53.25194585,-6.132365195,1001.1.60-7-b12-1.134.I,11:49:32,11:49:32,4, Mountjoy Square,1684.57,60-7-b12-1,7,b12
114,8250DB003225,"Ballybrack SC, stop 3225",53.25529487,-6.13385301,1001.1.60-7-b12-1.134.I,11:51:07,11:51:07,5, Mountjoy Square,2223.26,60-7-b12-1,7,b12
115,8250DB003226,"Kilbogget Park, stop 3226",53.25854707,-6.137773558,1001.1.60-7-b12-1.134.I,11:52:28,11:52:28,6, Mountjoy Square,2668.29,60-7-b12-1,7,b12
116,8250DB003227,"Auburn Drive, stop 3227",53.26195417,-6.137805394,1001.1.60-7-b12-1.134.I,11:53:29,11:53:29,7, Mountjoy Square,3061.92,60-7-b12-1,7,b12
117,8250DB003228,"Church Road, stop 3228",53.26475425,-6.134655395,1001.1.60-7-b12-1.134.I,11:54:29,11:54:29,8, Mountjoy Square,3448.53,60-7-b12-1,7,b12
118,8250DB003229,"Churchview Road, stop 3229",53.26535278,-6.134419453,1001.1.60-7-b12-1.134.I,11:54:51,11:54:51,9, Mountjoy Square,3587.69,60-7-b12-1,7,b12
119,8250DB007644,"Sallyglen Road, stop 7644",53.26764248,-6.134844498,1001.1.60-7-b12-1.134.I,11:55:33,11:55:33,10, Mountjoy Square,3863.57,60-7-b12-1,7,b12
120,8250DB007645,"Park Close, stop 7645",53.27510035,-6.134684715,1001.1.60-7-b12-1.134.I,11:56:54,11:56:54,11, Mountjoy Square,4693.37,60-7-b12-1,7,b12
121,8250DB007646,"Glenageary Avenue, stop 7646",53.2790895,-6.135725706,1001.1.60-7-b12-1.134.I,11:57:54,11:57:54,12, Mountjoy Square,5145.12,60-7-b12-1,7,b12
122,8250DB003238,"Holmston Avenue, stop 3238",53.28330973,-6.133727199,1001.1.60-7-b12-1.134.I,11:59:02,11:59:02,13, Mountjoy Square,5659.92,60-7-b12-1,7,b12
123,8250DB003239,"Crosthwaite Park, stop 3239",53.2843865,-6.133035331,1001.1.60-7-b12-1.134.I,11:59:25,11:59:25,14, Mountjoy Square,5787.62,60-7-b12-1,7,b12
124,8250DB003240,"Corrig Road, stop 3240",53.28717187,-6.131248929,1001.1.60-7-b12-1.134.I,12:00:24,12:00:24,15, Mountjoy Square,6120.94,60-7-b12-1,7,b12
125,8250DB003068,"George's St Upper, stop 3068",53.28982949,-6.130487902,1001.1.60-7-b12-1.134.I,12:02:12,12:02:12,16, Mountjoy Square,6469.7,60-7-b12-1,7,b12
126,8250DB003069,"Corrig Avenue, stop 3069",53.29075303,-6.132637683,1001.1.60-7-b12-1.134.I,12:03:06,12:03:06,17, Mountjoy Square,6645.44,60-7-b12-1,7,b12
127,8250DB003070,"Dun Laoghaire SC, stop 3070",53.2921151,-6.135818534,1001.1.60-7-b12-1.134.I,12:04:25,12:04:25,18, Mountjoy Square,6906.24,60-7-b12-1,7,b12
128,8250DB002041,"St Michael's Hosp, stop 2041",53.2935976,-6.139234377,1001.1.60-7-b12-1.134.I,12:05:46,12:05:46,19, Mountjoy Square,7187.39,60-7-b12-1,7,b12
129,8250DB003071,"De Vesci Park, stop 3071",53.29498472,-6.145189969,1001.1.60-7-b12-1.134.I,12:07:45,12:07:45,20, Mountjoy Square,7628.48,60-7-b12-1,7,b12
130,8250DB003072,"Grosvenor Terrace, stop 3072",53.29418522,-6.148690061,1001.1.60-7-b12-1.134.I,12:08:25,12:08:25,21, Mountjoy Square,7885.73,60-7-b12-1,7,b12
131,8250DB003073,"Monkstown Road, stop 3073",53.29378259,-6.155188246,1001.1.60-7-b12-1.134.I,12:09:31,12:09:31,22, Mountjoy Square,8326.33,60-7-b12-1,7,b12
132,8250DB003074,"Drayton Close, stop 3074",53.29449303,-6.159283182,1001.1.60-7-b12-1.134.I,12:10:10,12:10:10,23, Mountjoy Square,8609.08,60-7-b12-1,7,b12
133,8250DB003075,"Queen's Park, stop 3075",53.29488038,-6.162251951,1001.1.60-7-b12-1.134.I,12:10:36,12:10:36,24, Mountjoy Square,8810.85,60-7-b12-1,7,b12
134,8250DB003076,"Montpellier Parade, stop 3076",53.29543281,-6.166023823,1001.1.60-7-b12-1.134.I,12:11:10,12:11:10,25, Mountjoy Square,9068.63,60-7-b12-1,7,b12
135,8250DB003077,"Montpellier Manor, stop 3077",53.29591972,-6.168463369,1001.1.60-7-b12-1.134.I,12:11:46,12:11:46,26, Mountjoy Square,9239.34,60-7-b12-1,7,b12
136,8250DB003084,"Frascati SC, stop 3084",53.30138125,-6.181163412,1001.1.60-7-b12-1.134.I,12:15:53,12:15:53,29, Mountjoy Square,10344.31,60-7-b12-1,7,b12
137,8250DB000469,"Rock Road, stop 469",53.30284573,-6.184072133,1001.1.60-7-b12-1.134.I,12:16:27,12:16:27,30, Mountjoy Square,10631.85,60-7-b12-1,7,b12
138,8250DB000470,"Blackrock Clinic, stop 470",53.30562585,-6.188981104,1001.1.60-7-b12-1.134.I,12:17:25,12:17:25,31, Mountjoy Square,11083.89,60-7-b12-1,7,b12
139,8250DB000471,"Blackrock College, stop 471",53.30687081,-6.191059299,1001.1.60-7-b12-1.134.I,12:17:52,12:17:52,32, Mountjoy Square,11285.22,60-7-b12-1,7,b12
140,8250DB000472,"Booterstown Station, stop 472",53.30788203,-6.194918267,1001.1.60-7-b12-1.134.I,12:18:18,12:18:18,33, Mountjoy Square,11564.19,60-7-b12-1,7,b12
141,8250DB000473,"Grotto Avenue, stop 473",53.30924058,-6.197382139,1001.1.60-7-b12-1.134.I,12:18:59,12:18:59,34, Mountjoy Square,11787.26,60-7-b12-1,7,b12
142,8250DB004705,"St Helen's Road, stop 4705",53.31081827,-6.200077066,1001.1.60-7-b12-1.134.I,12:19:43,12:19:43,35, Mountjoy Square,12037.9,60-7-b12-1,7,b12
143,8250DB000475,"Bellevue Avenue, stop 475",53.31270616,-6.201888675,1001.1.60-7-b12-1.134.I,12:20:17,12:20:17,36, Mountjoy Square,12277.0,60-7-b12-1,7,b12
144,8220DB000476,"Merrion Gates, stop 476",53.31575153,-6.204762523,1001.1.60-7-b12-1.134.I,12:21:14,12:21:14,37, Mountjoy Square,12673.45,60-7-b12-1,7,b12
145,8220DB000477,"Herbert Avenue, stop 477",53.31686305,-6.20695232,1001.1.60-7-b12-1.134.I,12:21:50,12:21:50,38, Mountjoy Square,12869.26,60-7-b12-1,7,b12
146,8220DB000478,"St Vincent's Hosp, stop 478",53.3181143,-6.211267825,1001.1.60-7-b12-1.134.I,12:22:48,12:22:48,39, Mountjoy Square,13187.9,60-7-b12-1,7,b12
147,8220DB000479,"Merrion Centre, stop 479",53.31914397,-6.213401287,1001.1.60-7-b12-1.134.I,12:23:17,12:23:17,40, Mountjoy Square,13369.7,60-7-b12-1,7,b12
148,8220DB000480,"Netherlands Embassy, stop 480",53.32084998,-6.216287205,1001.1.60-7-b12-1.134.I,12:24:00,12:24:00,41, Mountjoy Square,13638.78,60-7-b12-1,7,b12
149,8220DB000481,"Wanderers FC, stop 481",53.32234464,-6.218266443,1001.1.60-7-b12-1.134.I,12:24:34,12:24:34,42, Mountjoy Square,13850.49,60-7-b12-1,7,b12
150,8220DB000482,"Shrewsbury Road, stop 482",53.32472778,-6.221965295,1001.1.60-7-b12-1.134.I,12:25:32,12:25:32,43, Mountjoy Square,14212.4,60-7-b12-1,7,b12
151,8220DB000483,"British Embassy, stop 483",53.32594411,-6.223971481,1001.1.60-7-b12-1.134.I,12:26:16,12:26:16,44, Mountjoy Square,14401.21,60-7-b12-1,7,b12
152,8220DB000485,"RDS Ballsbridge, stop 485",53.32825151,-6.228634971,1001.1.60-7-b12-1.134.I,12:27:56,12:27:56,45, Mountjoy Square,14822.91,60-7-b12-1,7,b12
153,8220DB000487,"American Embassy, stop 487",53.33085529,-6.233902308,1001.1.60-7-b12-1.134.I,12:29:50,12:29:50,46, Mountjoy Square,15285.88,60-7-b12-1,7,b12
154,8220DB000488,"Lansdowne Park, stop 488",53.33309855,-6.236076947,1001.1.60-7-b12-1.134.I,12:30:50,12:30:50,47, Mountjoy Square,15574.86,60-7-b12-1,7,b12
155,8220DB000489,"St Mary's Rd South, stop 489",53.334942,-6.237352313,1001.1.60-7-b12-1.134.I,12:31:46,12:31:46,48, Mountjoy Square,15795.32,60-7-b12-1,7,b12
156,8220DB000490,"Haddington Road, stop 490",53.33657384,-6.238906806,1001.1.60-7-b12-1.134.I,12:32:40,12:32:40,49, Mountjoy Square,16009.33,60-7-b12-1,7,b12
157,8220DB000491,"Mount Street Bridge, stop 491",53.33781405,-6.241333511,1001.1.60-7-b12-1.134.I,12:33:35,12:33:35,50, Mountjoy Square,16225.79,60-7-b12-1,7,b12
158,8220DB000492,"Mount Street Lower, stop 492",53.33858469,-6.243614462,1001.1.60-7-b12-1.134.I,12:34:20,12:34:20,51, Mountjoy Square,16400.27,60-7-b12-1,7,b12
159,8220DB000493,"Holles Street, stop 493",53.33985342,-6.247376823,1001.1.60-7-b12-1.134.I,12:35:34,12:35:34,52, Mountjoy Square,16687.43,60-7-b12-1,7,b12
160,8220DB000494,"Clare Street, stop 494",53.34143558,-6.251682252,1001.1.60-7-b12-1.134.I,12:37:21,12:37:21,53, Mountjoy Square,17022.77,60-7-b12-1,7,b12
161,8220DB000495,"Pearse Station, stop 495",53.34359132,-6.249746705,1001.1.60-7-b12-1.134.I,12:39:20,12:39:20,54, Mountjoy Square,17426.83,60-7-b12-1,7,b12
162,8220DB000400,"Shaw Street, stop 400",53.34484912,-6.253389973,1001.1.60-7-b12-1.134.I,12:40:59,12:40:59,55, Mountjoy Square,17760.99,60-7-b12-1,7,b12
163,8220DB000281,"O'Connell St Upper, stop 281",53.35134353,-6.261116008,1001.1.60-7-b12-1.134.I,12:46:19,12:46:19,56, Mountjoy Square,18916.33,60-7-b12-1,7,b12
164,8220DB000004,"Parnell Square West, stop 4",53.35257451,-6.264175486,1001.1.60-7-b12-1.134.I,12:47:50,12:47:50,57, Mountjoy Square,19263.2,60-7-b12-1,7,b12
165,8220DB004962,"Mountjoy Square, stop 4962",53.35703972,-6.258495314,1001.1.60-7-b12-1.134.I,12:53:18,12:53:18,58, Mountjoy Square,20017.25,60-7-b12-1,7,b12
