Index,stop_id,stop_name,stop_lat,stop_lon,trip_id,arrival_time,departure_time,stop_sequence,stop_headsign,shape_dist_traveled,route_id,customer_route_name,project_subnet
554,8250DB007639,"Brides Glen Luas, stop 7639",53.24139897,-6.143073229,1007.1.60-7-b12-1.135.I,20:45:00,20:45:00,1, Parnell Square,0.0,60-7-b12-1,7,b12
555,8250DB007640,"Cherrywood Bus Pk, stop 7640",53.24334835,-6.140696243,1007.1.60-7-b12-1.135.I,20:45:46,20:45:46,2, Parnell Square,369.96,60-7-b12-1,7,b12
556,8250DB005047,"Valley Drive, stop 5047",53.24581195,-6.14016984,1007.1.60-7-b12-1.135.I,20:46:54,20:46:54,3, Parnell Square,815.83,60-7-b12-1,7,b12
557,8250DB003224,"Ashlawn, stop 3224",53.25194585,-6.132365195,1007.1.60-7-b12-1.135.I,20:48:15,20:48:15,4, Parnell Square,1684.57,60-7-b12-1,7,b12
558,8250DB003225,"Ballybrack SC, stop 3225",53.25529487,-6.13385301,1007.1.60-7-b12-1.135.I,20:49:11,20:49:11,5, Parnell Square,2223.26,60-7-b12-1,7,b12
559,8250DB003226,"Kilbogget Park, stop 3226",53.25854707,-6.137773558,1007.1.60-7-b12-1.135.I,20:49:59,20:49:59,6, Parnell Square,2668.29,60-7-b12-1,7,b12
560,8250DB003227,"Auburn Drive, stop 3227",53.26195417,-6.137805394,1007.1.60-7-b12-1.135.I,20:50:42,20:50:42,7, Parnell Square,3061.92,60-7-b12-1,7,b12
561,8250DB003228,"Church Road, stop 3228",53.26475425,-6.134655395,1007.1.60-7-b12-1.135.I,20:51:24,20:51:24,8, Parnell Square,3448.53,60-7-b12-1,7,b12
562,8250DB003229,"Churchview Road, stop 3229",53.26535278,-6.134419453,1007.1.60-7-b12-1.135.I,20:51:40,20:51:40,9, Parnell Square,3587.69,60-7-b12-1,7,b12
563,8250DB007644,"Sallyglen Road, stop 7644",53.26764248,-6.134844498,1007.1.60-7-b12-1.135.I,20:52:10,20:52:10,10, Parnell Square,3863.57,60-7-b12-1,7,b12
564,8250DB007645,"Park Close, stop 7645",53.27510035,-6.134684715,1007.1.60-7-b12-1.135.I,20:53:16,20:53:16,11, Parnell Square,4693.37,60-7-b12-1,7,b12
565,8250DB007646,"Glenageary Avenue, stop 7646",53.2790895,-6.135725706,1007.1.60-7-b12-1.135.I,20:53:57,20:53:57,12, Parnell Square,5145.12,60-7-b12-1,7,b12
566,8250DB003238,"Holmston Avenue, stop 3238",53.28330973,-6.133727199,1007.1.60-7-b12-1.135.I,20:54:54,20:54:54,13, Parnell Square,5659.92,60-7-b12-1,7,b12
567,8250DB003239,"Crosthwaite Park, stop 3239",53.2843865,-6.133035331,1007.1.60-7-b12-1.135.I,20:55:09,20:55:09,14, Parnell Square,5787.62,60-7-b12-1,7,b12
568,8250DB003240,"Corrig Road, stop 3240",53.28717187,-6.131248929,1007.1.60-7-b12-1.135.I,20:55:48,20:55:48,15, Parnell Square,6120.94,60-7-b12-1,7,b12
569,8250DB003068,"George's St Upper, stop 3068",53.28982949,-6.130487902,1007.1.60-7-b12-1.135.I,20:56:52,20:56:52,16, Parnell Square,6469.7,60-7-b12-1,7,b12
570,8250DB003069,"Corrig Avenue, stop 3069",53.29075303,-6.132637683,1007.1.60-7-b12-1.135.I,20:57:24,20:57:24,17, Parnell Square,6645.44,60-7-b12-1,7,b12
571,8250DB003070,"Dun Laoghaire SC, stop 3070",53.2921151,-6.135818534,1007.1.60-7-b12-1.135.I,20:58:10,20:58:10,18, Parnell Square,6906.24,60-7-b12-1,7,b12
572,8250DB002041,"St Michael's Hosp, stop 2041",53.2935976,-6.139234377,1007.1.60-7-b12-1.135.I,20:59:03,20:59:03,19, Parnell Square,7187.39,60-7-b12-1,7,b12
573,8250DB003071,"De Vesci Park, stop 3071",53.29498472,-6.145189969,1007.1.60-7-b12-1.135.I,21:00:20,21:00:20,20, Parnell Square,7628.48,60-7-b12-1,7,b12
574,8250DB003072,"Grosvenor Terrace, stop 3072",53.29418522,-6.148690061,1007.1.60-7-b12-1.135.I,21:00:53,21:00:53,21, Parnell Square,7885.73,60-7-b12-1,7,b12
575,8250DB003073,"Monkstown Road, stop 3073",53.29378259,-6.155188246,1007.1.60-7-b12-1.135.I,21:01:48,21:01:48,22, Parnell Square,8326.33,60-7-b12-1,7,b12
576,8250DB003074,"Drayton Close, stop 3074",53.29449303,-6.159283182,1007.1.60-7-b12-1.135.I,21:02:17,21:02:17,23, Parnell Square,8609.08,60-7-b12-1,7,b12
577,8250DB003075,"Queen's Park, stop 3075",53.29488038,-6.162251951,1007.1.60-7-b12-1.135.I,21:02:37,21:02:37,24, Parnell Square,8810.85,60-7-b12-1,7,b12
578,8250DB003076,"Montpellier Parade, stop 3076",53.29543281,-6.166023823,1007.1.60-7-b12-1.135.I,21:03:02,21:03:02,25, Parnell Square,9068.63,60-7-b12-1,7,b12
579,8250DB003077,"Montpellier Manor, stop 3077",53.29591972,-6.168463369,1007.1.60-7-b12-1.135.I,21:03:25,21:03:25,26, Parnell Square,9239.34,60-7-b12-1,7,b12
580,8250DB003084,"Frascati SC, stop 3084",53.30138125,-6.181163412,1007.1.60-7-b12-1.135.I,21:05:46,21:05:46,29, Parnell Square,10344.31,60-7-b12-1,7,b12
581,8250DB000469,"Rock Road, stop 469",53.30284573,-6.184072133,1007.1.60-7-b12-1.135.I,21:06:13,21:06:13,30, Parnell Square,10631.85,60-7-b12-1,7,b12
582,8250DB000470,"Blackrock Clinic, stop 470",53.30562585,-6.188981104,1007.1.60-7-b12-1.135.I,21:07:00,21:07:00,31, Parnell Square,11083.89,60-7-b12-1,7,b12
583,8250DB000471,"Blackrock College, stop 471",53.30687081,-6.191059299,1007.1.60-7-b12-1.135.I,21:07:21,21:07:21,32, Parnell Square,11285.22,60-7-b12-1,7,b12
584,8250DB000472,"Booterstown Station, stop 472",53.30788203,-6.194918267,1007.1.60-7-b12-1.135.I,21:07:43,21:07:43,33, Parnell Square,11564.19,60-7-b12-1,7,b12
585,8250DB000473,"Grotto Avenue, stop 473",53.30924058,-6.197382139,1007.1.60-7-b12-1.135.I,21:08:08,21:08:08,34, Parnell Square,11787.26,60-7-b12-1,7,b12
586,8250DB004705,"St Helen's Road, stop 4705",53.31081827,-6.200077066,1007.1.60-7-b12-1.135.I,21:08:34,21:08:34,35, Parnell Square,12037.9,60-7-b12-1,7,b12
587,8250DB000475,"Bellevue Avenue, stop 475",53.31270616,-6.201888675,1007.1.60-7-b12-1.135.I,21:09:00,21:09:00,36, Parnell Square,12277.0,60-7-b12-1,7,b12
588,8220DB000476,"Merrion Gates, stop 476",53.31575153,-6.204762523,1007.1.60-7-b12-1.135.I,21:09:43,21:09:43,37, Parnell Square,12673.45,60-7-b12-1,7,b12
589,8220DB000477,"Herbert Avenue, stop 477",53.31686305,-6.20695232,1007.1.60-7-b12-1.135.I,21:10:05,21:10:05,38, Parnell Square,12869.26,60-7-b12-1,7,b12
590,8220DB000478,"St Vincent's Hosp, stop 478",53.3181143,-6.211267825,1007.1.60-7-b12-1.135.I,21:10:41,21:10:41,39, Parnell Square,13187.9,60-7-b12-1,7,b12
591,8220DB000479,"Merrion Centre, stop 479",53.31914397,-6.213401287,1007.1.60-7-b12-1.135.I,21:11:00,21:11:00,40, Parnell Square,13369.7,60-7-b12-1,7,b12
592,8220DB000480,"Netherlands Embassy, stop 480",53.32084998,-6.216287205,1007.1.60-7-b12-1.135.I,21:11:28,21:11:28,41, Parnell Square,13638.78,60-7-b12-1,7,b12
593,8220DB000481,"Wanderers FC, stop 481",53.32234464,-6.218266443,1007.1.60-7-b12-1.135.I,21:11:50,21:11:50,42, Parnell Square,13850.49,60-7-b12-1,7,b12
594,8220DB000482,"Shrewsbury Road, stop 482",53.32472778,-6.221965295,1007.1.60-7-b12-1.135.I,21:12:28,21:12:28,43, Parnell Square,14212.4,60-7-b12-1,7,b12
595,8220DB000483,"British Embassy, stop 483",53.32594411,-6.223971481,1007.1.60-7-b12-1.135.I,21:12:58,21:12:58,44, Parnell Square,14401.21,60-7-b12-1,7,b12
596,8220DB000485,"RDS Ballsbridge, stop 485",53.32825151,-6.228634971,1007.1.60-7-b12-1.135.I,21:14:05,21:14:05,45, Parnell Square,14822.91,60-7-b12-1,7,b12
597,8220DB000487,"American Embassy, stop 487",53.33085529,-6.233902308,1007.1.60-7-b12-1.135.I,21:15:24,21:15:24,46, Parnell Square,15285.88,60-7-b12-1,7,b12
598,8220DB000488,"Lansdowne Park, stop 488",53.33309855,-6.236076947,1007.1.60-7-b12-1.135.I,21:16:13,21:16:13,47, Parnell Square,15574.86,60-7-b12-1,7,b12
599,8220DB000489,"St Mary's Rd South, stop 489",53.334942,-6.237352313,1007.1.60-7-b12-1.135.I,21:16:47,21:16:47,48, Parnell Square,15795.32,60-7-b12-1,7,b12
600,8220DB000490,"Haddington Road, stop 490",53.33657384,-6.238906806,1007.1.60-7-b12-1.135.I,21:17:20,21:17:20,49, Parnell Square,16009.33,60-7-b12-1,7,b12
601,8220DB000491,"Mount Street Bridge, stop 491",53.33781405,-6.241333511,1007.1.60-7-b12-1.135.I,21:17:53,21:17:53,50, Parnell Square,16225.79,60-7-b12-1,7,b12
602,8220DB000492,"Mount Street Lower, stop 492",53.33858469,-6.243614462,1007.1.60-7-b12-1.135.I,21:18:20,21:18:20,51, Parnell Square,16400.27,60-7-b12-1,7,b12
603,8220DB000493,"Holles Street, stop 493",53.33985342,-6.247376823,1007.1.60-7-b12-1.135.I,21:19:03,21:19:03,52, Parnell Square,16687.43,60-7-b12-1,7,b12
604,8220DB000494,"Clare Street, stop 494",53.34143558,-6.251682252,1007.1.60-7-b12-1.135.I,21:20:05,21:20:05,53, Parnell Square,17022.77,60-7-b12-1,7,b12
605,8220DB000495,"Pearse Station, stop 495",53.34359132,-6.249746705,1007.1.60-7-b12-1.135.I,21:21:37,21:21:37,54, Parnell Square,17426.83,60-7-b12-1,7,b12
606,8220DB000400,"Shaw Street, stop 400",53.34484912,-6.253389973,1007.1.60-7-b12-1.135.I,21:22:54,21:22:54,55, Parnell Square,17760.99,60-7-b12-1,7,b12
607,8220DB000281,"O'Connell St Upper, stop 281",53.35134353,-6.261116008,1007.1.60-7-b12-1.135.I,21:27:01,21:27:01,56, Parnell Square,18916.33,60-7-b12-1,7,b12
608,8220DB000004,"Parnell Square West, stop 4",53.35257451,-6.264175486,1007.1.60-7-b12-1.135.I,21:28:44,21:28:44,57, Parnell Square,19263.2,60-7-b12-1,7,b12
