Index,stop_id,stop_name,stop_lat,stop_lon,trip_id,arrival_time,departure_time,stop_sequence,stop_headsign,shape_dist_traveled,route_id,customer_route_name,project_subnet
0,8230DB004863,"Orwell Road, stop 4863",53.29930304,-6.319478889,10758.3.60-150-b12-1.81.I,07:00:00,07:00:00,1, Hawkins Street,0.0,60-150-b12-1,150,b12
1,8230DB004864,"Rossmore Road, stop 4864",53.29745198,-6.320151676,10758.3.60-150-b12-1.81.I,07:00:31,07:00:31,2, Hawkins Street,242.8,60-150-b12-1,150,b12
2,8230DB004865,"Rossmore Drive, stop 4865",53.29616632,-6.321402312,10758.3.60-150-b12-1.81.I,07:00:54,07:00:54,3, Hawkins Street,408.71,60-150-b12-1,150,b12
3,8230DB004577,"Wellington Lane, stop 4577",53.29544456,-6.323125839,10758.3.60-150-b12-1.81.I,07:01:17,07:01:17,4, Hawkins Street,598.24,60-150-b12-1,150,b12
4,8230DB004578,"St Jude's GAA Club, stop 4578",53.29756285,-6.326118406,10758.3.60-150-b12-1.81.I,07:01:58,07:01:58,5, Hawkins Street,909.44,60-150-b12-1,150,b12
5,8230DB001100,"Osprey Road, stop 1100",53.30120305,-6.323560387,10758.3.60-150-b12-1.81.I,07:02:57,07:02:57,6, Hawkins Street,1363.02,60-150-b12-1,150,b12
6,8230DB000100,"Wellington Cottages, stop 100",53.3030739,-6.322376751,10758.3.60-150-b12-1.81.I,07:03:26,07:03:26,7, Hawkins Street,1587.82,60-150-b12-1,150,b12
7,8230DB001111,"Limekiln Drive, stop 1111",53.30528143,-6.322125143,10758.3.60-150-b12-1.81.I,07:03:59,07:03:59,8, Hawkins Street,1840.13,60-150-b12-1,150,b12
8,8230DB002323,"Millgate Drive, stop 2323",53.30810755,-6.320483659,10758.3.60-150-b12-1.81.I,07:04:56,07:04:56,9, Hawkins Street,2278.99,60-150-b12-1,150,b12
9,8230DB002324,"Whitehall Road West, stop 2324",53.30978686,-6.321018015,10758.3.60-150-b12-1.81.I,07:05:15,07:05:15,10, Hawkins Street,2500.59,60-150-b12-1,150,b12
10,8230DB002325,"Limekiln Lane, stop 2325",53.3121175,-6.321211692,10758.3.60-150-b12-1.81.I,07:05:36,07:05:36,11, Hawkins Street,2760.09,60-150-b12-1,150,b12
11,8230DB002326,"Quarry Drive, stop 2326",53.31370002,-6.319978931,10758.3.60-150-b12-1.81.I,07:06:03,07:06:03,12, Hawkins Street,2954.02,60-150-b12-1,150,b12
12,8230DB005150,"Whitehall Rd West, stop 5150",53.31557768,-6.317368653,10758.3.60-150-b12-1.81.I,07:06:40,07:06:40,13, Hawkins Street,3227.36,60-150-b12-1,150,b12
13,8220DB002327,"St Agnes Road, stop 2327",53.31685443,-6.316763074,10758.3.60-150-b12-1.81.I,07:06:59,07:06:59,14, Hawkins Street,3375.98,60-150-b12-1,150,b12
14,8220DB002328,"Crumlin Garda Station, stop 2328",53.31970479,-6.315570134,10758.3.60-150-b12-1.81.I,07:07:50,07:07:50,15, Hawkins Street,3738.34,60-150-b12-1,150,b12
15,8220DB002329,"Crumlin Village, stop 2329",53.32090148,-6.316934025,10758.3.60-150-b12-1.81.I,07:08:13,07:08:13,16, Hawkins Street,3901.75,60-150-b12-1,150,b12
16,8220DB002330,"Sommerville Avenue, stop 2330",53.32214804,-6.31928678,10758.3.60-150-b12-1.81.I,07:08:42,07:08:42,17, Hawkins Street,4111.82,60-150-b12-1,150,b12
17,8220DB002331,"St Mary's Road, stop 2331",53.32457177,-6.317795378,10758.3.60-150-b12-1.81.I,07:09:23,07:09:23,18, Hawkins Street,4445.61,60-150-b12-1,150,b12
18,8220DB001397,"Kildare Road, stop 1397",53.3250914,-6.3138567,10758.3.60-150-b12-1.81.I,07:09:56,07:09:56,19, Hawkins Street,4739.41,60-150-b12-1,150,b12
19,8220DB001398,"Windmill Road, stop 1398",53.32530138,-6.310275451,10758.3.60-150-b12-1.81.I,07:10:23,07:10:23,20, Hawkins Street,4977.55,60-150-b12-1,150,b12
20,8220DB001399,"Monasterboice Road, stop 1399",53.3251428,-6.305432703,10758.3.60-150-b12-1.81.I,07:11:14,07:11:14,21, Hawkins Street,5299.48,60-150-b12-1,150,b12
21,8220DB005148,"Saul Road, stop 5148",53.32494574,-6.301056901,10758.3.60-150-b12-1.81.I,07:12:01,07:12:01,22, Hawkins Street,5592.48,60-150-b12-1,150,b12
22,8220DB001401,"Clogher Road, stop 1401",53.32539682,-6.298651985,10758.3.60-150-b12-1.81.I,07:12:45,07:12:45,23, Hawkins Street,5763.44,60-150-b12-1,150,b12
23,8220DB001402,"Pearse College, stop 1402",53.32598793,-6.29598622,10758.3.60-150-b12-1.81.I,07:13:34,07:13:34,24, Hawkins Street,5951.85,60-150-b12-1,150,b12
24,8220DB001403,"Rutland Avenue, stop 1403",53.32715406,-6.289544133,10758.3.60-150-b12-1.81.I,07:14:34,07:14:34,25, Hawkins Street,6400.49,60-150-b12-1,150,b12
25,8220DB001404,"Aughavanagh Road, stop 1404",53.32820052,-6.286679721,10758.3.60-150-b12-1.81.I,07:15:05,07:15:05,26, Hawkins Street,6628.75,60-150-b12-1,150,b12
26,8220DB001405,"Parnell Road, stop 1405",53.32982167,-6.284407674,10758.3.60-150-b12-1.81.I,07:15:37,07:15:37,27, Hawkins Street,6869.1,60-150-b12-1,150,b12
27,8220DB004856,"Donore Avenue, stop 4856",53.33196592,-6.283510815,10758.3.60-150-b12-1.81.I,07:16:09,07:16:09,28, Hawkins Street,7114.88,60-150-b12-1,150,b12
28,8220DB004857,"Rutledge Terrace, stop 4857",53.3341213,-6.282763573,10758.3.60-150-b12-1.81.I,07:16:55,07:16:55,29, Hawkins Street,7403.44,60-150-b12-1,150,b12
29,8220DB000307,"O'Donovan Road, stop 307",53.33457709,-6.280087464,10758.3.60-150-b12-1.81.I,07:17:25,07:17:25,30, Hawkins Street,7586.87,60-150-b12-1,150,b12
30,8220DB000308,"Oscar Square, stop 308",53.33677119,-6.279533657,10758.3.60-150-b12-1.81.I,07:18:10,07:18:10,31, Hawkins Street,7912.27,60-150-b12-1,150,b12
31,8220DB000309,"Ardee Street, stop 309",53.33784989,-6.278919588,10758.3.60-150-b12-1.81.I,07:18:29,07:18:29,32, Hawkins Street,8057.54,60-150-b12-1,150,b12
32,8220DB007412,"The Coombe, stop 7412",53.33989192,-6.278416854,10758.3.60-150-b12-1.81.I,07:19:25,07:19:25,33, Hawkins Street,8360.37,60-150-b12-1,150,b12
33,8220DB007413,"Dean Street, stop 7413",53.3395977,-6.275470244,10758.3.60-150-b12-1.81.I,07:20:02,07:20:02,34, Hawkins Street,8557.04,60-150-b12-1,150,b12
34,8220DB002383,"Patrick's Cathedral, stop 2383",53.33945807,-6.272652583,10758.3.60-150-b12-1.81.I,07:20:44,07:20:44,35, Hawkins Street,8813.06,60-150-b12-1,150,b12
35,8220DB002003,"Exchange St Upper, stop 2003",53.34404127,-6.268261942,10758.3.60-150-b12-1.81.I,07:22:56,07:22:56,36, Hawkins Street,9488.48,60-150-b12-1,150,b12
36,8220DB001358,"Dame Street, stop 1358",53.34430471,-6.262889389,10758.3.60-150-b12-1.81.I,07:24:26,07:24:26,37, Hawkins Street,9846.08,60-150-b12-1,150,b12
37,8220DB004494,"Hawkins Street, stop 4494",53.34696171,-6.257103721,10758.3.60-150-b12-1.81.I,07:27:52,07:27:52,38, Hawkins Street,10668.33,60-150-b12-1,150,b12
