Index,stop_id,stop_name,stop_lat,stop_lon,trip_id,arrival_time,departure_time,stop_sequence,stop_headsign,shape_dist_traveled,route_id,customer_route_name,project_subnet
76,8220DB004495,"Hawkins Street, stop 4495",53.34649329,-6.25703271,10759.3.60-150-b12-1.80.O,07:45:00,07:45:00,1, Rossmore,0.0,60-150-b12-1,150,b12
77,8220DB001279,"College Green, stop 1279",53.34426049,-6.261704666,10759.3.60-150-b12-1.80.O,07:47:12,07:47:12,2, Rossmore,474.28,60-150-b12-1,150,b12
78,8220DB001934,"Dame Street, stop 1934",53.34411836,-6.265525325,10759.3.60-150-b12-1.80.O,07:48:23,07:48:23,3, Rossmore,728.17,60-150-b12-1,150,b12
79,8220DB002310,"Werburgh Street, stop 2310",53.3424457,-6.269798428,10759.3.60-150-b12-1.80.O,07:50:31,07:50:31,4, Rossmore,1159.95,60-150-b12-1,150,b12
80,8220DB002311,"Kevin Street, stop 2311",53.33828528,-6.270492467,10759.3.60-150-b12-1.80.O,07:52:13,07:52:13,5, Rossmore,1723.93,60-150-b12-1,150,b12
81,8220DB005025,"The Coombe, stop 5025",53.33976302,-6.27758106,10759.3.60-150-b12-1.80.O,07:53:58,07:53:58,6, Rossmore,2228.55,60-150-b12-1,150,b12
82,8220DB004854,"Ardee Street, stop 4854",53.33814914,-6.279102759,10759.3.60-150-b12-1.80.O,07:55:05,07:55:05,7, Rossmore,2551.49,60-150-b12-1,150,b12
83,8220DB001438,"St Thomas Road, stop 1438",53.33638298,-6.279414136,10759.3.60-150-b12-1.80.O,07:55:35,07:55:35,8, Rossmore,2778.54,60-150-b12-1,150,b12
84,8220DB004855,"O'Donovan Road, stop 4855",53.33460177,-6.279305649,10759.3.60-150-b12-1.80.O,07:56:08,07:56:08,9, Rossmore,3021.45,60-150-b12-1,150,b12
85,8220DB001439,"Rutledge Terrace, stop 1439",53.33405842,-6.282766099,10759.3.60-150-b12-1.80.O,07:56:48,07:56:48,10, Rossmore,3258.02,60-150-b12-1,150,b12
86,8220DB001440,"Donore Avenue, stop 1440",53.33199006,-6.283314652,10759.3.60-150-b12-1.80.O,07:57:36,07:57:36,11, Rossmore,3537.4,60-150-b12-1,150,b12
87,8220DB001386,"Clogher Road, stop 1386",53.32955262,-6.284448499,10759.3.60-150-b12-1.80.O,07:58:10,07:58:10,12, Rossmore,3820.33,60-150-b12-1,150,b12
88,8220DB001387,"Aughavanagh Road, stop 1387",53.32804055,-6.286806239,10759.3.60-150-b12-1.80.O,07:58:38,07:58:38,13, Rossmore,4048.48,60-150-b12-1,150,b12
89,8220DB001388,"Rutland Avenue, stop 1388",53.32677327,-6.291195789,10759.3.60-150-b12-1.80.O,07:59:18,07:59:18,14, Rossmore,4377.37,60-150-b12-1,150,b12
90,8220DB001389,"Pearse College, stop 1389",53.32593594,-6.295492871,10759.3.60-150-b12-1.80.O,07:59:55,07:59:55,15, Rossmore,4678.14,60-150-b12-1,150,b12
91,8220DB003355,"Slane Road, stop 3355",53.32548236,-6.297717802,10759.3.60-150-b12-1.80.O,08:00:14,08:00:14,16, Rossmore,4833.97,60-150-b12-1,150,b12
92,8220DB003356,"Bangor Road, stop 3356",53.32485163,-6.300760394,10759.3.60-150-b12-1.80.O,08:00:51,08:00:51,17, Rossmore,5053.8,60-150-b12-1,150,b12
93,8220DB001441,"Bangor Road, stop 1441",53.3248749,-6.303026333,10759.3.60-150-b12-1.80.O,08:01:16,08:01:16,18, Rossmore,5204.58,60-150-b12-1,150,b12
94,8220DB001442,"Clonard Road, stop 1442",53.32516687,-6.307128155,10759.3.60-150-b12-1.80.O,08:01:45,08:01:45,19, Rossmore,5478.75,60-150-b12-1,150,b12
95,8220DB007414,"Windmill Road, stop 7414",53.32515908,-6.311016683,10759.3.60-150-b12-1.80.O,08:02:17,08:02:17,20, Rossmore,5738.76,60-150-b12-1,150,b12
96,8220DB001396,"Crumlin Pool, stop 1396",53.32490027,-6.314960137,10759.3.60-150-b12-1.80.O,08:02:49,08:02:49,21, Rossmore,6001.54,60-150-b12-1,150,b12
97,8220DB002317,"St Mary's Road, stop 2317",53.32341857,-6.318876559,10759.3.60-150-b12-1.80.O,08:03:31,08:03:31,22, Rossmore,6353.45,60-150-b12-1,150,b12
98,8220DB002318,"Somerville Avenue, stop 2318",53.32198001,-6.318843046,10759.3.60-150-b12-1.80.O,08:04:02,08:04:02,23, Rossmore,6560.41,60-150-b12-1,150,b12
99,8220DB002319,"Crumlin Garda Stn, stop 2319",53.31956475,-6.315200389,10759.3.60-150-b12-1.80.O,08:04:58,08:04:58,24, Rossmore,6925.19,60-150-b12-1,150,b12
100,8230DB002320,"Whitehall Road West, stop 2320",53.31588722,-6.317011266,10759.3.60-150-b12-1.80.O,08:05:59,08:05:59,25, Rossmore,7371.49,60-150-b12-1,150,b12
101,8230DB002321,"Quarry Drive, stop 2321",53.31340484,-6.320080574,10759.3.60-150-b12-1.80.O,08:06:48,08:06:48,26, Rossmore,7717.77,60-150-b12-1,150,b12
102,8230DB002322,"Muckross Avenue, stop 2322",53.31023749,-6.32110538,10759.3.60-150-b12-1.80.O,08:07:29,08:07:29,27, Rossmore,8088.93,60-150-b12-1,150,b12
103,8230DB006163,"Greentrees Park, stop 6163",53.30954009,-6.320727561,10759.3.60-150-b12-1.80.O,08:07:39,08:07:39,28, Rossmore,8169.5,60-150-b12-1,150,b12
104,8230DB001095,"Wellington Road, stop 1095",53.30691417,-6.319990288,10759.3.60-150-b12-1.80.O,08:08:17,08:08:17,29, Rossmore,8499.13,60-150-b12-1,150,b12
105,8230DB001096,"Wellington Road, stop 1096",53.30604427,-6.321404967,10759.3.60-150-b12-1.80.O,08:08:37,08:08:37,30, Rossmore,8639.7,60-150-b12-1,150,b12
106,8230DB001097,"Wellington Cottages, stop 1097",53.30306175,-6.322152158,10759.3.60-150-b12-1.80.O,08:09:22,08:09:22,31, Rossmore,8984.55,60-150-b12-1,150,b12
107,8230DB001099,"Osprey Road, stop 1099",53.30127238,-6.323377622,10759.3.60-150-b12-1.80.O,08:09:50,08:09:50,32, Rossmore,9199.87,60-150-b12-1,150,b12
108,8230DB006132,"Rossmore Drive, stop 6132",53.29563615,-6.323328362,10759.3.60-150-b12-1.80.O,08:11:30,08:11:30,33, Rossmore,9955.06,60-150-b12-1,150,b12
109,8230DB004861,"Rossmore Road, stop 4861",53.29663926,-6.321158728,10759.3.60-150-b12-1.80.O,08:12:05,08:12:05,34, Rossmore,10221.57,60-150-b12-1,150,b12
110,8230DB004862,"Orwell Road, stop 4862",53.29920507,-6.319542749,10759.3.60-150-b12-1.80.O,08:12:53,08:12:53,35, Rossmore,10576.2,60-150-b12-1,150,b12
