Index,stop_id,stop_name,stop_lat,stop_lon,trip_id,arrival_time,departure_time,stop_sequence,stop_headsign,shape_dist_traveled,route_id,customer_route_name,project_subnet
800,8240DB003340,"Littlepace, stop 3340",53.40866795,-6.428945869,15052.2.60-70-b12-1.206.I,23:05:06,23:05:06,9, Bachelors Walk,3429.1,60-70-b12-1,70,b12
801,8240DB004324,"Littlepace Gallops, stop 4324",53.40401779,-6.426635631,15052.2.60-70-b12-1.206.I,23:06:26,23:06:26,10, Bachelors Walk,4112.0,60-70-b12-1,70,b12
802,8240DB004769,"The Grove, stop 4769",53.4035715,-6.423463666,15052.2.60-70-b12-1.206.I,23:06:53,23:06:53,11, Bachelors Walk,4345.91,60-70-b12-1,70,b12
803,8240DB004770,"Deerhaven, stop 4770",53.40396944,-6.418215054,15052.2.60-70-b12-1.206.I,23:07:35,23:07:35,12, Bachelors Walk,4710.87,60-70-b12-1,70,b12
804,8240DB004765,"Huntstown Wood, stop 4765",53.40353211,-6.414381092,15052.2.60-70-b12-1.206.I,23:08:07,23:08:07,13, Bachelors Walk,4973.14,60-70-b12-1,70,b12
805,8240DB004766,"Deerhaven, stop 4766",53.40387301,-6.41839911,15052.2.60-70-b12-1.206.I,23:08:36,23:08:36,14, Bachelors Walk,5247.34,60-70-b12-1,70,b12
806,8240DB004767,"The Grove, stop 4767",53.40347308,-6.423497384,15052.2.60-70-b12-1.206.I,23:09:00,23:09:00,15, Bachelors Walk,5602.73,60-70-b12-1,70,b12
807,8240DB004768,"Littlepace Park, stop 4768",53.40379704,-6.426252741,15052.2.60-70-b12-1.206.I,23:09:14,23:09:14,16, Bachelors Walk,5802.14,60-70-b12-1,70,b12
808,8240DB001845,"Morgan Place, stop 1845",53.37902299,-6.352716929,15052.2.60-70-b12-1.206.I,23:17:13,23:17:13,17, Bachelors Walk,12790.91,60-70-b12-1,70,b12
809,8240DB007166,"Parkway Station, stop 7166",53.3770936,-6.345787136,15052.2.60-70-b12-1.206.I,23:17:49,23:17:49,18, Bachelors Walk,13301.96,60-70-b12-1,70,b12
810,8220DB001847,"Old Racecourse, stop 1847",53.37290201,-6.333926261,15052.2.60-70-b12-1.206.I,23:18:42,23:18:42,19, Bachelors Walk,14215.74,60-70-b12-1,70,b12
811,8220DB001696,"Ashtown Roundabout, stop 1696",53.37154152,-6.329831443,15052.2.60-70-b12-1.206.I,23:19:13,23:19:13,20, Bachelors Walk,14538.48,60-70-b12-1,70,b12
812,8220DB001697,"Kempton, stop 1697",53.37080115,-6.327666259,15052.2.60-70-b12-1.206.I,23:19:23,23:19:23,21, Bachelors Walk,14703.57,60-70-b12-1,70,b12
813,8220DB001698,"Ashtown Grove, stop 1698",53.3695773,-6.323716751,15052.2.60-70-b12-1.206.I,23:19:41,23:19:41,22, Bachelors Walk,14999.31,60-70-b12-1,70,b12
814,8220DB001699,"Baggot Road, stop 1699",53.36874361,-6.321314995,15052.2.60-70-b12-1.206.I,23:20:04,23:20:04,23, Bachelors Walk,15183.53,60-70-b12-1,70,b12
815,8220DB001700,"Baggot Road, stop 1700",53.36770883,-6.317403485,15052.2.60-70-b12-1.206.I,23:20:38,23:20:38,24, Bachelors Walk,15469.06,60-70-b12-1,70,b12
816,8220DB001701,"Our Lady's Church, stop 1701",53.36656726,-6.312940383,15052.2.60-70-b12-1.206.I,23:21:00,23:21:00,25, Bachelors Walk,15789.65,60-70-b12-1,70,b12
817,8220DB001702,"Navan Road Church, stop 1702",53.36561083,-6.310138139,15052.2.60-70-b12-1.206.I,23:21:15,23:21:15,26, Bachelors Walk,16004.66,60-70-b12-1,70,b12
818,8220DB001703,"Cabra Garda Station, stop 1703",53.3647354,-6.307347834,15052.2.60-70-b12-1.206.I,23:21:43,23:21:43,27, Bachelors Walk,16214.87,60-70-b12-1,70,b12
819,8220DB001905,"Skreen Road, stop 1905",53.36331755,-6.303076594,15052.2.60-70-b12-1.206.I,23:22:25,23:22:25,28, Bachelors Walk,16538.28,60-70-b12-1,70,b12
820,8220DB001906,"Old Cabra Road, stop 1906",53.36120076,-6.297075539,15052.2.60-70-b12-1.206.I,23:23:11,23:23:11,29, Bachelors Walk,17008.82,60-70-b12-1,70,b12
821,8220DB001907,"Glenbeigh Road, stop 1907",53.35990495,-6.293821785,15052.2.60-70-b12-1.206.I,23:23:30,23:23:30,30, Bachelors Walk,17267.14,60-70-b12-1,70,b12
822,8220DB001908,"Cabra Drive, stop 1908",53.3586908,-6.291256073,15052.2.60-70-b12-1.206.I,23:24:03,23:24:03,31, Bachelors Walk,17485.11,60-70-b12-1,70,b12
823,8220DB001909,"Prussia Street, stop 1909",53.35696026,-6.288410723,15052.2.60-70-b12-1.206.I,23:24:45,23:24:45,32, Bachelors Walk,17753.93,60-70-b12-1,70,b12
824,8220DB001713,"Manor Street, stop 1713",53.35190782,-6.283325473,15052.2.60-70-b12-1.206.I,23:26:06,23:26:06,33, Bachelors Walk,18418.09,60-70-b12-1,70,b12
825,8220DB001714,"Stoneybatter, stop 1714",53.35063781,-6.281889388,15052.2.60-70-b12-1.206.I,23:26:33,23:26:33,34, Bachelors Walk,18589.53,60-70-b12-1,70,b12
826,8220DB001715,"Blackhall Place, stop 1715",53.34771198,-6.2821873,15052.2.60-70-b12-1.206.I,23:27:25,23:27:25,35, Bachelors Walk,18914.81,60-70-b12-1,70,b12
827,8220DB007453,"Arran Quay, stop 7453",53.34633589,-6.278382504,15052.2.60-70-b12-1.206.I,23:28:24,23:28:24,36, Bachelors Walk,19292.26,60-70-b12-1,70,b12
828,8220DB001478,"Four Courts, stop 1478",53.3456082,-6.272809481,15052.2.60-70-b12-1.206.I,23:29:25,23:29:25,37, Bachelors Walk,19674.84,60-70-b12-1,70,b12
829,8220DB001479,"Ormond Quay, stop 1479",53.34598809,-6.268633628,15052.2.60-70-b12-1.206.I,23:30:13,23:30:13,38, Bachelors Walk,19957.99,60-70-b12-1,70,b12
830,8220DB000315,"Bachelors Walk, stop 315",53.34702829,-6.261667155,15052.2.60-70-b12-1.206.I,23:31:32,23:31:32,39, Bachelors Walk,20438.44,60-70-b12-1,70,b12
831,8220VIR08057,Bachelors Walk,53.3473839,-6.260165671,15052.2.60-70-b12-1.206.I,23:31:50,23:31:50,40, Bachelors Walk,20554.39,60-70-b12-1,70,b12
832,8240DB003340,"Littlepace, stop 3340",53.40866795,-6.428945869,15052.2.60-70-d12-1.206.I,23:05:06,23:05:06,9, Bachelors Walk,3429.1,60-70-d12-1,70,d12
833,8240DB004324,"Littlepace Gallops, stop 4324",53.40401779,-6.426635631,15052.2.60-70-d12-1.206.I,23:06:26,23:06:26,10, Bachelors Walk,4112.0,60-70-d12-1,70,d12
834,8240DB004769,"The Grove, stop 4769",53.4035715,-6.423463666,15052.2.60-70-d12-1.206.I,23:06:53,23:06:53,11, Bachelors Walk,4345.91,60-70-d12-1,70,d12
835,8240DB004770,"Deerhaven, stop 4770",53.40396944,-6.418215054,15052.2.60-70-d12-1.206.I,23:07:35,23:07:35,12, Bachelors Walk,4710.87,60-70-d12-1,70,d12
836,8240DB004765,"Huntstown Wood, stop 4765",53.40353211,-6.414381092,15052.2.60-70-d12-1.206.I,23:08:07,23:08:07,13, Bachelors Walk,4973.14,60-70-d12-1,70,d12
837,8240DB004766,"Deerhaven, stop 4766",53.40387301,-6.41839911,15052.2.60-70-d12-1.206.I,23:08:36,23:08:36,14, Bachelors Walk,5247.34,60-70-d12-1,70,d12
838,8240DB004767,"The Grove, stop 4767",53.40347308,-6.423497384,15052.2.60-70-d12-1.206.I,23:09:00,23:09:00,15, Bachelors Walk,5602.73,60-70-d12-1,70,d12
839,8240DB004768,"Littlepace Park, stop 4768",53.40379704,-6.426252741,15052.2.60-70-d12-1.206.I,23:09:14,23:09:14,16, Bachelors Walk,5802.14,60-70-d12-1,70,d12
840,8240DB001845,"Morgan Place, stop 1845",53.37902299,-6.352716929,15052.2.60-70-d12-1.206.I,23:17:13,23:17:13,17, Bachelors Walk,12790.91,60-70-d12-1,70,d12
841,8240DB007166,"Parkway Station, stop 7166",53.3770936,-6.345787136,15052.2.60-70-d12-1.206.I,23:17:49,23:17:49,18, Bachelors Walk,13301.96,60-70-d12-1,70,d12
842,8220DB001847,"Old Racecourse, stop 1847",53.37290201,-6.333926261,15052.2.60-70-d12-1.206.I,23:18:42,23:18:42,19, Bachelors Walk,14215.74,60-70-d12-1,70,d12
843,8220DB001696,"Ashtown Roundabout, stop 1696",53.37154152,-6.329831443,15052.2.60-70-d12-1.206.I,23:19:13,23:19:13,20, Bachelors Walk,14538.48,60-70-d12-1,70,d12
844,8220DB001697,"Kempton, stop 1697",53.37080115,-6.327666259,15052.2.60-70-d12-1.206.I,23:19:23,23:19:23,21, Bachelors Walk,14703.57,60-70-d12-1,70,d12
845,8220DB001698,"Ashtown Grove, stop 1698",53.3695773,-6.323716751,15052.2.60-70-d12-1.206.I,23:19:41,23:19:41,22, Bachelors Walk,14999.31,60-70-d12-1,70,d12
846,8220DB001699,"Baggot Road, stop 1699",53.36874361,-6.321314995,15052.2.60-70-d12-1.206.I,23:20:04,23:20:04,23, Bachelors Walk,15183.53,60-70-d12-1,70,d12
847,8220DB001700,"Baggot Road, stop 1700",53.36770883,-6.317403485,15052.2.60-70-d12-1.206.I,23:20:38,23:20:38,24, Bachelors Walk,15469.06,60-70-d12-1,70,d12
848,8220DB001701,"Our Lady's Church, stop 1701",53.36656726,-6.312940383,15052.2.60-70-d12-1.206.I,23:21:00,23:21:00,25, Bachelors Walk,15789.65,60-70-d12-1,70,d12
849,8220DB001702,"Navan Road Church, stop 1702",53.36561083,-6.310138139,15052.2.60-70-d12-1.206.I,23:21:15,23:21:15,26, Bachelors Walk,16004.66,60-70-d12-1,70,d12
850,8220DB001703,"Cabra Garda Station, stop 1703",53.3647354,-6.307347834,15052.2.60-70-d12-1.206.I,23:21:43,23:21:43,27, Bachelors Walk,16214.87,60-70-d12-1,70,d12
851,8220DB001905,"Skreen Road, stop 1905",53.36331755,-6.303076594,15052.2.60-70-d12-1.206.I,23:22:25,23:22:25,28, Bachelors Walk,16538.28,60-70-d12-1,70,d12
852,8220DB001906,"Old Cabra Road, stop 1906",53.36120076,-6.297075539,15052.2.60-70-d12-1.206.I,23:23:11,23:23:11,29, Bachelors Walk,17008.82,60-70-d12-1,70,d12
853,8220DB001907,"Glenbeigh Road, stop 1907",53.35990495,-6.293821785,15052.2.60-70-d12-1.206.I,23:23:30,23:23:30,30, Bachelors Walk,17267.14,60-70-d12-1,70,d12
854,8220DB001908,"Cabra Drive, stop 1908",53.3586908,-6.291256073,15052.2.60-70-d12-1.206.I,23:24:03,23:24:03,31, Bachelors Walk,17485.11,60-70-d12-1,70,d12
855,8220DB001909,"Prussia Street, stop 1909",53.35696026,-6.288410723,15052.2.60-70-d12-1.206.I,23:24:45,23:24:45,32, Bachelors Walk,17753.93,60-70-d12-1,70,d12
856,8220DB001713,"Manor Street, stop 1713",53.35190782,-6.283325473,15052.2.60-70-d12-1.206.I,23:26:06,23:26:06,33, Bachelors Walk,18418.09,60-70-d12-1,70,d12
857,8220DB001714,"Stoneybatter, stop 1714",53.35063781,-6.281889388,15052.2.60-70-d12-1.206.I,23:26:33,23:26:33,34, Bachelors Walk,18589.53,60-70-d12-1,70,d12
858,8220DB001715,"Blackhall Place, stop 1715",53.34771198,-6.2821873,15052.2.60-70-d12-1.206.I,23:27:25,23:27:25,35, Bachelors Walk,18914.81,60-70-d12-1,70,d12
859,8220DB007453,"Arran Quay, stop 7453",53.34633589,-6.278382504,15052.2.60-70-d12-1.206.I,23:28:24,23:28:24,36, Bachelors Walk,19292.26,60-70-d12-1,70,d12
860,8220DB001478,"Four Courts, stop 1478",53.3456082,-6.272809481,15052.2.60-70-d12-1.206.I,23:29:25,23:29:25,37, Bachelors Walk,19674.84,60-70-d12-1,70,d12
861,8220DB001479,"Ormond Quay, stop 1479",53.34598809,-6.268633628,15052.2.60-70-d12-1.206.I,23:30:13,23:30:13,38, Bachelors Walk,19957.99,60-70-d12-1,70,d12
862,8220DB000315,"Bachelors Walk, stop 315",53.34702829,-6.261667155,15052.2.60-70-d12-1.206.I,23:31:32,23:31:32,39, Bachelors Walk,20438.44,60-70-d12-1,70,d12
863,8220VIR08057,Bachelors Walk,53.3473839,-6.260165671,15052.2.60-70-d12-1.206.I,23:31:50,23:31:50,40, Bachelors Walk,20554.39,60-70-d12-1,70,d12
5028,8240DB003340,"Littlepace, stop 3340",53.40866795,-6.428945869,3254.1.60-70-b12-1.206.I,23:34:17,23:34:17,9, Bachelors Walk,3429.1,60-70-b12-1,70,b12
5029,8240DB004324,"Littlepace Gallops, stop 4324",53.40401779,-6.426635631,3254.1.60-70-b12-1.206.I,23:35:25,23:35:25,10, Bachelors Walk,4112.0,60-70-b12-1,70,b12
5030,8240DB004769,"The Grove, stop 4769",53.4035715,-6.423463666,3254.1.60-70-b12-1.206.I,23:35:48,23:35:48,11, Bachelors Walk,4345.91,60-70-b12-1,70,b12
5031,8240DB004770,"Deerhaven, stop 4770",53.40396944,-6.418215054,3254.1.60-70-b12-1.206.I,23:36:24,23:36:24,12, Bachelors Walk,4710.87,60-70-b12-1,70,b12
5032,8240DB004765,"Huntstown Wood, stop 4765",53.40353211,-6.414381092,3254.1.60-70-b12-1.206.I,23:36:50,23:36:50,13, Bachelors Walk,4973.14,60-70-b12-1,70,b12
5033,8240DB004766,"Deerhaven, stop 4766",53.40387301,-6.41839911,3254.1.60-70-b12-1.206.I,23:37:19,23:37:19,14, Bachelors Walk,5247.34,60-70-b12-1,70,b12
5034,8240DB004767,"The Grove, stop 4767",53.40347308,-6.423497384,3254.1.60-70-b12-1.206.I,23:37:43,23:37:43,15, Bachelors Walk,5602.73,60-70-b12-1,70,b12
5035,8240DB004768,"Littlepace Park, stop 4768",53.40379704,-6.426252741,3254.1.60-70-b12-1.206.I,23:37:57,23:37:57,16, Bachelors Walk,5802.14,60-70-b12-1,70,b12
5036,8240DB001845,"Morgan Place, stop 1845",53.37902299,-6.352716929,3254.1.60-70-b12-1.206.I,23:45:53,23:45:53,17, Bachelors Walk,12790.91,60-70-b12-1,70,b12
5037,8240DB007166,"Parkway Station, stop 7166",53.3770936,-6.345787136,3254.1.60-70-b12-1.206.I,23:46:29,23:46:29,18, Bachelors Walk,13301.96,60-70-b12-1,70,b12
5038,8220DB001847,"Old Racecourse, stop 1847",53.37290201,-6.333926261,3254.1.60-70-b12-1.206.I,23:47:23,23:47:23,19, Bachelors Walk,14215.74,60-70-b12-1,70,b12
5039,8220DB001696,"Ashtown Roundabout, stop 1696",53.37154152,-6.329831443,3254.1.60-70-b12-1.206.I,23:47:57,23:47:57,20, Bachelors Walk,14538.48,60-70-b12-1,70,b12
5040,8220DB001697,"Kempton, stop 1697",53.37080115,-6.327666259,3254.1.60-70-b12-1.206.I,23:48:08,23:48:08,21, Bachelors Walk,14703.57,60-70-b12-1,70,b12
5041,8220DB001698,"Ashtown Grove, stop 1698",53.3695773,-6.323716751,3254.1.60-70-b12-1.206.I,23:48:27,23:48:27,22, Bachelors Walk,14999.31,60-70-b12-1,70,b12
5042,8220DB001699,"Baggot Road, stop 1699",53.36874361,-6.321314995,3254.1.60-70-b12-1.206.I,23:48:48,23:48:48,23, Bachelors Walk,15183.53,60-70-b12-1,70,b12
5043,8220DB001700,"Baggot Road, stop 1700",53.36770883,-6.317403485,3254.1.60-70-b12-1.206.I,23:49:20,23:49:20,24, Bachelors Walk,15469.06,60-70-b12-1,70,b12
5044,8220DB001701,"Our Lady's Church, stop 1701",53.36656726,-6.312940383,3254.1.60-70-b12-1.206.I,23:49:42,23:49:42,25, Bachelors Walk,15789.65,60-70-b12-1,70,b12
5045,8220DB001702,"Navan Road Church, stop 1702",53.36561083,-6.310138139,3254.1.60-70-b12-1.206.I,23:49:58,23:49:58,26, Bachelors Walk,16004.66,60-70-b12-1,70,b12
5046,8220DB001703,"Cabra Garda Station, stop 1703",53.3647354,-6.307347834,3254.1.60-70-b12-1.206.I,23:50:12,23:50:12,27, Bachelors Walk,16214.87,60-70-b12-1,70,b12
5047,8220DB001905,"Skreen Road, stop 1905",53.36331755,-6.303076594,3254.1.60-70-b12-1.206.I,23:50:33,23:50:33,28, Bachelors Walk,16538.28,60-70-b12-1,70,b12
5048,8220DB001906,"Old Cabra Road, stop 1906",53.36120076,-6.297075539,3254.1.60-70-b12-1.206.I,23:51:27,23:51:27,29, Bachelors Walk,17008.82,60-70-b12-1,70,b12
5049,8220DB001907,"Glenbeigh Road, stop 1907",53.35990495,-6.293821785,3254.1.60-70-b12-1.206.I,23:51:49,23:51:49,30, Bachelors Walk,17267.14,60-70-b12-1,70,b12
5050,8220DB001908,"Cabra Drive, stop 1908",53.3586908,-6.291256073,3254.1.60-70-b12-1.206.I,23:52:16,23:52:16,31, Bachelors Walk,17485.11,60-70-b12-1,70,b12
5051,8220DB001909,"Prussia Street, stop 1909",53.35696026,-6.288410723,3254.1.60-70-b12-1.206.I,23:52:49,23:52:49,32, Bachelors Walk,17753.93,60-70-b12-1,70,b12
5052,8220DB001713,"Manor Street, stop 1713",53.35190782,-6.283325473,3254.1.60-70-b12-1.206.I,23:53:48,23:53:48,33, Bachelors Walk,18418.09,60-70-b12-1,70,b12
5053,8220DB001714,"Stoneybatter, stop 1714",53.35063781,-6.281889388,3254.1.60-70-b12-1.206.I,23:54:14,23:54:14,34, Bachelors Walk,18589.53,60-70-b12-1,70,b12
5054,8220DB001715,"Blackhall Place, stop 1715",53.34771198,-6.2821873,3254.1.60-70-b12-1.206.I,23:55:03,23:55:03,35, Bachelors Walk,18914.81,60-70-b12-1,70,b12
5055,8220DB007453,"Arran Quay, stop 7453",53.34633589,-6.278382504,3254.1.60-70-b12-1.206.I,23:56:00,23:56:00,36, Bachelors Walk,19292.26,60-70-b12-1,70,b12
5056,8220DB001478,"Four Courts, stop 1478",53.3456082,-6.272809481,3254.1.60-70-b12-1.206.I,23:57:11,23:57:11,37, Bachelors Walk,19674.84,60-70-b12-1,70,b12
5057,8220DB001479,"Ormond Quay, stop 1479",53.34598809,-6.268633628,3254.1.60-70-b12-1.206.I,23:58:07,23:58:07,38, Bachelors Walk,19957.99,60-70-b12-1,70,b12
5058,8220DB000315,"Bachelors Walk, stop 315",53.34702829,-6.261667155,3254.1.60-70-b12-1.206.I,23:59:40,23:59:40,39, Bachelors Walk,20438.44,60-70-b12-1,70,b12
5059,8220VIR08057,Bachelors Walk,53.3473839,-6.260165671,3254.1.60-70-b12-1.206.I,24:00:00,24:00:00,40, Bachelors Walk,20554.39,60-70-b12-1,70,b12
5060,8240DB003340,"Littlepace, stop 3340",53.40866795,-6.428945869,3254.1.60-70-d12-1.206.I,23:34:17,23:34:17,9, Bachelors Walk,3429.1,60-70-d12-1,70,d12
5061,8240DB004324,"Littlepace Gallops, stop 4324",53.40401779,-6.426635631,3254.1.60-70-d12-1.206.I,23:35:25,23:35:25,10, Bachelors Walk,4112.0,60-70-d12-1,70,d12
5062,8240DB004769,"The Grove, stop 4769",53.4035715,-6.423463666,3254.1.60-70-d12-1.206.I,23:35:48,23:35:48,11, Bachelors Walk,4345.91,60-70-d12-1,70,d12
5063,8240DB004770,"Deerhaven, stop 4770",53.40396944,-6.418215054,3254.1.60-70-d12-1.206.I,23:36:24,23:36:24,12, Bachelors Walk,4710.87,60-70-d12-1,70,d12
5064,8240DB004765,"Huntstown Wood, stop 4765",53.40353211,-6.414381092,3254.1.60-70-d12-1.206.I,23:36:50,23:36:50,13, Bachelors Walk,4973.14,60-70-d12-1,70,d12
5065,8240DB004766,"Deerhaven, stop 4766",53.40387301,-6.41839911,3254.1.60-70-d12-1.206.I,23:37:19,23:37:19,14, Bachelors Walk,5247.34,60-70-d12-1,70,d12
5066,8240DB004767,"The Grove, stop 4767",53.40347308,-6.423497384,3254.1.60-70-d12-1.206.I,23:37:43,23:37:43,15, Bachelors Walk,5602.73,60-70-d12-1,70,d12
5067,8240DB004768,"Littlepace Park, stop 4768",53.40379704,-6.426252741,3254.1.60-70-d12-1.206.I,23:37:57,23:37:57,16, Bachelors Walk,5802.14,60-70-d12-1,70,d12
5068,8240DB001845,"Morgan Place, stop 1845",53.37902299,-6.352716929,3254.1.60-70-d12-1.206.I,23:45:53,23:45:53,17, Bachelors Walk,12790.91,60-70-d12-1,70,d12
5069,8240DB007166,"Parkway Station, stop 7166",53.3770936,-6.345787136,3254.1.60-70-d12-1.206.I,23:46:29,23:46:29,18, Bachelors Walk,13301.96,60-70-d12-1,70,d12
5070,8220DB001847,"Old Racecourse, stop 1847",53.37290201,-6.333926261,3254.1.60-70-d12-1.206.I,23:47:23,23:47:23,19, Bachelors Walk,14215.74,60-70-d12-1,70,d12
5071,8220DB001696,"Ashtown Roundabout, stop 1696",53.37154152,-6.329831443,3254.1.60-70-d12-1.206.I,23:47:57,23:47:57,20, Bachelors Walk,14538.48,60-70-d12-1,70,d12
5072,8220DB001697,"Kempton, stop 1697",53.37080115,-6.327666259,3254.1.60-70-d12-1.206.I,23:48:08,23:48:08,21, Bachelors Walk,14703.57,60-70-d12-1,70,d12
5073,8220DB001698,"Ashtown Grove, stop 1698",53.3695773,-6.323716751,3254.1.60-70-d12-1.206.I,23:48:27,23:48:27,22, Bachelors Walk,14999.31,60-70-d12-1,70,d12
5074,8220DB001699,"Baggot Road, stop 1699",53.36874361,-6.321314995,3254.1.60-70-d12-1.206.I,23:48:48,23:48:48,23, Bachelors Walk,15183.53,60-70-d12-1,70,d12
5075,8220DB001700,"Baggot Road, stop 1700",53.36770883,-6.317403485,3254.1.60-70-d12-1.206.I,23:49:20,23:49:20,24, Bachelors Walk,15469.06,60-70-d12-1,70,d12
5076,8220DB001701,"Our Lady's Church, stop 1701",53.36656726,-6.312940383,3254.1.60-70-d12-1.206.I,23:49:42,23:49:42,25, Bachelors Walk,15789.65,60-70-d12-1,70,d12
5077,8220DB001702,"Navan Road Church, stop 1702",53.36561083,-6.310138139,3254.1.60-70-d12-1.206.I,23:49:58,23:49:58,26, Bachelors Walk,16004.66,60-70-d12-1,70,d12
5078,8220DB001703,"Cabra Garda Station, stop 1703",53.3647354,-6.307347834,3254.1.60-70-d12-1.206.I,23:50:12,23:50:12,27, Bachelors Walk,16214.87,60-70-d12-1,70,d12
5079,8220DB001905,"Skreen Road, stop 1905",53.36331755,-6.303076594,3254.1.60-70-d12-1.206.I,23:50:33,23:50:33,28, Bachelors Walk,16538.28,60-70-d12-1,70,d12
5080,8220DB001906,"Old Cabra Road, stop 1906",53.36120076,-6.297075539,3254.1.60-70-d12-1.206.I,23:51:27,23:51:27,29, Bachelors Walk,17008.82,60-70-d12-1,70,d12
5081,8220DB001907,"Glenbeigh Road, stop 1907",53.35990495,-6.293821785,3254.1.60-70-d12-1.206.I,23:51:49,23:51:49,30, Bachelors Walk,17267.14,60-70-d12-1,70,d12
5082,8220DB001908,"Cabra Drive, stop 1908",53.3586908,-6.291256073,3254.1.60-70-d12-1.206.I,23:52:16,23:52:16,31, Bachelors Walk,17485.11,60-70-d12-1,70,d12
5083,8220DB001909,"Prussia Street, stop 1909",53.35696026,-6.288410723,3254.1.60-70-d12-1.206.I,23:52:49,23:52:49,32, Bachelors Walk,17753.93,60-70-d12-1,70,d12
5084,8220DB001713,"Manor Street, stop 1713",53.35190782,-6.283325473,3254.1.60-70-d12-1.206.I,23:53:48,23:53:48,33, Bachelors Walk,18418.09,60-70-d12-1,70,d12
5085,8220DB001714,"Stoneybatter, stop 1714",53.35063781,-6.281889388,3254.1.60-70-d12-1.206.I,23:54:14,23:54:14,34, Bachelors Walk,18589.53,60-70-d12-1,70,d12
5086,8220DB001715,"Blackhall Place, stop 1715",53.34771198,-6.2821873,3254.1.60-70-d12-1.206.I,23:55:03,23:55:03,35, Bachelors Walk,18914.81,60-70-d12-1,70,d12
5087,8220DB007453,"Arran Quay, stop 7453",53.34633589,-6.278382504,3254.1.60-70-d12-1.206.I,23:56:00,23:56:00,36, Bachelors Walk,19292.26,60-70-d12-1,70,d12
5088,8220DB001478,"Four Courts, stop 1478",53.3456082,-6.272809481,3254.1.60-70-d12-1.206.I,23:57:11,23:57:11,37, Bachelors Walk,19674.84,60-70-d12-1,70,d12
5089,8220DB001479,"Ormond Quay, stop 1479",53.34598809,-6.268633628,3254.1.60-70-d12-1.206.I,23:58:07,23:58:07,38, Bachelors Walk,19957.99,60-70-d12-1,70,d12
5090,8220DB000315,"Bachelors Walk, stop 315",53.34702829,-6.261667155,3254.1.60-70-d12-1.206.I,23:59:40,23:59:40,39, Bachelors Walk,20438.44,60-70-d12-1,70,d12
5091,8220VIR08057,Bachelors Walk,53.3473839,-6.260165671,3254.1.60-70-d12-1.206.I,24:00:00,24:00:00,40, Bachelors Walk,20554.39,60-70-d12-1,70,d12
8924,8240DB003340,"Littlepace, stop 3340",53.40866795,-6.428945869,8806.3.60-70-b12-1.207.I,23:35:36,23:35:36,9, Bachelors Walk,3429.1,60-70-b12-1,70,b12
8925,8240DB004324,"Littlepace Gallops, stop 4324",53.40401779,-6.426635631,8806.3.60-70-b12-1.207.I,23:37:12,23:37:12,10, Bachelors Walk,4112.0,60-70-b12-1,70,b12
8926,8240DB004769,"The Grove, stop 4769",53.4035715,-6.423463666,8806.3.60-70-b12-1.207.I,23:37:44,23:37:44,11, Bachelors Walk,4345.91,60-70-b12-1,70,b12
8927,8240DB004770,"Deerhaven, stop 4770",53.40396944,-6.418215054,8806.3.60-70-b12-1.207.I,23:38:35,23:38:35,12, Bachelors Walk,4710.87,60-70-b12-1,70,b12
8928,8240DB004765,"Huntstown Wood, stop 4765",53.40353211,-6.414381092,8806.3.60-70-b12-1.207.I,23:39:13,23:39:13,13, Bachelors Walk,4973.14,60-70-b12-1,70,b12
8929,8240DB004766,"Deerhaven, stop 4766",53.40387301,-6.41839911,8806.3.60-70-b12-1.207.I,23:39:44,23:39:44,14, Bachelors Walk,5247.34,60-70-b12-1,70,b12
8930,8240DB004767,"The Grove, stop 4767",53.40347308,-6.423497384,8806.3.60-70-b12-1.207.I,23:40:10,23:40:10,15, Bachelors Walk,5602.73,60-70-b12-1,70,b12
8931,8240DB004768,"Littlepace Park, stop 4768",53.40379704,-6.426252741,8806.3.60-70-b12-1.207.I,23:40:25,23:40:25,16, Bachelors Walk,5802.14,60-70-b12-1,70,b12
8932,8240DB001845,"Morgan Place, stop 1845",53.37902299,-6.352716929,8806.3.60-70-b12-1.207.I,23:48:52,23:48:52,17, Bachelors Walk,12790.91,60-70-b12-1,70,b12
8933,8240DB007166,"Parkway Station, stop 7166",53.3770936,-6.345787136,8806.3.60-70-b12-1.207.I,23:49:29,23:49:29,18, Bachelors Walk,13301.96,60-70-b12-1,70,b12
8934,8220DB001847,"Old Racecourse, stop 1847",53.37290201,-6.333926261,8806.3.60-70-b12-1.207.I,23:50:27,23:50:27,19, Bachelors Walk,14215.74,60-70-b12-1,70,b12
8935,8220DB001696,"Ashtown Roundabout, stop 1696",53.37154152,-6.329831443,8806.3.60-70-b12-1.207.I,23:51:03,23:51:03,20, Bachelors Walk,14538.48,60-70-b12-1,70,b12
8936,8220DB001697,"Kempton, stop 1697",53.37080115,-6.327666259,8806.3.60-70-b12-1.207.I,23:51:18,23:51:18,21, Bachelors Walk,14703.57,60-70-b12-1,70,b12
8937,8220DB001698,"Ashtown Grove, stop 1698",53.3695773,-6.323716751,8806.3.60-70-b12-1.207.I,23:51:45,23:51:45,22, Bachelors Walk,14999.31,60-70-b12-1,70,b12
8938,8220DB001699,"Baggot Road, stop 1699",53.36874361,-6.321314995,8806.3.60-70-b12-1.207.I,23:52:21,23:52:21,23, Bachelors Walk,15183.53,60-70-b12-1,70,b12
8939,8220DB001700,"Baggot Road, stop 1700",53.36770883,-6.317403485,8806.3.60-70-b12-1.207.I,23:53:17,23:53:17,24, Bachelors Walk,15469.06,60-70-b12-1,70,b12
8940,8220DB001701,"Our Lady's Church, stop 1701",53.36656726,-6.312940383,8806.3.60-70-b12-1.207.I,23:53:42,23:53:42,25, Bachelors Walk,15789.65,60-70-b12-1,70,b12
8941,8220DB001702,"Navan Road Church, stop 1702",53.36561083,-6.310138139,8806.3.60-70-b12-1.207.I,23:53:59,23:53:59,26, Bachelors Walk,16004.66,60-70-b12-1,70,b12
8942,8220DB001703,"Cabra Garda Station, stop 1703",53.3647354,-6.307347834,8806.3.60-70-b12-1.207.I,23:54:14,23:54:14,27, Bachelors Walk,16214.87,60-70-b12-1,70,b12
8943,8220DB001905,"Skreen Road, stop 1905",53.36331755,-6.303076594,8806.3.60-70-b12-1.207.I,23:54:36,23:54:36,28, Bachelors Walk,16538.28,60-70-b12-1,70,b12
8944,8220DB001906,"Old Cabra Road, stop 1906",53.36120076,-6.297075539,8806.3.60-70-b12-1.207.I,23:55:29,23:55:29,29, Bachelors Walk,17008.82,60-70-b12-1,70,b12
8945,8220DB001907,"Glenbeigh Road, stop 1907",53.35990495,-6.293821785,8806.3.60-70-b12-1.207.I,23:55:51,23:55:51,30, Bachelors Walk,17267.14,60-70-b12-1,70,b12
8946,8220DB001908,"Cabra Drive, stop 1908",53.3586908,-6.291256073,8806.3.60-70-b12-1.207.I,23:56:37,23:56:37,31, Bachelors Walk,17485.11,60-70-b12-1,70,b12
8947,8220DB001909,"Prussia Street, stop 1909",53.35696026,-6.288410723,8806.3.60-70-b12-1.207.I,23:57:35,23:57:35,32, Bachelors Walk,17753.93,60-70-b12-1,70,b12
8948,8220DB001713,"Manor Street, stop 1713",53.35190782,-6.283325473,8806.3.60-70-b12-1.207.I,23:58:52,23:58:52,33, Bachelors Walk,18418.09,60-70-b12-1,70,b12
8949,8220DB001714,"Stoneybatter, stop 1714",53.35063781,-6.281889388,8806.3.60-70-b12-1.207.I,23:59:26,23:59:26,34, Bachelors Walk,18589.53,60-70-b12-1,70,b12
8950,8220DB001715,"Blackhall Place, stop 1715",53.34771198,-6.2821873,8806.3.60-70-b12-1.207.I,24:00:31,24:00:31,35, Bachelors Walk,18914.81,60-70-b12-1,70,b12
8951,8220DB007453,"Arran Quay, stop 7453",53.34633589,-6.278382504,8806.3.60-70-b12-1.207.I,24:01:45,24:01:45,36, Bachelors Walk,19292.26,60-70-b12-1,70,b12
8952,8220DB001478,"Four Courts, stop 1478",53.3456082,-6.272809481,8806.3.60-70-b12-1.207.I,24:03:14,24:03:14,37, Bachelors Walk,19674.84,60-70-b12-1,70,b12
8953,8220DB001479,"Ormond Quay, stop 1479",53.34598809,-6.268633628,8806.3.60-70-b12-1.207.I,24:04:23,24:04:23,38, Bachelors Walk,19957.99,60-70-b12-1,70,b12
8954,8220DB000315,"Bachelors Walk, stop 315",53.34702829,-6.261667155,8806.3.60-70-b12-1.207.I,24:06:18,24:06:18,39, Bachelors Walk,20438.44,60-70-b12-1,70,b12
8955,8220VIR08057,Bachelors Walk,53.3473839,-6.260165671,8806.3.60-70-b12-1.207.I,24:06:43,24:06:43,40, Bachelors Walk,20554.39,60-70-b12-1,70,b12
8956,8240DB003340,"Littlepace, stop 3340",53.40866795,-6.428945869,8806.3.60-70-d12-1.207.I,23:35:36,23:35:36,9, Bachelors Walk,3429.1,60-70-d12-1,70,d12
8957,8240DB004324,"Littlepace Gallops, stop 4324",53.40401779,-6.426635631,8806.3.60-70-d12-1.207.I,23:37:12,23:37:12,10, Bachelors Walk,4112.0,60-70-d12-1,70,d12
8958,8240DB004769,"The Grove, stop 4769",53.4035715,-6.423463666,8806.3.60-70-d12-1.207.I,23:37:44,23:37:44,11, Bachelors Walk,4345.91,60-70-d12-1,70,d12
8959,8240DB004770,"Deerhaven, stop 4770",53.40396944,-6.418215054,8806.3.60-70-d12-1.207.I,23:38:35,23:38:35,12, Bachelors Walk,4710.87,60-70-d12-1,70,d12
8960,8240DB004765,"Huntstown Wood, stop 4765",53.40353211,-6.414381092,8806.3.60-70-d12-1.207.I,23:39:13,23:39:13,13, Bachelors Walk,4973.14,60-70-d12-1,70,d12
8961,8240DB004766,"Deerhaven, stop 4766",53.40387301,-6.41839911,8806.3.60-70-d12-1.207.I,23:39:44,23:39:44,14, Bachelors Walk,5247.34,60-70-d12-1,70,d12
8962,8240DB004767,"The Grove, stop 4767",53.40347308,-6.423497384,8806.3.60-70-d12-1.207.I,23:40:10,23:40:10,15, Bachelors Walk,5602.73,60-70-d12-1,70,d12
8963,8240DB004768,"Littlepace Park, stop 4768",53.40379704,-6.426252741,8806.3.60-70-d12-1.207.I,23:40:25,23:40:25,16, Bachelors Walk,5802.14,60-70-d12-1,70,d12
8964,8240DB001845,"Morgan Place, stop 1845",53.37902299,-6.352716929,8806.3.60-70-d12-1.207.I,23:48:52,23:48:52,17, Bachelors Walk,12790.91,60-70-d12-1,70,d12
8965,8240DB007166,"Parkway Station, stop 7166",53.3770936,-6.345787136,8806.3.60-70-d12-1.207.I,23:49:29,23:49:29,18, Bachelors Walk,13301.96,60-70-d12-1,70,d12
8966,8220DB001847,"Old Racecourse, stop 1847",53.37290201,-6.333926261,8806.3.60-70-d12-1.207.I,23:50:27,23:50:27,19, Bachelors Walk,14215.74,60-70-d12-1,70,d12
8967,8220DB001696,"Ashtown Roundabout, stop 1696",53.37154152,-6.329831443,8806.3.60-70-d12-1.207.I,23:51:03,23:51:03,20, Bachelors Walk,14538.48,60-70-d12-1,70,d12
8968,8220DB001697,"Kempton, stop 1697",53.37080115,-6.327666259,8806.3.60-70-d12-1.207.I,23:51:18,23:51:18,21, Bachelors Walk,14703.57,60-70-d12-1,70,d12
8969,8220DB001698,"Ashtown Grove, stop 1698",53.3695773,-6.323716751,8806.3.60-70-d12-1.207.I,23:51:45,23:51:45,22, Bachelors Walk,14999.31,60-70-d12-1,70,d12
8970,8220DB001699,"Baggot Road, stop 1699",53.36874361,-6.321314995,8806.3.60-70-d12-1.207.I,23:52:21,23:52:21,23, Bachelors Walk,15183.53,60-70-d12-1,70,d12
8971,8220DB001700,"Baggot Road, stop 1700",53.36770883,-6.317403485,8806.3.60-70-d12-1.207.I,23:53:17,23:53:17,24, Bachelors Walk,15469.06,60-70-d12-1,70,d12
8972,8220DB001701,"Our Lady's Church, stop 1701",53.36656726,-6.312940383,8806.3.60-70-d12-1.207.I,23:53:42,23:53:42,25, Bachelors Walk,15789.65,60-70-d12-1,70,d12
8973,8220DB001702,"Navan Road Church, stop 1702",53.36561083,-6.310138139,8806.3.60-70-d12-1.207.I,23:53:59,23:53:59,26, Bachelors Walk,16004.66,60-70-d12-1,70,d12
8974,8220DB001703,"Cabra Garda Station, stop 1703",53.3647354,-6.307347834,8806.3.60-70-d12-1.207.I,23:54:14,23:54:14,27, Bachelors Walk,16214.87,60-70-d12-1,70,d12
8975,8220DB001905,"Skreen Road, stop 1905",53.36331755,-6.303076594,8806.3.60-70-d12-1.207.I,23:54:36,23:54:36,28, Bachelors Walk,16538.28,60-70-d12-1,70,d12
8976,8220DB001906,"Old Cabra Road, stop 1906",53.36120076,-6.297075539,8806.3.60-70-d12-1.207.I,23:55:29,23:55:29,29, Bachelors Walk,17008.82,60-70-d12-1,70,d12
8977,8220DB001907,"Glenbeigh Road, stop 1907",53.35990495,-6.293821785,8806.3.60-70-d12-1.207.I,23:55:51,23:55:51,30, Bachelors Walk,17267.14,60-70-d12-1,70,d12
8978,8220DB001908,"Cabra Drive, stop 1908",53.3586908,-6.291256073,8806.3.60-70-d12-1.207.I,23:56:37,23:56:37,31, Bachelors Walk,17485.11,60-70-d12-1,70,d12
8979,8220DB001909,"Prussia Street, stop 1909",53.35696026,-6.288410723,8806.3.60-70-d12-1.207.I,23:57:35,23:57:35,32, Bachelors Walk,17753.93,60-70-d12-1,70,d12
8980,8220DB001713,"Manor Street, stop 1713",53.35190782,-6.283325473,8806.3.60-70-d12-1.207.I,23:58:52,23:58:52,33, Bachelors Walk,18418.09,60-70-d12-1,70,d12
8981,8220DB001714,"Stoneybatter, stop 1714",53.35063781,-6.281889388,8806.3.60-70-d12-1.207.I,23:59:26,23:59:26,34, Bachelors Walk,18589.53,60-70-d12-1,70,d12
8982,8220DB001715,"Blackhall Place, stop 1715",53.34771198,-6.2821873,8806.3.60-70-d12-1.207.I,24:00:31,24:00:31,35, Bachelors Walk,18914.81,60-70-d12-1,70,d12
8983,8220DB007453,"Arran Quay, stop 7453",53.34633589,-6.278382504,8806.3.60-70-d12-1.207.I,24:01:45,24:01:45,36, Bachelors Walk,19292.26,60-70-d12-1,70,d12
8984,8220DB001478,"Four Courts, stop 1478",53.3456082,-6.272809481,8806.3.60-70-d12-1.207.I,24:03:14,24:03:14,37, Bachelors Walk,19674.84,60-70-d12-1,70,d12
8985,8220DB001479,"Ormond Quay, stop 1479",53.34598809,-6.268633628,8806.3.60-70-d12-1.207.I,24:04:23,24:04:23,38, Bachelors Walk,19957.99,60-70-d12-1,70,d12
8986,8220DB000315,"Bachelors Walk, stop 315",53.34702829,-6.261667155,8806.3.60-70-d12-1.207.I,24:06:18,24:06:18,39, Bachelors Walk,20438.44,60-70-d12-1,70,d12
8987,8220VIR08057,Bachelors Walk,53.3473839,-6.260165671,8806.3.60-70-d12-1.207.I,24:06:43,24:06:43,40, Bachelors Walk,20554.39,60-70-d12-1,70,d12
