Index,stop_id,stop_name,stop_lat,stop_lon,trip_id,arrival_time,departure_time,stop_sequence,stop_headsign,shape_dist_traveled,route_id,customer_route_name,project_subnet
82,8220DB007333,"Mespil Hotel, stop 7333",53.33298967,-6.246982573,15043.2.60-70-b12-1.204.O,09:30:00,09:30:00,1, Dunboyne,0.0,60-70-b12-1,70,b12
83,8220DB000783,"Baggot St Lower, stop 783",53.33530854,-6.246977564,15043.2.60-70-b12-1.204.O,09:31:31,09:31:31,2, Dunboyne,406.54,60-70-b12-1,70,b12
84,8220DB000784,"Fitzwilliam Street, stop 784",53.33645673,-6.248657371,15043.2.60-70-b12-1.204.O,09:31:56,09:31:56,3, Dunboyne,576.78,60-70-b12-1,70,b12
85,8220DB000785,"Pembroke St Lower, stop 785",53.3371059,-6.251859373,15043.2.60-70-b12-1.204.O,09:32:39,09:32:39,4, Dunboyne,855.05,60-70-b12-1,70,b12
86,8220DB000786,"Embassy of Malta, stop 786",53.33518155,-6.256097534,15043.2.60-70-b12-1.204.O,09:34:08,09:34:08,5, Dunboyne,1342.87,60-70-b12-1,70,b12
87,8220DB000793,"Dawson Street, stop 793",53.34085979,-6.258403869,15043.2.60-70-b12-1.204.O,09:36:32,09:36:32,6, Dunboyne,2146.7,60-70-b12-1,70,b12
88,8220DB007586,"National Gallery, stop 7586",53.34197047,-6.253222288,15043.2.60-70-b12-1.204.O,09:38:35,09:38:35,8, Dunboyne,2642.2,60-70-b12-1,70,b12
89,8220DB007587,"Science Gallery, stop 7587",53.34445793,-6.25122816,15043.2.60-70-b12-1.204.O,09:40:51,09:40:51,9, Dunboyne,3199.04,60-70-b12-1,70,b12
90,8220DB007588,"Pearse Street, stop 7588",53.34498499,-6.254075317,15043.2.60-70-b12-1.204.O,09:41:38,09:41:38,10, Dunboyne,3397.43,60-70-b12-1,70,b12
91,8220DB000329,"Aston Quay, stop 329",53.34627351,-6.261682845,15043.2.60-70-b12-1.204.O,09:44:37,09:44:37,11, Dunboyne,4183.33,60-70-b12-1,70,b12
92,8220DB001443,"Civic Offices, stop 1443",53.34512939,-6.269539559,15043.2.60-70-b12-1.204.O,09:46:15,09:46:15,12, Dunboyne,4720.5,60-70-b12-1,70,b12
93,8220DB001444,"Merchant's Quay, stop 1444",53.34507559,-6.274513197,15043.2.60-70-b12-1.204.O,09:47:32,09:47:32,13, Dunboyne,5050.36,60-70-b12-1,70,b12
94,8220DB001445,"Usher's Quay, stop 1445",53.34598795,-6.279808388,15043.2.60-70-b12-1.204.O,09:48:57,09:48:57,14, Dunboyne,5415.93,60-70-b12-1,70,b12
95,8220DB001647,"Blackhall Place, stop 1647",53.34835106,-6.282251726,15043.2.60-70-b12-1.204.O,09:50:33,09:50:33,15, Dunboyne,5830.47,60-70-b12-1,70,b12
96,8220DB001648,"Stoneybatter, stop 1648",53.35109137,-6.282802485,15043.2.60-70-b12-1.204.O,09:51:51,09:51:51,16, Dunboyne,6163.08,60-70-b12-1,70,b12
97,8220DB001649,"Manor Street, stop 1649",53.35257014,-6.284380448,15043.2.60-70-b12-1.204.O,09:52:25,09:52:25,17, Dunboyne,6359.57,60-70-b12-1,70,b12
98,8220DB001911,"Prussia Street, stop 1911",53.35663451,-6.288258519,15043.2.60-70-b12-1.204.O,09:53:56,09:53:56,18, Dunboyne,6884.96,60-70-b12-1,70,b12
99,8220DB001913,"Cabra Drive, stop 1913",53.35880633,-6.291792325,15043.2.60-70-b12-1.204.O,09:54:32,09:54:32,19, Dunboyne,7226.51,60-70-b12-1,70,b12
100,8220DB001914,"Glenbeigh Road, stop 1914",53.36021576,-6.294816027,15043.2.60-70-b12-1.204.O,09:54:58,09:54:58,20, Dunboyne,7481.0,60-70-b12-1,70,b12
101,8220DB001805,"Dunard, stop 1805",53.3611627,-6.297557861,15043.2.60-70-b12-1.204.O,09:55:30,09:55:30,21, Dunboyne,7693.66,60-70-b12-1,70,b12
102,8220DB001806,"Navan Road, stop 1806",53.36290691,-6.302642142,15043.2.60-70-b12-1.204.O,09:56:42,09:56:42,22, Dunboyne,8083.54,60-70-b12-1,70,b12
103,8220DB001660,"Cabra Garda Station, stop 1660",53.36518655,-6.309373553,15043.2.60-70-b12-1.204.O,09:57:43,09:57:43,23, Dunboyne,8598.45,60-70-b12-1,70,b12
104,8220DB001661,"Our Lady's Church, stop 1661",53.36644362,-6.313095538,15043.2.60-70-b12-1.204.O,09:58:26,09:58:26,24, Dunboyne,8882.16,60-70-b12-1,70,b12
105,8220DB001662,"Baggot Road, stop 1662",53.36760294,-6.317542905,15043.2.60-70-b12-1.204.O,09:59:14,09:59:14,25, Dunboyne,9204.62,60-70-b12-1,70,b12
106,8220DB001664,"Ashtown Grove, stop 1664",53.36940852,-6.32385863,15043.2.60-70-b12-1.204.O,09:59:55,09:59:55,26, Dunboyne,9670.26,60-70-b12-1,70,b12
107,8220DB001665,"Kempton, stop 1665",53.37065784,-6.32770193,15043.2.60-70-b12-1.204.O,10:00:20,10:00:20,27, Dunboyne,9960.64,60-70-b12-1,70,b12
108,8220DB001666,"Ashtown Roundabout, stop 1666",53.37159715,-6.330595731,15043.2.60-70-b12-1.204.O,10:00:37,10:00:37,28, Dunboyne,10178.82,60-70-b12-1,70,b12
109,8220DB001807,"Phoenix Park Avenue, stop 1807",53.37441446,-6.339262883,15043.2.60-70-b12-1.204.O,10:01:40,10:01:40,29, Dunboyne,10846.14,60-70-b12-1,70,b12
110,8240DB007167,"Parkway Station, stop 7167",53.3758663,-6.344782592,15043.2.60-70-b12-1.204.O,10:02:16,10:02:16,30, Dunboyne,11247.66,60-70-b12-1,70,b12
111,8240DB001808,"Morgan Place, stop 1808",53.37924155,-6.354226659,15043.2.60-70-b12-1.204.O,10:03:15,10:03:15,31, Dunboyne,11979.04,60-70-b12-1,70,b12
112,8240DB007389,"Navan Road, stop 7389",53.38601849,-6.370607584,15043.2.60-70-b12-1.204.O,10:05:08,10:05:08,32, Dunboyne,13386.0,60-70-b12-1,70,b12
113,8240DB004324,"Littlepace Gallops, stop 4324",53.40401779,-6.426635631,15043.2.60-70-b12-1.204.O,10:12:15,10:12:15,33, Dunboyne,18657.8,60-70-b12-1,70,b12
114,8240DB004769,"The Grove, stop 4769",53.4035715,-6.423463666,15043.2.60-70-b12-1.204.O,10:12:34,10:12:34,34, Dunboyne,18891.71,60-70-b12-1,70,b12
115,8240DB004770,"Deerhaven, stop 4770",53.40396944,-6.418215054,15043.2.60-70-b12-1.204.O,10:13:17,10:13:17,35, Dunboyne,19256.68,60-70-b12-1,70,b12
116,8240DB004765,"Huntstown Wood, stop 4765",53.40353211,-6.414381092,15043.2.60-70-b12-1.204.O,10:13:49,10:13:49,36, Dunboyne,19518.94,60-70-b12-1,70,b12
117,8240DB004766,"Deerhaven, stop 4766",53.40387301,-6.41839911,15043.2.60-70-b12-1.204.O,10:14:39,10:14:39,37, Dunboyne,19793.15,60-70-b12-1,70,b12
118,8240DB004767,"The Grove, stop 4767",53.40347308,-6.423497384,15043.2.60-70-b12-1.204.O,10:15:21,10:15:21,38, Dunboyne,20148.54,60-70-b12-1,70,b12
119,8240DB004768,"Littlepace Park, stop 4768",53.40379704,-6.426252741,15043.2.60-70-b12-1.204.O,10:15:45,10:15:45,39, Dunboyne,20347.95,60-70-b12-1,70,b12
120,8240DB004325,"Littlepace, stop 4325",53.4085875,-6.428978917,15043.2.60-70-b12-1.204.O,10:17:11,10:17:11,40, Dunboyne,21076.19,60-70-b12-1,70,b12
