Index,stop_id,stop_name,stop_lat,stop_lon,trip_id,arrival_time,departure_time,stop_sequence,stop_headsign,shape_dist_traveled,route_id,customer_route_name,project_subnet
74,8230DB003943,"Dept of Agriculture, stop 3943",53.3470719,-6.494294919,6081.1.60-X28-b12-1.107.I,07:48:18,07:48:18,17, Leeson Street Lr,5914.8,60-X28-b12-1,X28,b12
75,8230DB003945,"Weston Aerodrome, stop 3945",53.35370171,-6.479865358,6081.1.60-X28-b12-1.107.I,07:49:40,07:49:40,18, Leeson Street Lr,7129.11,60-X28-b12-1,X28,b12
76,8230DB003946,"Weston Estate, stop 3946",53.35611534,-6.475317639,6081.1.60-X28-b12-1.107.I,07:50:43,07:50:43,19, Leeson Street Lr,7535.53,60-X28-b12-1,X28,b12
77,8230DB004001,"Liffey Valley Golf, stop 4001",53.35892285,-6.472062381,6081.1.60-X28-b12-1.107.I,07:52:17,07:52:17,20, Leeson Street Lr,8140.32,60-X28-b12-1,X28,b12
78,8230DB007193,"Tandy's Lane, stop 7193",53.3539992,-6.458913783,6081.1.60-X28-b12-1.107.I,07:54:15,07:54:15,21, Leeson Street Lr,9180.38,60-X28-b12-1,X28,b12
79,8230DB007049,"Vesey Park, stop 7049",53.35130539,-6.449397323,6081.1.60-X28-b12-1.107.I,07:55:24,07:55:24,22, Leeson Street Lr,9892.8,60-X28-b12-1,X28,b12
80,8230DB002236,"Hermitage Bridge, stop 2236",53.35886946,-6.410856513,6081.1.60-X28-b12-1.107.I,07:58:58,07:58:58,23, Leeson Street Lr,12726.61,60-X28-b12-1,X28,b12
81,8230DB002239,"Liffey Valley SC, stop 2239",53.35616847,-6.3917274,6081.1.60-X28-b12-1.107.I,08:01:14,08:01:14,24, Leeson Street Lr,14065.65,60-X28-b12-1,X28,b12
82,8230DB002241,"Kennelsfort Road, stop 2241",53.35492926,-6.371268023,6081.1.60-X28-b12-1.107.I,08:03:53,08:03:53,25, Leeson Street Lr,15485.06,60-X28-b12-1,X28,b12
83,8230DB002242,"The Oval, stop 2242",53.35392732,-6.367009818,6081.1.60-X28-b12-1.107.I,08:05:00,08:05:00,26, Leeson Street Lr,15790.47,60-X28-b12-1,X28,b12
84,8220DB007435,"Memorial Gardens, stop 7435",53.34317893,-6.315380836,6081.1.60-X28-b12-1.107.I,08:10:48,08:10:48,27, Leeson Street Lr,19692.1,60-X28-b12-1,X28,b12
85,8220DB002722,"South Circular Road, stop 2722",53.3434371,-6.311390663,6081.1.60-X28-b12-1.107.I,08:11:12,08:11:12,28, Leeson Street Lr,19960.65,60-X28-b12-1,X28,b12
86,8220DB004413,"Heuston Station, stop 4413",53.34615649,-6.292793782,6081.1.60-X28-b12-1.107.I,08:15:54,08:15:54,29, Leeson Street Lr,21250.49,60-X28-b12-1,X28,b12
87,8220DB001476,"Sarsfield Quay, stop 1476",53.34707369,-6.284676275,6081.1.60-X28-b12-1.107.I,08:18:22,08:18:22,30, Leeson Street Lr,21882.21,60-X28-b12-1,X28,b12
88,8220DB007854,"Arran Quay, stop 7854",53.34636761,-6.278711665,6081.1.60-X28-b12-1.107.I,08:21:23,08:21:23,31, Leeson Street Lr,22284.95,60-X28-b12-1,X28,b12
89,8220DB007856,"Four Courts, stop 7856",53.34562262,-6.273184391,6081.1.60-X28-b12-1.107.I,08:24:10,08:24:10,32, Leeson Street Lr,22664.37,60-X28-b12-1,X28,b12
90,8220DB007883,"Ormond Quay, stop 7883",53.346058,-6.268495617,6081.1.60-X28-b12-1.107.I,08:26:35,08:26:35,33, Leeson Street Lr,22983.61,60-X28-b12-1,X28,b12
91,8220DB000315,"Bachelors Walk, stop 315",53.34702829,-6.261667155,6081.1.60-X28-b12-1.107.I,08:29:29,08:29:29,34, Leeson Street Lr,23453.81,60-X28-b12-1,X28,b12
92,8220DB007733,"Moss Street, Stop no 7733",53.34701082,-6.251859656,6081.1.60-X28-b12-1.107.I,08:35:37,08:35:37,35, Leeson Street Lr,24309.63,60-X28-b12-1,X28,b12
93,8220DB007861,"Prince's St South, stop 7861",53.34561679,-6.249348317,6081.1.60-X28-b12-1.107.I,08:38:01,08:38:01,36, Leeson Street Lr,24543.19,60-X28-b12-1,X28,b12
94,8220DB002809,"Pearse Station, stop 2809",53.34288455,-6.2499709,6081.1.60-X28-b12-1.107.I,08:40:21,08:40:21,37, Leeson Street Lr,24848.4,60-X28-b12-1,X28,b12
95,8220DB002810,"Merrion Square West, stop 2810",53.34079491,-6.250897489,6081.1.60-X28-b12-1.107.I,08:41:59,08:41:59,38, Leeson Street Lr,25088.43,60-X28-b12-1,X28,b12
96,8220DB002811,"Merrion Street, stop 2811",53.3393595,-6.252307819,6081.1.60-X28-b12-1.107.I,08:43:23,08:43:23,39, Leeson Street Lr,25274.39,60-X28-b12-1,X28,b12
97,8220DB000785,"Pembroke St Lower, stop 785",53.3371059,-6.251859373,6081.1.60-X28-b12-1.107.I,08:46:16,08:46:16,40, Leeson Street Lr,25646.56,60-X28-b12-1,X28,b12
98,8220DB000786,"Embassy of Malta, stop 786",53.33518155,-6.256097534,6081.1.60-X28-b12-1.107.I,08:50:02,08:50:02,41, Leeson Street Lr,26134.37,60-X28-b12-1,X28,b12
99,8230DB003943,"Dept of Agriculture, stop 3943",53.3470719,-6.494294919,6081.1.60-X28-d12-1.107.I,07:48:18,07:48:18,17, Leeson Street Lr,5914.8,60-X28-d12-1,X28,d12
100,8230DB003945,"Weston Aerodrome, stop 3945",53.35370171,-6.479865358,6081.1.60-X28-d12-1.107.I,07:49:40,07:49:40,18, Leeson Street Lr,7129.11,60-X28-d12-1,X28,d12
101,8230DB003946,"Weston Estate, stop 3946",53.35611534,-6.475317639,6081.1.60-X28-d12-1.107.I,07:50:43,07:50:43,19, Leeson Street Lr,7535.53,60-X28-d12-1,X28,d12
102,8230DB004001,"Liffey Valley Golf, stop 4001",53.35892285,-6.472062381,6081.1.60-X28-d12-1.107.I,07:52:17,07:52:17,20, Leeson Street Lr,8140.32,60-X28-d12-1,X28,d12
103,8230DB007193,"Tandy's Lane, stop 7193",53.3539992,-6.458913783,6081.1.60-X28-d12-1.107.I,07:54:15,07:54:15,21, Leeson Street Lr,9180.38,60-X28-d12-1,X28,d12
104,8230DB007049,"Vesey Park, stop 7049",53.35130539,-6.449397323,6081.1.60-X28-d12-1.107.I,07:55:24,07:55:24,22, Leeson Street Lr,9892.8,60-X28-d12-1,X28,d12
105,8230DB002236,"Hermitage Bridge, stop 2236",53.35886946,-6.410856513,6081.1.60-X28-d12-1.107.I,07:58:58,07:58:58,23, Leeson Street Lr,12726.61,60-X28-d12-1,X28,d12
106,8230DB002239,"Liffey Valley SC, stop 2239",53.35616847,-6.3917274,6081.1.60-X28-d12-1.107.I,08:01:14,08:01:14,24, Leeson Street Lr,14065.65,60-X28-d12-1,X28,d12
107,8230DB002241,"Kennelsfort Road, stop 2241",53.35492926,-6.371268023,6081.1.60-X28-d12-1.107.I,08:03:53,08:03:53,25, Leeson Street Lr,15485.06,60-X28-d12-1,X28,d12
108,8230DB002242,"The Oval, stop 2242",53.35392732,-6.367009818,6081.1.60-X28-d12-1.107.I,08:05:00,08:05:00,26, Leeson Street Lr,15790.47,60-X28-d12-1,X28,d12
109,8220DB007435,"Memorial Gardens, stop 7435",53.34317893,-6.315380836,6081.1.60-X28-d12-1.107.I,08:10:48,08:10:48,27, Leeson Street Lr,19692.1,60-X28-d12-1,X28,d12
110,8220DB002722,"South Circular Road, stop 2722",53.3434371,-6.311390663,6081.1.60-X28-d12-1.107.I,08:11:12,08:11:12,28, Leeson Street Lr,19960.65,60-X28-d12-1,X28,d12
111,8220DB004413,"Heuston Station, stop 4413",53.34615649,-6.292793782,6081.1.60-X28-d12-1.107.I,08:15:54,08:15:54,29, Leeson Street Lr,21250.49,60-X28-d12-1,X28,d12
112,8220DB001476,"Sarsfield Quay, stop 1476",53.34707369,-6.284676275,6081.1.60-X28-d12-1.107.I,08:18:22,08:18:22,30, Leeson Street Lr,21882.21,60-X28-d12-1,X28,d12
113,8220DB007854,"Arran Quay, stop 7854",53.34636761,-6.278711665,6081.1.60-X28-d12-1.107.I,08:21:23,08:21:23,31, Leeson Street Lr,22284.95,60-X28-d12-1,X28,d12
114,8220DB007856,"Four Courts, stop 7856",53.34562262,-6.273184391,6081.1.60-X28-d12-1.107.I,08:24:10,08:24:10,32, Leeson Street Lr,22664.37,60-X28-d12-1,X28,d12
115,8220DB007883,"Ormond Quay, stop 7883",53.346058,-6.268495617,6081.1.60-X28-d12-1.107.I,08:26:35,08:26:35,33, Leeson Street Lr,22983.61,60-X28-d12-1,X28,d12
116,8220DB000315,"Bachelors Walk, stop 315",53.34702829,-6.261667155,6081.1.60-X28-d12-1.107.I,08:29:29,08:29:29,34, Leeson Street Lr,23453.81,60-X28-d12-1,X28,d12
117,8220DB007733,"Moss Street, Stop no 7733",53.34701082,-6.251859656,6081.1.60-X28-d12-1.107.I,08:35:37,08:35:37,35, Leeson Street Lr,24309.63,60-X28-d12-1,X28,d12
118,8220DB007861,"Prince's St South, stop 7861",53.34561679,-6.249348317,6081.1.60-X28-d12-1.107.I,08:38:01,08:38:01,36, Leeson Street Lr,24543.19,60-X28-d12-1,X28,d12
119,8220DB002809,"Pearse Station, stop 2809",53.34288455,-6.2499709,6081.1.60-X28-d12-1.107.I,08:40:21,08:40:21,37, Leeson Street Lr,24848.4,60-X28-d12-1,X28,d12
120,8220DB002810,"Merrion Square West, stop 2810",53.34079491,-6.250897489,6081.1.60-X28-d12-1.107.I,08:41:59,08:41:59,38, Leeson Street Lr,25088.43,60-X28-d12-1,X28,d12
121,8220DB002811,"Merrion Street, stop 2811",53.3393595,-6.252307819,6081.1.60-X28-d12-1.107.I,08:43:23,08:43:23,39, Leeson Street Lr,25274.39,60-X28-d12-1,X28,d12
122,8220DB000785,"Pembroke St Lower, stop 785",53.3371059,-6.251859373,6081.1.60-X28-d12-1.107.I,08:46:16,08:46:16,40, Leeson Street Lr,25646.56,60-X28-d12-1,X28,d12
123,8220DB000786,"Embassy of Malta, stop 786",53.33518155,-6.256097534,6081.1.60-X28-d12-1.107.I,08:50:02,08:50:02,41, Leeson Street Lr,26134.37,60-X28-d12-1,X28,d12
124,8230DB003943,"Dept of Agriculture, stop 3943",53.3470719,-6.494294919,6082.1.60-X28-b12-1.107.I,07:04:17,07:04:17,17, Leeson Street Lr,5914.8,60-X28-b12-1,X28,b12
125,8230DB003945,"Weston Aerodrome, stop 3945",53.35370171,-6.479865358,6082.1.60-X28-b12-1.107.I,07:05:43,07:05:43,18, Leeson Street Lr,7129.11,60-X28-b12-1,X28,b12
126,8230DB003946,"Weston Estate, stop 3946",53.35611534,-6.475317639,6082.1.60-X28-b12-1.107.I,07:06:49,07:06:49,19, Leeson Street Lr,7535.53,60-X28-b12-1,X28,b12
127,8230DB004001,"Liffey Valley Golf, stop 4001",53.35892285,-6.472062381,6082.1.60-X28-b12-1.107.I,07:08:27,07:08:27,20, Leeson Street Lr,8140.32,60-X28-b12-1,X28,b12
128,8230DB007193,"Tandy's Lane, stop 7193",53.3539992,-6.458913783,6082.1.60-X28-b12-1.107.I,07:10:34,07:10:34,21, Leeson Street Lr,9180.38,60-X28-b12-1,X28,b12
129,8230DB007049,"Vesey Park, stop 7049",53.35130539,-6.449397323,6082.1.60-X28-b12-1.107.I,07:11:48,07:11:48,22, Leeson Street Lr,9892.8,60-X28-b12-1,X28,b12
130,8230DB002236,"Hermitage Bridge, stop 2236",53.35886946,-6.410856513,6082.1.60-X28-b12-1.107.I,07:15:20,07:15:20,23, Leeson Street Lr,12726.61,60-X28-b12-1,X28,b12
131,8230DB002239,"Liffey Valley SC, stop 2239",53.35616847,-6.3917274,6082.1.60-X28-b12-1.107.I,07:17:20,07:17:20,24, Leeson Street Lr,14065.65,60-X28-b12-1,X28,b12
132,8230DB002241,"Kennelsfort Road, stop 2241",53.35492926,-6.371268023,6082.1.60-X28-b12-1.107.I,07:19:54,07:19:54,25, Leeson Street Lr,15485.06,60-X28-b12-1,X28,b12
133,8230DB002242,"The Oval, stop 2242",53.35392732,-6.367009818,6082.1.60-X28-b12-1.107.I,07:20:57,07:20:57,26, Leeson Street Lr,15790.47,60-X28-b12-1,X28,b12
134,8220DB007435,"Memorial Gardens, stop 7435",53.34317893,-6.315380836,6082.1.60-X28-b12-1.107.I,07:25:53,07:25:53,27, Leeson Street Lr,19692.1,60-X28-b12-1,X28,b12
135,8220DB002722,"South Circular Road, stop 2722",53.3434371,-6.311390663,6082.1.60-X28-b12-1.107.I,07:26:14,07:26:14,28, Leeson Street Lr,19960.65,60-X28-b12-1,X28,b12
136,8220DB004413,"Heuston Station, stop 4413",53.34615649,-6.292793782,6082.1.60-X28-b12-1.107.I,07:30:01,07:30:01,29, Leeson Street Lr,21250.49,60-X28-b12-1,X28,b12
137,8220DB001476,"Sarsfield Quay, stop 1476",53.34707369,-6.284676275,6082.1.60-X28-b12-1.107.I,07:31:49,07:31:49,30, Leeson Street Lr,21882.21,60-X28-b12-1,X28,b12
138,8220DB007854,"Arran Quay, stop 7854",53.34636761,-6.278711665,6082.1.60-X28-b12-1.107.I,07:34:03,07:34:03,31, Leeson Street Lr,22284.95,60-X28-b12-1,X28,b12
139,8220DB007856,"Four Courts, stop 7856",53.34562262,-6.273184391,6082.1.60-X28-b12-1.107.I,07:36:07,07:36:07,32, Leeson Street Lr,22664.37,60-X28-b12-1,X28,b12
140,8220DB007883,"Ormond Quay, stop 7883",53.346058,-6.268495617,6082.1.60-X28-b12-1.107.I,07:37:55,07:37:55,33, Leeson Street Lr,22983.61,60-X28-b12-1,X28,b12
141,8220DB000315,"Bachelors Walk, stop 315",53.34702829,-6.261667155,6082.1.60-X28-b12-1.107.I,07:40:50,07:40:50,34, Leeson Street Lr,23453.81,60-X28-b12-1,X28,b12
142,8220DB007733,"Moss Street, Stop no 7733",53.34701082,-6.251859656,6082.1.60-X28-b12-1.107.I,07:46:19,07:46:19,35, Leeson Street Lr,24309.63,60-X28-b12-1,X28,b12
143,8220DB007861,"Prince's St South, stop 7861",53.34561679,-6.249348317,6082.1.60-X28-b12-1.107.I,07:48:28,07:48:28,36, Leeson Street Lr,24543.19,60-X28-b12-1,X28,b12
144,8220DB002809,"Pearse Station, stop 2809",53.34288455,-6.2499709,6082.1.60-X28-b12-1.107.I,07:50:27,07:50:27,37, Leeson Street Lr,24848.4,60-X28-b12-1,X28,b12
145,8220DB002810,"Merrion Square West, stop 2810",53.34079491,-6.250897489,6082.1.60-X28-b12-1.107.I,07:51:49,07:51:49,38, Leeson Street Lr,25088.43,60-X28-b12-1,X28,b12
146,8220DB002811,"Merrion Street, stop 2811",53.3393595,-6.252307819,6082.1.60-X28-b12-1.107.I,07:52:43,07:52:43,39, Leeson Street Lr,25274.39,60-X28-b12-1,X28,b12
147,8220DB000785,"Pembroke St Lower, stop 785",53.3371059,-6.251859373,6082.1.60-X28-b12-1.107.I,07:54:33,07:54:33,40, Leeson Street Lr,25646.56,60-X28-b12-1,X28,b12
148,8220DB000786,"Embassy of Malta, stop 786",53.33518155,-6.256097534,6082.1.60-X28-b12-1.107.I,07:56:58,07:56:58,41, Leeson Street Lr,26134.37,60-X28-b12-1,X28,b12
149,8230DB003943,"Dept of Agriculture, stop 3943",53.3470719,-6.494294919,6082.1.60-X28-d12-1.107.I,07:04:17,07:04:17,17, Leeson Street Lr,5914.8,60-X28-d12-1,X28,d12
150,8230DB003945,"Weston Aerodrome, stop 3945",53.35370171,-6.479865358,6082.1.60-X28-d12-1.107.I,07:05:43,07:05:43,18, Leeson Street Lr,7129.11,60-X28-d12-1,X28,d12
151,8230DB003946,"Weston Estate, stop 3946",53.35611534,-6.475317639,6082.1.60-X28-d12-1.107.I,07:06:49,07:06:49,19, Leeson Street Lr,7535.53,60-X28-d12-1,X28,d12
152,8230DB004001,"Liffey Valley Golf, stop 4001",53.35892285,-6.472062381,6082.1.60-X28-d12-1.107.I,07:08:27,07:08:27,20, Leeson Street Lr,8140.32,60-X28-d12-1,X28,d12
153,8230DB007193,"Tandy's Lane, stop 7193",53.3539992,-6.458913783,6082.1.60-X28-d12-1.107.I,07:10:34,07:10:34,21, Leeson Street Lr,9180.38,60-X28-d12-1,X28,d12
154,8230DB007049,"Vesey Park, stop 7049",53.35130539,-6.449397323,6082.1.60-X28-d12-1.107.I,07:11:48,07:11:48,22, Leeson Street Lr,9892.8,60-X28-d12-1,X28,d12
155,8230DB002236,"Hermitage Bridge, stop 2236",53.35886946,-6.410856513,6082.1.60-X28-d12-1.107.I,07:15:20,07:15:20,23, Leeson Street Lr,12726.61,60-X28-d12-1,X28,d12
156,8230DB002239,"Liffey Valley SC, stop 2239",53.35616847,-6.3917274,6082.1.60-X28-d12-1.107.I,07:17:20,07:17:20,24, Leeson Street Lr,14065.65,60-X28-d12-1,X28,d12
157,8230DB002241,"Kennelsfort Road, stop 2241",53.35492926,-6.371268023,6082.1.60-X28-d12-1.107.I,07:19:54,07:19:54,25, Leeson Street Lr,15485.06,60-X28-d12-1,X28,d12
158,8230DB002242,"The Oval, stop 2242",53.35392732,-6.367009818,6082.1.60-X28-d12-1.107.I,07:20:57,07:20:57,26, Leeson Street Lr,15790.47,60-X28-d12-1,X28,d12
159,8220DB007435,"Memorial Gardens, stop 7435",53.34317893,-6.315380836,6082.1.60-X28-d12-1.107.I,07:25:53,07:25:53,27, Leeson Street Lr,19692.1,60-X28-d12-1,X28,d12
160,8220DB002722,"South Circular Road, stop 2722",53.3434371,-6.311390663,6082.1.60-X28-d12-1.107.I,07:26:14,07:26:14,28, Leeson Street Lr,19960.65,60-X28-d12-1,X28,d12
161,8220DB004413,"Heuston Station, stop 4413",53.34615649,-6.292793782,6082.1.60-X28-d12-1.107.I,07:30:01,07:30:01,29, Leeson Street Lr,21250.49,60-X28-d12-1,X28,d12
162,8220DB001476,"Sarsfield Quay, stop 1476",53.34707369,-6.284676275,6082.1.60-X28-d12-1.107.I,07:31:49,07:31:49,30, Leeson Street Lr,21882.21,60-X28-d12-1,X28,d12
163,8220DB007854,"Arran Quay, stop 7854",53.34636761,-6.278711665,6082.1.60-X28-d12-1.107.I,07:34:03,07:34:03,31, Leeson Street Lr,22284.95,60-X28-d12-1,X28,d12
164,8220DB007856,"Four Courts, stop 7856",53.34562262,-6.273184391,6082.1.60-X28-d12-1.107.I,07:36:07,07:36:07,32, Leeson Street Lr,22664.37,60-X28-d12-1,X28,d12
165,8220DB007883,"Ormond Quay, stop 7883",53.346058,-6.268495617,6082.1.60-X28-d12-1.107.I,07:37:55,07:37:55,33, Leeson Street Lr,22983.61,60-X28-d12-1,X28,d12
166,8220DB000315,"Bachelors Walk, stop 315",53.34702829,-6.261667155,6082.1.60-X28-d12-1.107.I,07:40:50,07:40:50,34, Leeson Street Lr,23453.81,60-X28-d12-1,X28,d12
167,8220DB007733,"Moss Street, Stop no 7733",53.34701082,-6.251859656,6082.1.60-X28-d12-1.107.I,07:46:19,07:46:19,35, Leeson Street Lr,24309.63,60-X28-d12-1,X28,d12
168,8220DB007861,"Prince's St South, stop 7861",53.34561679,-6.249348317,6082.1.60-X28-d12-1.107.I,07:48:28,07:48:28,36, Leeson Street Lr,24543.19,60-X28-d12-1,X28,d12
169,8220DB002809,"Pearse Station, stop 2809",53.34288455,-6.2499709,6082.1.60-X28-d12-1.107.I,07:50:27,07:50:27,37, Leeson Street Lr,24848.4,60-X28-d12-1,X28,d12
170,8220DB002810,"Merrion Square West, stop 2810",53.34079491,-6.250897489,6082.1.60-X28-d12-1.107.I,07:51:49,07:51:49,38, Leeson Street Lr,25088.43,60-X28-d12-1,X28,d12
171,8220DB002811,"Merrion Street, stop 2811",53.3393595,-6.252307819,6082.1.60-X28-d12-1.107.I,07:52:43,07:52:43,39, Leeson Street Lr,25274.39,60-X28-d12-1,X28,d12
172,8220DB000785,"Pembroke St Lower, stop 785",53.3371059,-6.251859373,6082.1.60-X28-d12-1.107.I,07:54:33,07:54:33,40, Leeson Street Lr,25646.56,60-X28-d12-1,X28,d12
173,8220DB000786,"Embassy of Malta, stop 786",53.33518155,-6.256097534,6082.1.60-X28-d12-1.107.I,07:56:58,07:56:58,41, Leeson Street Lr,26134.37,60-X28-d12-1,X28,d12
174,8230DB003943,"Dept of Agriculture, stop 3943",53.3470719,-6.494294919,6083.1.60-X28-b12-1.107.I,08:08:18,08:08:18,17, Leeson Street Lr,5914.8,60-X28-b12-1,X28,b12
175,8230DB003945,"Weston Aerodrome, stop 3945",53.35370171,-6.479865358,6083.1.60-X28-b12-1.107.I,08:09:40,08:09:40,18, Leeson Street Lr,7129.11,60-X28-b12-1,X28,b12
176,8230DB003946,"Weston Estate, stop 3946",53.35611534,-6.475317639,6083.1.60-X28-b12-1.107.I,08:10:43,08:10:43,19, Leeson Street Lr,7535.53,60-X28-b12-1,X28,b12
177,8230DB004001,"Liffey Valley Golf, stop 4001",53.35892285,-6.472062381,6083.1.60-X28-b12-1.107.I,08:12:17,08:12:17,20, Leeson Street Lr,8140.32,60-X28-b12-1,X28,b12
178,8230DB007193,"Tandy's Lane, stop 7193",53.3539992,-6.458913783,6083.1.60-X28-b12-1.107.I,08:14:15,08:14:15,21, Leeson Street Lr,9180.38,60-X28-b12-1,X28,b12
179,8230DB007049,"Vesey Park, stop 7049",53.35130539,-6.449397323,6083.1.60-X28-b12-1.107.I,08:15:24,08:15:24,22, Leeson Street Lr,9892.8,60-X28-b12-1,X28,b12
180,8230DB002236,"Hermitage Bridge, stop 2236",53.35886946,-6.410856513,6083.1.60-X28-b12-1.107.I,08:18:58,08:18:58,23, Leeson Street Lr,12726.61,60-X28-b12-1,X28,b12
181,8230DB002239,"Liffey Valley SC, stop 2239",53.35616847,-6.3917274,6083.1.60-X28-b12-1.107.I,08:21:14,08:21:14,24, Leeson Street Lr,14065.65,60-X28-b12-1,X28,b12
182,8230DB002241,"Kennelsfort Road, stop 2241",53.35492926,-6.371268023,6083.1.60-X28-b12-1.107.I,08:23:53,08:23:53,25, Leeson Street Lr,15485.06,60-X28-b12-1,X28,b12
183,8230DB002242,"The Oval, stop 2242",53.35392732,-6.367009818,6083.1.60-X28-b12-1.107.I,08:25:00,08:25:00,26, Leeson Street Lr,15790.47,60-X28-b12-1,X28,b12
184,8220DB007435,"Memorial Gardens, stop 7435",53.34317893,-6.315380836,6083.1.60-X28-b12-1.107.I,08:30:48,08:30:48,27, Leeson Street Lr,19692.1,60-X28-b12-1,X28,b12
185,8220DB002722,"South Circular Road, stop 2722",53.3434371,-6.311390663,6083.1.60-X28-b12-1.107.I,08:31:12,08:31:12,28, Leeson Street Lr,19960.65,60-X28-b12-1,X28,b12
186,8220DB004413,"Heuston Station, stop 4413",53.34615649,-6.292793782,6083.1.60-X28-b12-1.107.I,08:35:54,08:35:54,29, Leeson Street Lr,21250.49,60-X28-b12-1,X28,b12
187,8220DB001476,"Sarsfield Quay, stop 1476",53.34707369,-6.284676275,6083.1.60-X28-b12-1.107.I,08:38:22,08:38:22,30, Leeson Street Lr,21882.21,60-X28-b12-1,X28,b12
188,8220DB007854,"Arran Quay, stop 7854",53.34636761,-6.278711665,6083.1.60-X28-b12-1.107.I,08:41:23,08:41:23,31, Leeson Street Lr,22284.95,60-X28-b12-1,X28,b12
189,8220DB007856,"Four Courts, stop 7856",53.34562262,-6.273184391,6083.1.60-X28-b12-1.107.I,08:44:10,08:44:10,32, Leeson Street Lr,22664.37,60-X28-b12-1,X28,b12
190,8220DB007883,"Ormond Quay, stop 7883",53.346058,-6.268495617,6083.1.60-X28-b12-1.107.I,08:46:35,08:46:35,33, Leeson Street Lr,22983.61,60-X28-b12-1,X28,b12
191,8220DB000315,"Bachelors Walk, stop 315",53.34702829,-6.261667155,6083.1.60-X28-b12-1.107.I,08:49:29,08:49:29,34, Leeson Street Lr,23453.81,60-X28-b12-1,X28,b12
192,8220DB007733,"Moss Street, Stop no 7733",53.34701082,-6.251859656,6083.1.60-X28-b12-1.107.I,08:55:37,08:55:37,35, Leeson Street Lr,24309.63,60-X28-b12-1,X28,b12
193,8220DB007861,"Prince's St South, stop 7861",53.34561679,-6.249348317,6083.1.60-X28-b12-1.107.I,08:58:01,08:58:01,36, Leeson Street Lr,24543.19,60-X28-b12-1,X28,b12
194,8220DB002809,"Pearse Station, stop 2809",53.34288455,-6.2499709,6083.1.60-X28-b12-1.107.I,09:00:21,09:00:21,37, Leeson Street Lr,24848.4,60-X28-b12-1,X28,b12
195,8220DB002810,"Merrion Square West, stop 2810",53.34079491,-6.250897489,6083.1.60-X28-b12-1.107.I,09:01:59,09:01:59,38, Leeson Street Lr,25088.43,60-X28-b12-1,X28,b12
196,8220DB002811,"Merrion Street, stop 2811",53.3393595,-6.252307819,6083.1.60-X28-b12-1.107.I,09:03:23,09:03:23,39, Leeson Street Lr,25274.39,60-X28-b12-1,X28,b12
197,8220DB000785,"Pembroke St Lower, stop 785",53.3371059,-6.251859373,6083.1.60-X28-b12-1.107.I,09:06:16,09:06:16,40, Leeson Street Lr,25646.56,60-X28-b12-1,X28,b12
198,8220DB000786,"Embassy of Malta, stop 786",53.33518155,-6.256097534,6083.1.60-X28-b12-1.107.I,09:10:02,09:10:02,41, Leeson Street Lr,26134.37,60-X28-b12-1,X28,b12
199,8230DB003943,"Dept of Agriculture, stop 3943",53.3470719,-6.494294919,6083.1.60-X28-d12-1.107.I,08:08:18,08:08:18,17, Leeson Street Lr,5914.8,60-X28-d12-1,X28,d12
200,8230DB003945,"Weston Aerodrome, stop 3945",53.35370171,-6.479865358,6083.1.60-X28-d12-1.107.I,08:09:40,08:09:40,18, Leeson Street Lr,7129.11,60-X28-d12-1,X28,d12
201,8230DB003946,"Weston Estate, stop 3946",53.35611534,-6.475317639,6083.1.60-X28-d12-1.107.I,08:10:43,08:10:43,19, Leeson Street Lr,7535.53,60-X28-d12-1,X28,d12
202,8230DB004001,"Liffey Valley Golf, stop 4001",53.35892285,-6.472062381,6083.1.60-X28-d12-1.107.I,08:12:17,08:12:17,20, Leeson Street Lr,8140.32,60-X28-d12-1,X28,d12
203,8230DB007193,"Tandy's Lane, stop 7193",53.3539992,-6.458913783,6083.1.60-X28-d12-1.107.I,08:14:15,08:14:15,21, Leeson Street Lr,9180.38,60-X28-d12-1,X28,d12
204,8230DB007049,"Vesey Park, stop 7049",53.35130539,-6.449397323,6083.1.60-X28-d12-1.107.I,08:15:24,08:15:24,22, Leeson Street Lr,9892.8,60-X28-d12-1,X28,d12
205,8230DB002236,"Hermitage Bridge, stop 2236",53.35886946,-6.410856513,6083.1.60-X28-d12-1.107.I,08:18:58,08:18:58,23, Leeson Street Lr,12726.61,60-X28-d12-1,X28,d12
206,8230DB002239,"Liffey Valley SC, stop 2239",53.35616847,-6.3917274,6083.1.60-X28-d12-1.107.I,08:21:14,08:21:14,24, Leeson Street Lr,14065.65,60-X28-d12-1,X28,d12
207,8230DB002241,"Kennelsfort Road, stop 2241",53.35492926,-6.371268023,6083.1.60-X28-d12-1.107.I,08:23:53,08:23:53,25, Leeson Street Lr,15485.06,60-X28-d12-1,X28,d12
208,8230DB002242,"The Oval, stop 2242",53.35392732,-6.367009818,6083.1.60-X28-d12-1.107.I,08:25:00,08:25:00,26, Leeson Street Lr,15790.47,60-X28-d12-1,X28,d12
209,8220DB007435,"Memorial Gardens, stop 7435",53.34317893,-6.315380836,6083.1.60-X28-d12-1.107.I,08:30:48,08:30:48,27, Leeson Street Lr,19692.1,60-X28-d12-1,X28,d12
210,8220DB002722,"South Circular Road, stop 2722",53.3434371,-6.311390663,6083.1.60-X28-d12-1.107.I,08:31:12,08:31:12,28, Leeson Street Lr,19960.65,60-X28-d12-1,X28,d12
211,8220DB004413,"Heuston Station, stop 4413",53.34615649,-6.292793782,6083.1.60-X28-d12-1.107.I,08:35:54,08:35:54,29, Leeson Street Lr,21250.49,60-X28-d12-1,X28,d12
212,8220DB001476,"Sarsfield Quay, stop 1476",53.34707369,-6.284676275,6083.1.60-X28-d12-1.107.I,08:38:22,08:38:22,30, Leeson Street Lr,21882.21,60-X28-d12-1,X28,d12
213,8220DB007854,"Arran Quay, stop 7854",53.34636761,-6.278711665,6083.1.60-X28-d12-1.107.I,08:41:23,08:41:23,31, Leeson Street Lr,22284.95,60-X28-d12-1,X28,d12
214,8220DB007856,"Four Courts, stop 7856",53.34562262,-6.273184391,6083.1.60-X28-d12-1.107.I,08:44:10,08:44:10,32, Leeson Street Lr,22664.37,60-X28-d12-1,X28,d12
215,8220DB007883,"Ormond Quay, stop 7883",53.346058,-6.268495617,6083.1.60-X28-d12-1.107.I,08:46:35,08:46:35,33, Leeson Street Lr,22983.61,60-X28-d12-1,X28,d12
216,8220DB000315,"Bachelors Walk, stop 315",53.34702829,-6.261667155,6083.1.60-X28-d12-1.107.I,08:49:29,08:49:29,34, Leeson Street Lr,23453.81,60-X28-d12-1,X28,d12
217,8220DB007733,"Moss Street, Stop no 7733",53.34701082,-6.251859656,6083.1.60-X28-d12-1.107.I,08:55:37,08:55:37,35, Leeson Street Lr,24309.63,60-X28-d12-1,X28,d12
218,8220DB007861,"Prince's St South, stop 7861",53.34561679,-6.249348317,6083.1.60-X28-d12-1.107.I,08:58:01,08:58:01,36, Leeson Street Lr,24543.19,60-X28-d12-1,X28,d12
219,8220DB002809,"Pearse Station, stop 2809",53.34288455,-6.2499709,6083.1.60-X28-d12-1.107.I,09:00:21,09:00:21,37, Leeson Street Lr,24848.4,60-X28-d12-1,X28,d12
220,8220DB002810,"Merrion Square West, stop 2810",53.34079491,-6.250897489,6083.1.60-X28-d12-1.107.I,09:01:59,09:01:59,38, Leeson Street Lr,25088.43,60-X28-d12-1,X28,d12
221,8220DB002811,"Merrion Street, stop 2811",53.3393595,-6.252307819,6083.1.60-X28-d12-1.107.I,09:03:23,09:03:23,39, Leeson Street Lr,25274.39,60-X28-d12-1,X28,d12
222,8220DB000785,"Pembroke St Lower, stop 785",53.3371059,-6.251859373,6083.1.60-X28-d12-1.107.I,09:06:16,09:06:16,40, Leeson Street Lr,25646.56,60-X28-d12-1,X28,d12
223,8220DB000786,"Embassy of Malta, stop 786",53.33518155,-6.256097534,6083.1.60-X28-d12-1.107.I,09:10:02,09:10:02,41, Leeson Street Lr,26134.37,60-X28-d12-1,X28,d12
