Index,stop_id,stop_name,stop_lat,stop_lon,trip_id,arrival_time,departure_time,stop_sequence,stop_headsign,shape_dist_traveled,route_id,customer_route_name,project_subnet
4406,8250DB004122,"Ski Club of Ireland, stop 4122",53.22339,-6.181789644,16592.2.60-44-b12-1.253.I,23:35:59,23:35:59,11, Dundrum Road,4104.71,60-44-b12-1,44,b12
4407,8250DB004123,"Grange Growers, stop 4123",53.22886414,-6.185931546,16592.2.60-44-b12-1.253.I,23:36:36,23:36:36,12, Dundrum Road,4778.28,60-44-b12-1,44,b12
4408,8250DB003283,"Kiltiernan Village, stop 3283",53.23579735,-6.193833179,16592.2.60-44-b12-1.253.I,23:37:35,23:37:35,13, Dundrum Road,5725.18,60-44-b12-1,44,b12
4409,8250DB003284,"Golden Ball, stop 3284",53.23927942,-6.196443348,16592.2.60-44-b12-1.253.I,23:38:02,23:38:02,14, Dundrum Road,6148.65,60-44-b12-1,44,b12
4410,8250DB003310,"Kilternan NS, stop 3310",53.24254382,-6.19892822,16592.2.60-44-b12-1.253.I,23:38:30,23:38:30,15, Dundrum Road,6575.93,60-44-b12-1,44,b12
4411,8250DB003481,"Kilternan Church, stop 3481",53.24388071,-6.199366551,16592.2.60-44-b12-1.253.I,23:38:41,23:38:41,16, Dundrum Road,6727.37,60-44-b12-1,44,b12
4412,8250DB003482,"Palmerston FC, stop 3482",53.24614249,-6.200934908,16592.2.60-44-b12-1.253.I,23:39:00,23:39:00,17, Dundrum Road,7027.36,60-44-b12-1,44,b12
4413,8250DB003483,"Cairnfort, stop 3483",53.24961231,-6.207518116,16592.2.60-44-b12-1.253.I,23:39:38,23:39:38,18, Dundrum Road,7618.23,60-44-b12-1,44,b12
4414,8250DB003484,"Stepaside Lane, stop 3484",53.25271887,-6.213877712,16592.2.60-44-b12-1.253.I,23:40:34,23:40:34,19, Dundrum Road,8172.92,60-44-b12-1,44,b12
4415,8250DB003485,"Kilgobbin Heights, stop 3485",53.25522255,-6.215407098,16592.2.60-44-b12-1.253.I,23:41:01,23:41:01,20, Dundrum Road,8480.03,60-44-b12-1,44,b12
4416,8250DB003486,"Castle Lodge, stop 3486",53.25932249,-6.211893714,16592.2.60-44-b12-1.253.I,23:41:47,23:41:47,21, Dundrum Road,9025.37,60-44-b12-1,44,b12
4417,8250DB003487,"Ballyogan Road, stop 3487",53.26224006,-6.211652057,16592.2.60-44-b12-1.253.I,23:42:17,23:42:17,22, Dundrum Road,9387.93,60-44-b12-1,44,b12
4418,8250DB003488,"Sandyford Hall, stop 3488",53.26394812,-6.212870018,16592.2.60-44-b12-1.253.I,23:42:37,23:42:37,23, Dundrum Road,9595.45,60-44-b12-1,44,b12
4419,8250DB003489,"Kilgobbin Heights, stop 3489",53.26622541,-6.216687946,16592.2.60-44-b12-1.253.I,23:43:12,23:43:12,24, Dundrum Road,9968.7,60-44-b12-1,44,b12
4420,8250DB003492,"Bearna Park, stop 3492",53.26909566,-6.223510226,16592.2.60-44-b12-1.253.I,23:44:11,23:44:11,25, Dundrum Road,10569.86,60-44-b12-1,44,b12
4421,8250DB002835,"St Mary's Church, stop 2835",53.2704882,-6.225881423,16592.2.60-44-b12-1.253.I,23:44:34,23:44:34,26, Dundrum Road,10790.76,60-44-b12-1,44,b12
4422,8250DB007176,"Greenlands, stop 7176",53.27351904,-6.229024705,16592.2.60-44-b12-1.253.I,23:45:17,23:45:17,27, Dundrum Road,11252.58,60-44-b12-1,44,b12
4423,8250DB002836,"Central Bank, stop 2836",53.27542441,-6.229620712,16592.2.60-44-b12-1.253.I,23:45:37,23:45:37,28, Dundrum Road,11466.23,60-44-b12-1,44,b12
4424,8250DB002837,"Clonard Road, stop 2837",53.27736363,-6.230680242,16592.2.60-44-b12-1.253.I,23:45:58,23:45:58,29, Dundrum Road,11701.7,60-44-b12-1,44,b12
4425,8250DB002838,"Ballawley Park, stop 2838",53.27975686,-6.232051048,16592.2.60-44-b12-1.253.I,23:46:23,23:46:23,30, Dundrum Road,11983.97,60-44-b12-1,44,b12
4426,8250DB002839,"Balally Road, stop 2839",53.28286971,-6.234067218,16592.2.60-44-b12-1.253.I,23:46:56,23:46:56,31, Dundrum Road,12360.11,60-44-b12-1,44,b12
4427,8250DB002840,"Balally Drive, stop 2840",53.28433401,-6.23705148,16592.2.60-44-b12-1.253.I,23:47:20,23:47:20,32, Dundrum Road,12628.2,60-44-b12-1,44,b12
4428,8250DB002841,"Dundrum Centre, stop 2841",53.28718358,-6.240113997,16592.2.60-44-b12-1.253.I,23:47:53,23:47:53,33, Dundrum Road,13009.5,60-44-b12-1,44,b12
4429,8250DB002865,"Holy Cross Church, stop 2865",53.28970409,-6.244030426,16592.2.60-44-b12-1.253.I,23:48:40,23:48:40,34, Dundrum Road,13398.55,60-44-b12-1,44,b12
4430,8250DB002866,"Main Street, stop 2866",53.29158037,-6.245708558,16592.2.60-44-b12-1.253.I,23:49:10,23:49:10,35, Dundrum Road,13638.65,60-44-b12-1,44,b12
4431,8250DB002892,"Rosemount Estate, stop 2892",53.29535364,-6.246199007,16592.2.60-44-b12-1.253.I,23:50:10,23:50:10,36, Dundrum Road,14094.51,60-44-b12-1,44,b12
4432,8250DB004122,"Ski Club of Ireland, stop 4122",53.22339,-6.181789644,16592.2.60-44-d12-1.253.I,23:35:59,23:35:59,11, Dundrum Road,4104.71,60-44-d12-1,44,d12
4433,8250DB004123,"Grange Growers, stop 4123",53.22886414,-6.185931546,16592.2.60-44-d12-1.253.I,23:36:36,23:36:36,12, Dundrum Road,4778.28,60-44-d12-1,44,d12
4434,8250DB003283,"Kiltiernan Village, stop 3283",53.23579735,-6.193833179,16592.2.60-44-d12-1.253.I,23:37:35,23:37:35,13, Dundrum Road,5725.18,60-44-d12-1,44,d12
4435,8250DB003284,"Golden Ball, stop 3284",53.23927942,-6.196443348,16592.2.60-44-d12-1.253.I,23:38:02,23:38:02,14, Dundrum Road,6148.65,60-44-d12-1,44,d12
4436,8250DB003310,"Kilternan NS, stop 3310",53.24254382,-6.19892822,16592.2.60-44-d12-1.253.I,23:38:30,23:38:30,15, Dundrum Road,6575.93,60-44-d12-1,44,d12
4437,8250DB003481,"Kilternan Church, stop 3481",53.24388071,-6.199366551,16592.2.60-44-d12-1.253.I,23:38:41,23:38:41,16, Dundrum Road,6727.37,60-44-d12-1,44,d12
4438,8250DB003482,"Palmerston FC, stop 3482",53.24614249,-6.200934908,16592.2.60-44-d12-1.253.I,23:39:00,23:39:00,17, Dundrum Road,7027.36,60-44-d12-1,44,d12
4439,8250DB003483,"Cairnfort, stop 3483",53.24961231,-6.207518116,16592.2.60-44-d12-1.253.I,23:39:38,23:39:38,18, Dundrum Road,7618.23,60-44-d12-1,44,d12
4440,8250DB003484,"Stepaside Lane, stop 3484",53.25271887,-6.213877712,16592.2.60-44-d12-1.253.I,23:40:34,23:40:34,19, Dundrum Road,8172.92,60-44-d12-1,44,d12
4441,8250DB003485,"Kilgobbin Heights, stop 3485",53.25522255,-6.215407098,16592.2.60-44-d12-1.253.I,23:41:01,23:41:01,20, Dundrum Road,8480.03,60-44-d12-1,44,d12
4442,8250DB003486,"Castle Lodge, stop 3486",53.25932249,-6.211893714,16592.2.60-44-d12-1.253.I,23:41:47,23:41:47,21, Dundrum Road,9025.37,60-44-d12-1,44,d12
4443,8250DB003487,"Ballyogan Road, stop 3487",53.26224006,-6.211652057,16592.2.60-44-d12-1.253.I,23:42:17,23:42:17,22, Dundrum Road,9387.93,60-44-d12-1,44,d12
4444,8250DB003488,"Sandyford Hall, stop 3488",53.26394812,-6.212870018,16592.2.60-44-d12-1.253.I,23:42:37,23:42:37,23, Dundrum Road,9595.45,60-44-d12-1,44,d12
4445,8250DB003489,"Kilgobbin Heights, stop 3489",53.26622541,-6.216687946,16592.2.60-44-d12-1.253.I,23:43:12,23:43:12,24, Dundrum Road,9968.7,60-44-d12-1,44,d12
4446,8250DB003492,"Bearna Park, stop 3492",53.26909566,-6.223510226,16592.2.60-44-d12-1.253.I,23:44:11,23:44:11,25, Dundrum Road,10569.86,60-44-d12-1,44,d12
4447,8250DB002835,"St Mary's Church, stop 2835",53.2704882,-6.225881423,16592.2.60-44-d12-1.253.I,23:44:34,23:44:34,26, Dundrum Road,10790.76,60-44-d12-1,44,d12
4448,8250DB007176,"Greenlands, stop 7176",53.27351904,-6.229024705,16592.2.60-44-d12-1.253.I,23:45:17,23:45:17,27, Dundrum Road,11252.58,60-44-d12-1,44,d12
4449,8250DB002836,"Central Bank, stop 2836",53.27542441,-6.229620712,16592.2.60-44-d12-1.253.I,23:45:37,23:45:37,28, Dundrum Road,11466.23,60-44-d12-1,44,d12
4450,8250DB002837,"Clonard Road, stop 2837",53.27736363,-6.230680242,16592.2.60-44-d12-1.253.I,23:45:58,23:45:58,29, Dundrum Road,11701.7,60-44-d12-1,44,d12
4451,8250DB002838,"Ballawley Park, stop 2838",53.27975686,-6.232051048,16592.2.60-44-d12-1.253.I,23:46:23,23:46:23,30, Dundrum Road,11983.97,60-44-d12-1,44,d12
4452,8250DB002839,"Balally Road, stop 2839",53.28286971,-6.234067218,16592.2.60-44-d12-1.253.I,23:46:56,23:46:56,31, Dundrum Road,12360.11,60-44-d12-1,44,d12
4453,8250DB002840,"Balally Drive, stop 2840",53.28433401,-6.23705148,16592.2.60-44-d12-1.253.I,23:47:20,23:47:20,32, Dundrum Road,12628.2,60-44-d12-1,44,d12
4454,8250DB002841,"Dundrum Centre, stop 2841",53.28718358,-6.240113997,16592.2.60-44-d12-1.253.I,23:47:53,23:47:53,33, Dundrum Road,13009.5,60-44-d12-1,44,d12
4455,8250DB002865,"Holy Cross Church, stop 2865",53.28970409,-6.244030426,16592.2.60-44-d12-1.253.I,23:48:40,23:48:40,34, Dundrum Road,13398.55,60-44-d12-1,44,d12
4456,8250DB002866,"Main Street, stop 2866",53.29158037,-6.245708558,16592.2.60-44-d12-1.253.I,23:49:10,23:49:10,35, Dundrum Road,13638.65,60-44-d12-1,44,d12
4457,8250DB002892,"Rosemount Estate, stop 2892",53.29535364,-6.246199007,16592.2.60-44-d12-1.253.I,23:50:10,23:50:10,36, Dundrum Road,14094.51,60-44-d12-1,44,d12
9846,8250DB004122,"Ski Club of Ireland, stop 4122",53.22339,-6.181789644,511.1.60-44-b12-1.253.I,23:35:36,23:35:36,11, Dundrum Road,4104.71,60-44-b12-1,44,b12
9847,8250DB004123,"Grange Growers, stop 4123",53.22886414,-6.185931546,511.1.60-44-b12-1.253.I,23:36:14,23:36:14,12, Dundrum Road,4778.28,60-44-b12-1,44,b12
9848,8250DB003283,"Kiltiernan Village, stop 3283",53.23579735,-6.193833179,511.1.60-44-b12-1.253.I,23:37:21,23:37:21,13, Dundrum Road,5725.18,60-44-b12-1,44,b12
9849,8250DB003284,"Golden Ball, stop 3284",53.23927942,-6.196443348,511.1.60-44-b12-1.253.I,23:37:51,23:37:51,14, Dundrum Road,6148.65,60-44-b12-1,44,b12
9850,8250DB003310,"Kilternan NS, stop 3310",53.24254382,-6.19892822,511.1.60-44-b12-1.253.I,23:38:19,23:38:19,15, Dundrum Road,6575.93,60-44-b12-1,44,b12
9851,8250DB003481,"Kilternan Church, stop 3481",53.24388071,-6.199366551,511.1.60-44-b12-1.253.I,23:38:30,23:38:30,16, Dundrum Road,6727.37,60-44-b12-1,44,b12
9852,8250DB003482,"Palmerston FC, stop 3482",53.24614249,-6.200934908,511.1.60-44-b12-1.253.I,23:38:50,23:38:50,17, Dundrum Road,7027.36,60-44-b12-1,44,b12
9853,8250DB003483,"Cairnfort, stop 3483",53.24961231,-6.207518116,511.1.60-44-b12-1.253.I,23:39:32,23:39:32,18, Dundrum Road,7618.23,60-44-b12-1,44,b12
9854,8250DB003484,"Stepaside Lane, stop 3484",53.25271887,-6.213877712,511.1.60-44-b12-1.253.I,23:40:39,23:40:39,19, Dundrum Road,8172.92,60-44-b12-1,44,b12
9855,8250DB003485,"Kilgobbin Heights, stop 3485",53.25522255,-6.215407098,511.1.60-44-b12-1.253.I,23:41:03,23:41:03,20, Dundrum Road,8480.03,60-44-b12-1,44,b12
9856,8250DB003486,"Castle Lodge, stop 3486",53.25932249,-6.211893714,511.1.60-44-b12-1.253.I,23:41:46,23:41:46,21, Dundrum Road,9025.37,60-44-b12-1,44,b12
9857,8250DB003487,"Ballyogan Road, stop 3487",53.26224006,-6.211652057,511.1.60-44-b12-1.253.I,23:42:15,23:42:15,22, Dundrum Road,9387.93,60-44-b12-1,44,b12
9858,8250DB003488,"Sandyford Hall, stop 3488",53.26394812,-6.212870018,511.1.60-44-b12-1.253.I,23:42:34,23:42:34,23, Dundrum Road,9595.45,60-44-b12-1,44,b12
9859,8250DB003489,"Kilgobbin Heights, stop 3489",53.26622541,-6.216687946,511.1.60-44-b12-1.253.I,23:43:09,23:43:09,24, Dundrum Road,9968.7,60-44-b12-1,44,b12
9860,8250DB003492,"Bearna Park, stop 3492",53.26909566,-6.223510226,511.1.60-44-b12-1.253.I,23:44:15,23:44:15,25, Dundrum Road,10569.86,60-44-b12-1,44,b12
9861,8250DB002835,"St Mary's Church, stop 2835",53.2704882,-6.225881423,511.1.60-44-b12-1.253.I,23:44:41,23:44:41,26, Dundrum Road,10790.76,60-44-b12-1,44,b12
9862,8250DB007176,"Greenlands, stop 7176",53.27351904,-6.229024705,511.1.60-44-b12-1.253.I,23:45:28,23:45:28,27, Dundrum Road,11252.58,60-44-b12-1,44,b12
9863,8250DB002836,"Central Bank, stop 2836",53.27542441,-6.229620712,511.1.60-44-b12-1.253.I,23:45:50,23:45:50,28, Dundrum Road,11466.23,60-44-b12-1,44,b12
9864,8250DB002837,"Clonard Road, stop 2837",53.27736363,-6.230680242,511.1.60-44-b12-1.253.I,23:46:13,23:46:13,29, Dundrum Road,11701.7,60-44-b12-1,44,b12
9865,8250DB002838,"Ballawley Park, stop 2838",53.27975686,-6.232051048,511.1.60-44-b12-1.253.I,23:46:38,23:46:38,30, Dundrum Road,11983.97,60-44-b12-1,44,b12
9866,8250DB002839,"Balally Road, stop 2839",53.28286971,-6.234067218,511.1.60-44-b12-1.253.I,23:47:12,23:47:12,31, Dundrum Road,12360.11,60-44-b12-1,44,b12
9867,8250DB002840,"Balally Drive, stop 2840",53.28433401,-6.23705148,511.1.60-44-b12-1.253.I,23:47:36,23:47:36,32, Dundrum Road,12628.2,60-44-b12-1,44,b12
9868,8250DB002841,"Dundrum Centre, stop 2841",53.28718358,-6.240113997,511.1.60-44-b12-1.253.I,23:48:10,23:48:10,33, Dundrum Road,13009.5,60-44-b12-1,44,b12
9869,8250DB002865,"Holy Cross Church, stop 2865",53.28970409,-6.244030426,511.1.60-44-b12-1.253.I,23:49:11,23:49:11,34, Dundrum Road,13398.55,60-44-b12-1,44,b12
9870,8250DB002866,"Main Street, stop 2866",53.29158037,-6.245708558,511.1.60-44-b12-1.253.I,23:49:50,23:49:50,35, Dundrum Road,13638.65,60-44-b12-1,44,b12
9871,8250DB002892,"Rosemount Estate, stop 2892",53.29535364,-6.246199007,511.1.60-44-b12-1.253.I,23:51:06,23:51:06,36, Dundrum Road,14094.51,60-44-b12-1,44,b12
9872,8250DB004122,"Ski Club of Ireland, stop 4122",53.22339,-6.181789644,511.1.60-44-d12-1.253.I,23:35:36,23:35:36,11, Dundrum Road,4104.71,60-44-d12-1,44,d12
9873,8250DB004123,"Grange Growers, stop 4123",53.22886414,-6.185931546,511.1.60-44-d12-1.253.I,23:36:14,23:36:14,12, Dundrum Road,4778.28,60-44-d12-1,44,d12
9874,8250DB003283,"Kiltiernan Village, stop 3283",53.23579735,-6.193833179,511.1.60-44-d12-1.253.I,23:37:21,23:37:21,13, Dundrum Road,5725.18,60-44-d12-1,44,d12
9875,8250DB003284,"Golden Ball, stop 3284",53.23927942,-6.196443348,511.1.60-44-d12-1.253.I,23:37:51,23:37:51,14, Dundrum Road,6148.65,60-44-d12-1,44,d12
9876,8250DB003310,"Kilternan NS, stop 3310",53.24254382,-6.19892822,511.1.60-44-d12-1.253.I,23:38:19,23:38:19,15, Dundrum Road,6575.93,60-44-d12-1,44,d12
9877,8250DB003481,"Kilternan Church, stop 3481",53.24388071,-6.199366551,511.1.60-44-d12-1.253.I,23:38:30,23:38:30,16, Dundrum Road,6727.37,60-44-d12-1,44,d12
9878,8250DB003482,"Palmerston FC, stop 3482",53.24614249,-6.200934908,511.1.60-44-d12-1.253.I,23:38:50,23:38:50,17, Dundrum Road,7027.36,60-44-d12-1,44,d12
9879,8250DB003483,"Cairnfort, stop 3483",53.24961231,-6.207518116,511.1.60-44-d12-1.253.I,23:39:32,23:39:32,18, Dundrum Road,7618.23,60-44-d12-1,44,d12
9880,8250DB003484,"Stepaside Lane, stop 3484",53.25271887,-6.213877712,511.1.60-44-d12-1.253.I,23:40:39,23:40:39,19, Dundrum Road,8172.92,60-44-d12-1,44,d12
9881,8250DB003485,"Kilgobbin Heights, stop 3485",53.25522255,-6.215407098,511.1.60-44-d12-1.253.I,23:41:03,23:41:03,20, Dundrum Road,8480.03,60-44-d12-1,44,d12
9882,8250DB003486,"Castle Lodge, stop 3486",53.25932249,-6.211893714,511.1.60-44-d12-1.253.I,23:41:46,23:41:46,21, Dundrum Road,9025.37,60-44-d12-1,44,d12
9883,8250DB003487,"Ballyogan Road, stop 3487",53.26224006,-6.211652057,511.1.60-44-d12-1.253.I,23:42:15,23:42:15,22, Dundrum Road,9387.93,60-44-d12-1,44,d12
9884,8250DB003488,"Sandyford Hall, stop 3488",53.26394812,-6.212870018,511.1.60-44-d12-1.253.I,23:42:34,23:42:34,23, Dundrum Road,9595.45,60-44-d12-1,44,d12
9885,8250DB003489,"Kilgobbin Heights, stop 3489",53.26622541,-6.216687946,511.1.60-44-d12-1.253.I,23:43:09,23:43:09,24, Dundrum Road,9968.7,60-44-d12-1,44,d12
9886,8250DB003492,"Bearna Park, stop 3492",53.26909566,-6.223510226,511.1.60-44-d12-1.253.I,23:44:15,23:44:15,25, Dundrum Road,10569.86,60-44-d12-1,44,d12
9887,8250DB002835,"St Mary's Church, stop 2835",53.2704882,-6.225881423,511.1.60-44-d12-1.253.I,23:44:41,23:44:41,26, Dundrum Road,10790.76,60-44-d12-1,44,d12
9888,8250DB007176,"Greenlands, stop 7176",53.27351904,-6.229024705,511.1.60-44-d12-1.253.I,23:45:28,23:45:28,27, Dundrum Road,11252.58,60-44-d12-1,44,d12
9889,8250DB002836,"Central Bank, stop 2836",53.27542441,-6.229620712,511.1.60-44-d12-1.253.I,23:45:50,23:45:50,28, Dundrum Road,11466.23,60-44-d12-1,44,d12
9890,8250DB002837,"Clonard Road, stop 2837",53.27736363,-6.230680242,511.1.60-44-d12-1.253.I,23:46:13,23:46:13,29, Dundrum Road,11701.7,60-44-d12-1,44,d12
9891,8250DB002838,"Ballawley Park, stop 2838",53.27975686,-6.232051048,511.1.60-44-d12-1.253.I,23:46:38,23:46:38,30, Dundrum Road,11983.97,60-44-d12-1,44,d12
9892,8250DB002839,"Balally Road, stop 2839",53.28286971,-6.234067218,511.1.60-44-d12-1.253.I,23:47:12,23:47:12,31, Dundrum Road,12360.11,60-44-d12-1,44,d12
9893,8250DB002840,"Balally Drive, stop 2840",53.28433401,-6.23705148,511.1.60-44-d12-1.253.I,23:47:36,23:47:36,32, Dundrum Road,12628.2,60-44-d12-1,44,d12
9894,8250DB002841,"Dundrum Centre, stop 2841",53.28718358,-6.240113997,511.1.60-44-d12-1.253.I,23:48:10,23:48:10,33, Dundrum Road,13009.5,60-44-d12-1,44,d12
9895,8250DB002865,"Holy Cross Church, stop 2865",53.28970409,-6.244030426,511.1.60-44-d12-1.253.I,23:49:11,23:49:11,34, Dundrum Road,13398.55,60-44-d12-1,44,d12
9896,8250DB002866,"Main Street, stop 2866",53.29158037,-6.245708558,511.1.60-44-d12-1.253.I,23:49:50,23:49:50,35, Dundrum Road,13638.65,60-44-d12-1,44,d12
9897,8250DB002892,"Rosemount Estate, stop 2892",53.29535364,-6.246199007,511.1.60-44-d12-1.253.I,23:51:06,23:51:06,36, Dundrum Road,14094.51,60-44-d12-1,44,d12
13492,8250DB004122,"Ski Club of Ireland, stop 4122",53.22339,-6.181789644,7731.3.60-44-b12-1.253.I,23:35:36,23:35:36,11, Dundrum Road,4104.71,60-44-b12-1,44,b12
13493,8250DB004123,"Grange Growers, stop 4123",53.22886414,-6.185931546,7731.3.60-44-b12-1.253.I,23:36:14,23:36:14,12, Dundrum Road,4778.28,60-44-b12-1,44,b12
13494,8250DB003283,"Kiltiernan Village, stop 3283",53.23579735,-6.193833179,7731.3.60-44-b12-1.253.I,23:37:14,23:37:14,13, Dundrum Road,5725.18,60-44-b12-1,44,b12
13495,8250DB003284,"Golden Ball, stop 3284",53.23927942,-6.196443348,7731.3.60-44-b12-1.253.I,23:37:46,23:37:46,14, Dundrum Road,6148.65,60-44-b12-1,44,b12
13496,8250DB003310,"Kilternan NS, stop 3310",53.24254382,-6.19892822,7731.3.60-44-b12-1.253.I,23:38:16,23:38:16,15, Dundrum Road,6575.93,60-44-b12-1,44,b12
13497,8250DB003481,"Kilternan Church, stop 3481",53.24388071,-6.199366551,7731.3.60-44-b12-1.253.I,23:38:28,23:38:28,16, Dundrum Road,6727.37,60-44-b12-1,44,b12
13498,8250DB003482,"Palmerston FC, stop 3482",53.24614249,-6.200934908,7731.3.60-44-b12-1.253.I,23:38:49,23:38:49,17, Dundrum Road,7027.36,60-44-b12-1,44,b12
13499,8250DB003483,"Cairnfort, stop 3483",53.24961231,-6.207518116,7731.3.60-44-b12-1.253.I,23:39:33,23:39:33,18, Dundrum Road,7618.23,60-44-b12-1,44,b12
13500,8250DB003484,"Stepaside Lane, stop 3484",53.25271887,-6.213877712,7731.3.60-44-b12-1.253.I,23:40:31,23:40:31,19, Dundrum Road,8172.92,60-44-b12-1,44,b12
13501,8250DB003485,"Kilgobbin Heights, stop 3485",53.25522255,-6.215407098,7731.3.60-44-b12-1.253.I,23:40:59,23:40:59,20, Dundrum Road,8480.03,60-44-b12-1,44,b12
13502,8250DB003486,"Castle Lodge, stop 3486",53.25932249,-6.211893714,7731.3.60-44-b12-1.253.I,23:41:49,23:41:49,21, Dundrum Road,9025.37,60-44-b12-1,44,b12
13503,8250DB003487,"Ballyogan Road, stop 3487",53.26224006,-6.211652057,7731.3.60-44-b12-1.253.I,23:42:24,23:42:24,22, Dundrum Road,9387.93,60-44-b12-1,44,b12
13504,8250DB003488,"Sandyford Hall, stop 3488",53.26394812,-6.212870018,7731.3.60-44-b12-1.253.I,23:42:42,23:42:42,23, Dundrum Road,9595.45,60-44-b12-1,44,b12
13505,8250DB003489,"Kilgobbin Heights, stop 3489",53.26622541,-6.216687946,7731.3.60-44-b12-1.253.I,23:43:13,23:43:13,24, Dundrum Road,9968.7,60-44-b12-1,44,b12
13506,8250DB003492,"Bearna Park, stop 3492",53.26909566,-6.223510226,7731.3.60-44-b12-1.253.I,23:44:34,23:44:34,25, Dundrum Road,10569.86,60-44-b12-1,44,b12
13507,8250DB002835,"St Mary's Church, stop 2835",53.2704882,-6.225881423,7731.3.60-44-b12-1.253.I,23:45:05,23:45:05,26, Dundrum Road,10790.76,60-44-b12-1,44,b12
13508,8250DB007176,"Greenlands, stop 7176",53.27351904,-6.229024705,7731.3.60-44-b12-1.253.I,23:46:01,23:46:01,27, Dundrum Road,11252.58,60-44-b12-1,44,b12
13509,8250DB002836,"Central Bank, stop 2836",53.27542441,-6.229620712,7731.3.60-44-b12-1.253.I,23:46:27,23:46:27,28, Dundrum Road,11466.23,60-44-b12-1,44,b12
13510,8250DB002837,"Clonard Road, stop 2837",53.27736363,-6.230680242,7731.3.60-44-b12-1.253.I,23:46:55,23:46:55,29, Dundrum Road,11701.7,60-44-b12-1,44,b12
13511,8250DB002838,"Ballawley Park, stop 2838",53.27975686,-6.232051048,7731.3.60-44-b12-1.253.I,23:47:24,23:47:24,30, Dundrum Road,11983.97,60-44-b12-1,44,b12
13512,8250DB002839,"Balally Road, stop 2839",53.28286971,-6.234067218,7731.3.60-44-b12-1.253.I,23:48:03,23:48:03,31, Dundrum Road,12360.11,60-44-b12-1,44,b12
13513,8250DB002840,"Balally Drive, stop 2840",53.28433401,-6.23705148,7731.3.60-44-b12-1.253.I,23:48:31,23:48:31,32, Dundrum Road,12628.2,60-44-b12-1,44,b12
13514,8250DB002841,"Dundrum Centre, stop 2841",53.28718358,-6.240113997,7731.3.60-44-b12-1.253.I,23:49:11,23:49:11,33, Dundrum Road,13009.5,60-44-b12-1,44,b12
13515,8250DB002865,"Holy Cross Church, stop 2865",53.28970409,-6.244030426,7731.3.60-44-b12-1.253.I,23:50:13,23:50:13,34, Dundrum Road,13398.55,60-44-b12-1,44,b12
13516,8250DB002866,"Main Street, stop 2866",53.29158037,-6.245708558,7731.3.60-44-b12-1.253.I,23:50:58,23:50:58,35, Dundrum Road,13638.65,60-44-b12-1,44,b12
13517,8250DB002892,"Rosemount Estate, stop 2892",53.29535364,-6.246199007,7731.3.60-44-b12-1.253.I,23:52:27,23:52:27,36, Dundrum Road,14094.51,60-44-b12-1,44,b12
13518,8250DB004122,"Ski Club of Ireland, stop 4122",53.22339,-6.181789644,7731.3.60-44-d12-1.253.I,23:35:36,23:35:36,11, Dundrum Road,4104.71,60-44-d12-1,44,d12
13519,8250DB004123,"Grange Growers, stop 4123",53.22886414,-6.185931546,7731.3.60-44-d12-1.253.I,23:36:14,23:36:14,12, Dundrum Road,4778.28,60-44-d12-1,44,d12
13520,8250DB003283,"Kiltiernan Village, stop 3283",53.23579735,-6.193833179,7731.3.60-44-d12-1.253.I,23:37:14,23:37:14,13, Dundrum Road,5725.18,60-44-d12-1,44,d12
13521,8250DB003284,"Golden Ball, stop 3284",53.23927942,-6.196443348,7731.3.60-44-d12-1.253.I,23:37:46,23:37:46,14, Dundrum Road,6148.65,60-44-d12-1,44,d12
13522,8250DB003310,"Kilternan NS, stop 3310",53.24254382,-6.19892822,7731.3.60-44-d12-1.253.I,23:38:16,23:38:16,15, Dundrum Road,6575.93,60-44-d12-1,44,d12
13523,8250DB003481,"Kilternan Church, stop 3481",53.24388071,-6.199366551,7731.3.60-44-d12-1.253.I,23:38:28,23:38:28,16, Dundrum Road,6727.37,60-44-d12-1,44,d12
13524,8250DB003482,"Palmerston FC, stop 3482",53.24614249,-6.200934908,7731.3.60-44-d12-1.253.I,23:38:49,23:38:49,17, Dundrum Road,7027.36,60-44-d12-1,44,d12
13525,8250DB003483,"Cairnfort, stop 3483",53.24961231,-6.207518116,7731.3.60-44-d12-1.253.I,23:39:33,23:39:33,18, Dundrum Road,7618.23,60-44-d12-1,44,d12
13526,8250DB003484,"Stepaside Lane, stop 3484",53.25271887,-6.213877712,7731.3.60-44-d12-1.253.I,23:40:31,23:40:31,19, Dundrum Road,8172.92,60-44-d12-1,44,d12
13527,8250DB003485,"Kilgobbin Heights, stop 3485",53.25522255,-6.215407098,7731.3.60-44-d12-1.253.I,23:40:59,23:40:59,20, Dundrum Road,8480.03,60-44-d12-1,44,d12
13528,8250DB003486,"Castle Lodge, stop 3486",53.25932249,-6.211893714,7731.3.60-44-d12-1.253.I,23:41:49,23:41:49,21, Dundrum Road,9025.37,60-44-d12-1,44,d12
13529,8250DB003487,"Ballyogan Road, stop 3487",53.26224006,-6.211652057,7731.3.60-44-d12-1.253.I,23:42:24,23:42:24,22, Dundrum Road,9387.93,60-44-d12-1,44,d12
13530,8250DB003488,"Sandyford Hall, stop 3488",53.26394812,-6.212870018,7731.3.60-44-d12-1.253.I,23:42:42,23:42:42,23, Dundrum Road,9595.45,60-44-d12-1,44,d12
13531,8250DB003489,"Kilgobbin Heights, stop 3489",53.26622541,-6.216687946,7731.3.60-44-d12-1.253.I,23:43:13,23:43:13,24, Dundrum Road,9968.7,60-44-d12-1,44,d12
13532,8250DB003492,"Bearna Park, stop 3492",53.26909566,-6.223510226,7731.3.60-44-d12-1.253.I,23:44:34,23:44:34,25, Dundrum Road,10569.86,60-44-d12-1,44,d12
13533,8250DB002835,"St Mary's Church, stop 2835",53.2704882,-6.225881423,7731.3.60-44-d12-1.253.I,23:45:05,23:45:05,26, Dundrum Road,10790.76,60-44-d12-1,44,d12
13534,8250DB007176,"Greenlands, stop 7176",53.27351904,-6.229024705,7731.3.60-44-d12-1.253.I,23:46:01,23:46:01,27, Dundrum Road,11252.58,60-44-d12-1,44,d12
13535,8250DB002836,"Central Bank, stop 2836",53.27542441,-6.229620712,7731.3.60-44-d12-1.253.I,23:46:27,23:46:27,28, Dundrum Road,11466.23,60-44-d12-1,44,d12
13536,8250DB002837,"Clonard Road, stop 2837",53.27736363,-6.230680242,7731.3.60-44-d12-1.253.I,23:46:55,23:46:55,29, Dundrum Road,11701.7,60-44-d12-1,44,d12
13537,8250DB002838,"Ballawley Park, stop 2838",53.27975686,-6.232051048,7731.3.60-44-d12-1.253.I,23:47:24,23:47:24,30, Dundrum Road,11983.97,60-44-d12-1,44,d12
13538,8250DB002839,"Balally Road, stop 2839",53.28286971,-6.234067218,7731.3.60-44-d12-1.253.I,23:48:03,23:48:03,31, Dundrum Road,12360.11,60-44-d12-1,44,d12
13539,8250DB002840,"Balally Drive, stop 2840",53.28433401,-6.23705148,7731.3.60-44-d12-1.253.I,23:48:31,23:48:31,32, Dundrum Road,12628.2,60-44-d12-1,44,d12
13540,8250DB002841,"Dundrum Centre, stop 2841",53.28718358,-6.240113997,7731.3.60-44-d12-1.253.I,23:49:11,23:49:11,33, Dundrum Road,13009.5,60-44-d12-1,44,d12
13541,8250DB002865,"Holy Cross Church, stop 2865",53.28970409,-6.244030426,7731.3.60-44-d12-1.253.I,23:50:13,23:50:13,34, Dundrum Road,13398.55,60-44-d12-1,44,d12
13542,8250DB002866,"Main Street, stop 2866",53.29158037,-6.245708558,7731.3.60-44-d12-1.253.I,23:50:58,23:50:58,35, Dundrum Road,13638.65,60-44-d12-1,44,d12
13543,8250DB002892,"Rosemount Estate, stop 2892",53.29535364,-6.246199007,7731.3.60-44-d12-1.253.I,23:52:27,23:52:27,36, Dundrum Road,14094.51,60-44-d12-1,44,d12
