Index,stop_id,stop_name,stop_lat,stop_lon,trip_id,arrival_time,departure_time,stop_sequence,stop_headsign,shape_dist_traveled,route_id,customer_route_name,project_subnet
138,8220DB007571,"DCU Helix, stop 7571",53.38677565,-6.258724958,10725.3.60-44-b12-1.256.O,08:30:00,08:30:00,1, Enniskerry,0.0,60-44-b12-1,44,b12
139,8220DB000207,"Larkhill Road, stop 207",53.38482163,-6.249874783,10725.3.60-44-b12-1.256.O,08:33:04,08:33:04,2, Enniskerry,752.95,60-44-b12-1,44,b12
140,8220DB000208,"Glendun Road, stop 208",53.38665393,-6.247950408,10725.3.60-44-b12-1.256.O,08:33:54,08:33:54,3, Enniskerry,1060.4,60-44-b12-1,44,b12
141,8220DB000209,"Larkhill Road, stop 209",53.38727111,-6.245910447,10725.3.60-44-b12-1.256.O,08:34:44,08:34:44,4, Enniskerry,1382.34,60-44-b12-1,44,b12
142,8220DB000210,"Crestfield Road, stop 210",53.38759408,-6.248317728,10725.3.60-44-b12-1.256.O,08:35:15,08:35:15,5, Enniskerry,1581.87,60-44-b12-1,44,b12
143,8220DB000211,"Collins Avenue, stop 211",53.38428086,-6.249160331,10725.3.60-44-b12-1.256.O,08:36:21,08:36:21,6, Enniskerry,2009.52,60-44-b12-1,44,b12
144,8220DB000212,"Whitehall, stop 212",53.38319564,-6.246258398,10725.3.60-44-b12-1.256.O,08:37:03,08:37:03,7, Enniskerry,2237.54,60-44-b12-1,44,b12
145,8220DB000213,"Iveragh Road, stop 213",53.38144954,-6.244872024,10725.3.60-44-b12-1.256.O,08:37:52,08:37:52,8, Enniskerry,2496.03,60-44-b12-1,44,b12
146,8220DB000214,"Highfield Hospital, stop 214",53.37940848,-6.246654552,10725.3.60-44-b12-1.256.O,08:38:40,08:38:40,9, Enniskerry,2750.44,60-44-b12-1,44,b12
147,8220DB004432,"Griffith Downs, stop 4432",53.37720747,-6.248563719,10725.3.60-44-b12-1.256.O,08:39:29,08:39:29,10, Enniskerry,3026.09,60-44-b12-1,44,b12
148,8220DB000119,"The Village, stop 119",53.37519048,-6.250765745,10725.3.60-44-b12-1.256.O,08:40:22,08:40:22,11, Enniskerry,3294.88,60-44-b12-1,44,b12
149,8220DB000044,"Skylon Hotel, stop 44",53.37301741,-6.252132303,10725.3.60-44-b12-1.256.O,08:41:01,08:41:01,12, Enniskerry,3554.25,60-44-b12-1,44,b12
150,8220DB007603,"St Patrick's College, stop 7603",53.37157673,-6.253183204,10725.3.60-44-b12-1.256.O,08:41:28,08:41:28,13, Enniskerry,3728.43,60-44-b12-1,44,b12
151,8220DB000045,"DCU St Patrick's, stop 45",53.36993643,-6.254106941,10725.3.60-44-b12-1.256.O,08:42:01,08:42:01,14, Enniskerry,3922.37,60-44-b12-1,44,b12
152,8220DB000046,"Botanic Avenue, stop 46",53.36713102,-6.255258557,10725.3.60-44-b12-1.256.O,08:43:04,08:43:04,15, Enniskerry,4248.98,60-44-b12-1,44,b12
153,8220DB000047,"Drumcondra Rail Stn, stop 47",53.36391612,-6.257298257,10725.3.60-44-b12-1.256.O,08:44:20,08:44:20,16, Enniskerry,4628.52,60-44-b12-1,44,b12
154,8220DB000048,"Fitzroy Avenue, stop 48",53.36225739,-6.258808412,10725.3.60-44-b12-1.256.O,08:45:17,08:45:17,17, Enniskerry,4838.76,60-44-b12-1,44,b12
155,8220DB000049,"Dorset Street Lower, stop 49",53.36000424,-6.260853508,10725.3.60-44-b12-1.256.O,08:46:38,08:46:38,18, Enniskerry,5125.14,60-44-b12-1,44,b12
156,8220DB000051,"Temple Street, stop 51",53.35781041,-6.263271572,10725.3.60-44-b12-1.256.O,08:48:00,08:48:00,19, Enniskerry,5415.37,60-44-b12-1,44,b12
157,8220DB000052,"Dorset Street Upper, stop 52",53.35666078,-6.264565282,10725.3.60-44-b12-1.256.O,08:48:44,08:48:44,20, Enniskerry,5572.13,60-44-b12-1,44,b12
158,8220DB000265,"Parnell Square East, stop 265",53.35336157,-6.262055381,10725.3.60-44-b12-1.256.O,08:50:59,08:50:59,21, Enniskerry,6140.71,60-44-b12-1,44,b12
159,8220DB000271,"O'Connell St Lower, stop 271",53.34859636,-6.25948542,10725.3.60-44-b12-1.256.O,08:54:46,08:54:46,22, Enniskerry,6699.84,60-44-b12-1,44,b12
160,8220DB000340,"Townsend Street, stop 340",53.34597512,-6.256017478,10725.3.60-44-b12-1.256.O,08:57:39,08:57:39,23, Enniskerry,7126.88,60-44-b12-1,44,b12
161,8220DB000350,"Prince's St South, stop 350",53.34563194,-6.24976825,10725.3.60-44-b12-1.256.O,08:59:59,08:59:59,24, Enniskerry,7543.4,60-44-b12-1,44,b12
162,8220DB002809,"Pearse Station, stop 2809",53.34288455,-6.2499709,10725.3.60-44-b12-1.256.O,09:02:08,09:02:08,25, Enniskerry,7935.76,60-44-b12-1,44,b12
163,8220DB002810,"Merrion Square West, stop 2810",53.34079491,-6.250897489,10725.3.60-44-b12-1.256.O,09:03:32,09:03:32,26, Enniskerry,8175.78,60-44-b12-1,44,b12
164,8220DB002811,"Merrion Street, stop 2811",53.3393595,-6.252307819,10725.3.60-44-b12-1.256.O,09:04:12,09:04:12,27, Enniskerry,8361.74,60-44-b12-1,44,b12
165,8220DB001013,"Earlsfort Terrace, stop 1013",53.33418076,-6.258345677,10725.3.60-44-b12-1.256.O,09:08:44,09:08:44,28, Enniskerry,9181.5,60-44-b12-1,44,b12
166,8220DB001015,"Adelaide Road, stop 1015",53.33273035,-6.259966355,10725.3.60-44-b12-1.256.O,09:09:50,09:09:50,29, Enniskerry,9427.04,60-44-b12-1,44,b12
167,8220DB002812,"Charlemont Street, stop 2812",53.33192755,-6.262236257,10725.3.60-44-b12-1.256.O,09:11:15,09:11:15,30, Enniskerry,9735.1,60-44-b12-1,44,b12
168,8220DB002813,"Ranelagh Road, stop 2813",53.32871177,-6.258673582,10725.3.60-44-b12-1.256.O,09:12:48,09:12:48,31, Enniskerry,10169.13,60-44-b12-1,44,b12
169,8220DB002814,"Ranelagh Luas, stop 2814",53.32603377,-6.255629952,10725.3.60-44-b12-1.256.O,09:13:59,09:13:59,32, Enniskerry,10556.12,60-44-b12-1,44,b12
170,8220DB000852,"Ranelagh, stop 852",53.32442927,-6.252858085,10725.3.60-44-b12-1.256.O,09:14:47,09:14:47,33, Enniskerry,10816.66,60-44-b12-1,44,b12
171,8220DB000853,"Sandford Road, stop 853",53.32259277,-6.248369577,10725.3.60-44-b12-1.256.O,09:15:46,09:15:46,34, Enniskerry,11180.0,60-44-b12-1,44,b12
172,8220DB000854,"Larch Grove, stop 854",53.32163167,-6.246577563,10725.3.60-44-b12-1.256.O,09:16:12,09:16:12,35, Enniskerry,11339.62,60-44-b12-1,44,b12
173,8220DB000855,"Sandford Road, stop 855",53.3193023,-6.242815366,10725.3.60-44-b12-1.256.O,09:17:00,09:17:00,36, Enniskerry,11698.22,60-44-b12-1,44,b12
174,8220DB002815,"Milltown Road, stop 2815",53.315851,-6.245268593,10725.3.60-44-b12-1.256.O,09:18:04,09:18:04,37, Enniskerry,12184.35,60-44-b12-1,44,b12
175,8220DB002816,"Glenmalure Square, stop 2816",53.31426575,-6.246264168,10725.3.60-44-b12-1.256.O,09:18:30,09:18:30,38, Enniskerry,12372.68,60-44-b12-1,44,b12
176,8220DB002817,"Alexandra College, stop 2817",53.31115237,-6.247862555,10725.3.60-44-b12-1.256.O,09:19:22,09:19:22,39, Enniskerry,12738.75,60-44-b12-1,44,b12
177,8250DB002818,"Dundrum Road, stop 2818",53.30794932,-6.246418047,10725.3.60-44-b12-1.256.O,09:20:09,09:20:09,40, Enniskerry,13136.9,60-44-b12-1,44,b12
178,8250DB002819,"Millmount Terrace, stop 2819",53.30548511,-6.245708734,10725.3.60-44-b12-1.256.O,09:20:41,09:20:41,41, Enniskerry,13415.97,60-44-b12-1,44,b12
179,8250DB002820,"Dundrum Business Pk, stop 2820",53.30325754,-6.245199862,10725.3.60-44-b12-1.256.O,09:21:11,09:21:11,42, Enniskerry,13666.41,60-44-b12-1,44,b12
180,8250DB002822,"Dundrum Hospital, stop 2822",53.30108989,-6.245708864,10725.3.60-44-b12-1.256.O,09:21:40,09:21:40,43, Enniskerry,13910.58,60-44-b12-1,44,b12
181,8250DB002823,"Sommerville, stop 2823",53.29752202,-6.246350202,10725.3.60-44-b12-1.256.O,09:22:24,09:22:24,44, Enniskerry,14316.72,60-44-b12-1,44,b12
182,8250DB005032,"Rosemount Estate, stop 5032",53.29546909,-6.246104263,10725.3.60-44-b12-1.256.O,09:22:48,09:22:48,45, Enniskerry,14544.56,60-44-b12-1,44,b12
183,8250DB002824,"Taney Road, stop 2824",53.29349591,-6.245780072,10725.3.60-44-b12-1.256.O,09:23:32,09:23:32,46, Enniskerry,14778.99,60-44-b12-1,44,b12
184,8250DB002825,"Dundrum Luas, stop 2825",53.29241665,-6.245734292,10725.3.60-44-b12-1.256.O,09:24:09,09:24:09,47, Enniskerry,14964.97,60-44-b12-1,44,b12
185,8250DB007715,"Dundrum North, stop 7715",53.28955593,-6.245566512,10725.3.60-44-b12-1.256.O,09:25:43,09:25:43,48, Enniskerry,15398.49,60-44-b12-1,44,b12
186,8250DB007716,"Dundrum Town Centre, Stop 7716",53.28707818,-6.243328163,10725.3.60-44-b12-1.256.O,09:26:47,09:26:47,49, Enniskerry,15711.76,60-44-b12-1,44,b12
187,8250DB007717,"Dundrum South, stop 7717",53.28540516,-6.24141698,10725.3.60-44-b12-1.256.O,09:27:43,09:27:43,50, Enniskerry,15937.37,60-44-b12-1,44,b12
188,8250DB002829,"Balally Drive, stop 2829",53.28438525,-6.236869391,10725.3.60-44-b12-1.256.O,09:29:27,09:29:27,51, Enniskerry,16359.93,60-44-b12-1,44,b12
189,8250DB002830,"Dun Emer Road, stop 2830",53.28235912,-6.233578355,10725.3.60-44-b12-1.256.O,09:30:01,09:30:01,52, Enniskerry,16691.65,60-44-b12-1,44,b12
190,8250DB002831,"Balally Hill, stop 2831",53.27905763,-6.231570033,10725.3.60-44-b12-1.256.O,09:30:41,09:30:41,53, Enniskerry,17085.33,60-44-b12-1,44,b12
191,8250DB002832,"Clonard Road, stop 2832",53.27725094,-6.23035499,10725.3.60-44-b12-1.256.O,09:31:03,09:31:03,54, Enniskerry,17307.11,60-44-b12-1,44,b12
192,8250DB002833,"Greenlands, stop 2833",53.27439192,-6.229093581,10725.3.60-44-b12-1.256.O,09:31:47,09:31:47,55, Enniskerry,17638.96,60-44-b12-1,44,b12
193,8250DB007375,"M50 Bridge, stop 7375",53.27256717,-6.228479283,10725.3.60-44-b12-1.256.O,09:32:14,09:32:14,56, Enniskerry,17846.72,60-44-b12-1,44,b12
194,8250DB003466,"St Mary's Church, stop 3466",53.27066808,-6.225888967,10725.3.60-44-b12-1.256.O,09:32:58,09:32:58,57, Enniskerry,18179.04,60-44-b12-1,44,b12
195,8250DB003467,"Bearna Park, stop 3467",53.26884509,-6.222980872,10725.3.60-44-b12-1.256.O,09:33:33,09:33:33,58, Enniskerry,18461.44,60-44-b12-1,44,b12
196,8250DB003469,"Mount Eagle Way, stop 3469",53.26612841,-6.21621224,10725.3.60-44-b12-1.256.O,09:35:07,09:35:07,59, Enniskerry,19050.5,60-44-b12-1,44,b12
197,8250DB003470,"Sandyford Hall, stop 3470",53.26359016,-6.21237525,10725.3.60-44-b12-1.256.O,09:36:12,09:36:12,60, Enniskerry,19443.8,60-44-b12-1,44,b12
198,8250DB003471,"Ballyogan Road, stop 3471",53.26213675,-6.211356557,10725.3.60-44-b12-1.256.O,09:36:29,09:36:29,61, Enniskerry,19617.79,60-44-b12-1,44,b12
199,8250DB003472,"Castle Lodge, stop 3472",53.25921582,-6.211973112,10725.3.60-44-b12-1.256.O,09:37:03,09:37:03,62, Enniskerry,19974.21,60-44-b12-1,44,b12
200,8250DB003473,"St Patrick's Park, stop 3473",53.25412016,-6.214418836,10725.3.60-44-b12-1.256.O,09:39:09,09:39:09,63, Enniskerry,20644.44,60-44-b12-1,44,b12
201,8250DB003474,"Stepaside Lane, stop 3474",53.25252686,-6.213061416,10725.3.60-44-b12-1.256.O,09:39:51,09:39:51,64, Enniskerry,20871.21,60-44-b12-1,44,b12
202,8250DB003475,"Cairnfort, stop 3475",53.24943105,-6.206821346,10725.3.60-44-b12-1.256.O,09:40:42,09:40:42,65, Enniskerry,21419.56,60-44-b12-1,44,b12
203,8250DB003476,"Palmerston FC, stop 3476",53.24620469,-6.200887344,10725.3.60-44-b12-1.256.O,09:41:26,09:41:26,66, Enniskerry,21958.67,60-44-b12-1,44,b12
204,8250DB003477,"Kilternan NS, stop 3477",53.24300933,-6.198803783,10725.3.60-44-b12-1.256.O,09:42:20,09:42:20,67, Enniskerry,22360.16,60-44-b12-1,44,b12
205,8250DB003478,"Golden Ball, stop 3478",53.23905055,-6.196168304,10725.3.60-44-b12-1.256.O,09:43:25,09:43:25,68, Enniskerry,22846.59,60-44-b12-1,44,b12
206,8250DB003280,"Wayside Cottages, stop 3280",53.2377713,-6.195383106,10725.3.60-44-b12-1.256.O,09:43:43,09:43:43,69, Enniskerry,23000.35,60-44-b12-1,44,b12
207,8250DB003282,"Kiltiernan Village, stop 3282",53.23574654,-6.193445803,10725.3.60-44-b12-1.256.O,09:44:14,09:44:14,70, Enniskerry,23263.16,60-44-b12-1,44,b12
208,8250DB003479,"Moss Cottages, stop 3479",53.23290683,-6.189340917,10725.3.60-44-b12-1.256.O,09:44:50,09:44:50,71, Enniskerry,23686.07,60-44-b12-1,44,b12
209,8250DB004086,"Grange Growers, stop 4086",53.22847105,-6.1854988,10725.3.60-44-b12-1.256.O,09:45:37,09:45:37,72, Enniskerry,24241.67,60-44-b12-1,44,b12
210,8250DB004087,"Ski Club of Ireland, stop 4087",53.22339693,-6.181654556,10725.3.60-44-b12-1.256.O,09:46:29,09:46:29,73, Enniskerry,24863.65,60-44-b12-1,44,b12
