Index,stop_id,stop_name,stop_lat,stop_lon,trip_id,arrival_time,departure_time,stop_sequence,stop_headsign,shape_dist_traveled,route_id,customer_route_name,project_subnet
0,8240DB007347,"Zone 15, stop 7347",53.42801965,-6.242020726,1138.1.60-16D-b12-1.163.O,07:30:00,07:30:00,1, Ballinteer,0.0,60-16D-b12-1,16D,b12
1,8240DB003669,"Maldron Hotel, stop 3669",53.42846554,-6.235079789,1138.1.60-16D-b12-1.163.O,07:31:31,07:31:31,2, Ballinteer,676.08,60-16D-b12-1,16D,b12
2,8240DB007349,"Radisson Hotel, stop 7349",53.42527839,-6.234715254,1138.1.60-16D-b12-1.163.O,07:32:39,07:32:39,3, Ballinteer,1285.2,60-16D-b12-1,16D,b12
3,8240DB001631,"ALSAA Sports Club, stop 1631",53.42240565,-6.230696398,1138.1.60-16D-b12-1.163.O,07:33:49,07:33:49,4, Ballinteer,2079.34,60-16D-b12-1,16D,b12
4,8240DB001632,"Toberbunny Lodge, stop 1632",53.42050015,-6.23312273,1138.1.60-16D-b12-1.163.O,07:34:24,07:34:24,5, Ballinteer,2343.52,60-16D-b12-1,16D,b12
5,8240DB005053,"Swords Road, stop 5053",53.41964188,-6.234647863,1138.1.60-16D-b12-1.163.O,07:34:43,07:34:43,6, Ballinteer,2481.21,60-16D-b12-1,16D,b12
6,8240DB001633,"Dardistown Cemetery, stop 1633",53.41813287,-6.237147726,1138.1.60-16D-b12-1.163.O,07:35:15,07:35:15,7, Ballinteer,2719.42,60-16D-b12-1,16D,b12
7,8240DB001634,"Collinstown Park, stop 1634",53.41345696,-6.238830466,1138.1.60-16D-b12-1.163.O,07:36:29,07:36:29,8, Ballinteer,3289.66,60-16D-b12-1,16D,b12
8,8240DB001635,"Woodland Ind Est, stop 1635",53.41170491,-6.238872777,1138.1.60-16D-b12-1.163.O,07:36:49,07:36:49,9, Ballinteer,3484.91,60-16D-b12-1,16D,b12
9,8240DB001636,"Turnapin Lane, stop 1636",53.40825271,-6.237601473,1138.1.60-16D-b12-1.163.O,07:37:28,07:37:28,10, Ballinteer,3880.8,60-16D-b12-1,16D,b12
10,8240DB001637,"Santry Close, stop 1637",53.40403965,-6.240197136,1138.1.60-16D-b12-1.163.O,07:39:32,07:39:32,11, Ballinteer,4382.79,60-16D-b12-1,16D,b12
11,8240DB001638,"Morton Stadium, stop 1638",53.40174938,-6.24214153,1138.1.60-16D-b12-1.163.O,07:40:18,07:40:18,12, Ballinteer,4669.21,60-16D-b12-1,16D,b12
12,8240DB001639,"Schoolhouse Lane, stop 1639",53.39650939,-6.245199655,1138.1.60-16D-b12-1.163.O,07:42:51,07:42:51,13, Ballinteer,5309.7,60-16D-b12-1,16D,b12
13,8240DB001640,"Omni Park SC, stop 1640",53.3923505,-6.24598725,1138.1.60-16D-b12-1.163.O,07:43:57,07:43:57,14, Ballinteer,5774.42,60-16D-b12-1,16D,b12
14,8240DB000231,"Shanvarna Road Est, stop 231",53.38924008,-6.245949764,1138.1.60-16D-b12-1.163.O,07:45:35,07:45:35,15, Ballinteer,6127.18,60-16D-b12-1,16D,b12
15,8220DB001641,"Ellenfield Park, stop 1641",53.38652728,-6.242392966,1138.1.60-16D-b12-1.163.O,07:47:45,07:47:45,16, Ballinteer,6595.08,60-16D-b12-1,16D,b12
16,8220DB001642,"Whitehall Church, stop 1642",53.38394789,-6.243626722,1138.1.60-16D-b12-1.163.O,07:49:07,07:49:07,17, Ballinteer,6894.84,60-16D-b12-1,16D,b12
17,8220DB000213,"Iveragh Road, stop 213",53.38144954,-6.244872024,1138.1.60-16D-b12-1.163.O,07:50:30,07:50:30,18, Ballinteer,7183.96,60-16D-b12-1,16D,b12
18,8220DB000214,"Highfield Hospital, stop 214",53.37940848,-6.246654552,1138.1.60-16D-b12-1.163.O,07:51:59,07:51:59,19, Ballinteer,7438.37,60-16D-b12-1,16D,b12
19,8220DB004432,"Griffith Downs, stop 4432",53.37720747,-6.248563719,1138.1.60-16D-b12-1.163.O,07:53:30,07:53:30,20, Ballinteer,7714.02,60-16D-b12-1,16D,b12
20,8220DB000119,"The Village, stop 119",53.37519048,-6.250765745,1138.1.60-16D-b12-1.163.O,07:55:07,07:55:07,21, Ballinteer,7982.81,60-16D-b12-1,16D,b12
21,8220DB000044,"Skylon Hotel, stop 44",53.37301741,-6.252132303,1138.1.60-16D-b12-1.163.O,07:56:19,07:56:19,22, Ballinteer,8242.17,60-16D-b12-1,16D,b12
22,8220DB007603,"St Patrick's College, stop 7603",53.37157673,-6.253183204,1138.1.60-16D-b12-1.163.O,07:57:10,07:57:10,23, Ballinteer,8416.35,60-16D-b12-1,16D,b12
23,8220DB000045,"DCU St Patrick's, stop 45",53.36993643,-6.254106941,1138.1.60-16D-b12-1.163.O,07:58:09,07:58:09,24, Ballinteer,8610.3,60-16D-b12-1,16D,b12
24,8220DB000046,"Botanic Avenue, stop 46",53.36713102,-6.255258557,1138.1.60-16D-b12-1.163.O,07:59:59,07:59:59,25, Ballinteer,8936.9,60-16D-b12-1,16D,b12
25,8220DB000047,"Drumcondra Rail Stn, stop 47",53.36391612,-6.257298257,1138.1.60-16D-b12-1.163.O,08:02:10,08:02:10,26, Ballinteer,9316.45,60-16D-b12-1,16D,b12
26,8220DB000048,"Fitzroy Avenue, stop 48",53.36225739,-6.258808412,1138.1.60-16D-b12-1.163.O,08:03:41,08:03:41,27, Ballinteer,9526.68,60-16D-b12-1,16D,b12
27,8220DB000049,"Dorset Street Lower, stop 49",53.36000424,-6.260853508,1138.1.60-16D-b12-1.163.O,08:05:51,08:05:51,28, Ballinteer,9813.07,60-16D-b12-1,16D,b12
28,8220DB000051,"Temple Street, stop 51",53.35781041,-6.263271572,1138.1.60-16D-b12-1.163.O,08:07:44,08:07:44,29, Ballinteer,10103.3,60-16D-b12-1,16D,b12
29,8220DB000052,"Dorset Street Upper, stop 52",53.35666078,-6.264565282,1138.1.60-16D-b12-1.163.O,08:08:45,08:08:45,30, Ballinteer,10260.06,60-16D-b12-1,16D,b12
30,8220DB000262,"Parnell Square East, stop 262",53.35394696,-6.262752649,1138.1.60-16D-b12-1.163.O,08:13:32,08:13:32,31, Ballinteer,10748.56,60-16D-b12-1,16D,b12
31,8220DB000270,"O'Connell St Upper, stop 270",53.35062339,-6.260424292,1138.1.60-16D-b12-1.163.O,08:16:03,08:16:03,32, Ballinteer,11154.77,60-16D-b12-1,16D,b12
32,8220DB000336,"D'Olier Street, stop 336",53.34625164,-6.257718467,1138.1.60-16D-b12-1.163.O,08:20:00,08:20:00,33, Ballinteer,11681.74,60-16D-b12-1,16D,b12
33,8220DB001279,"College Green, stop 1279",53.34426049,-6.261704666,1138.1.60-16D-b12-1.163.O,08:23:07,08:23:07,34, Ballinteer,12102.06,60-16D-b12-1,16D,b12
34,8220DB001282,"S Great George's St, stop 1282",53.3423418,-6.264501083,1138.1.60-16D-b12-1.163.O,08:25:59,08:25:59,35, Ballinteer,12485.81,60-16D-b12-1,16D,b12
35,8220DB004456,"Whitefriars St, stop 4456",53.3399144,-6.265695957,1138.1.60-16D-b12-1.163.O,08:27:49,08:27:49,36, Ballinteer,12772.5,60-16D-b12-1,16D,b12
36,8220DB001284,"Redmond's Hill, stop 1284",53.33812835,-6.265873557,1138.1.60-16D-b12-1.163.O,08:28:54,08:28:54,37, Ballinteer,12975.42,60-16D-b12-1,16D,b12
37,8220DB001285,"Camden Street Lower, stop 1285",53.33437841,-6.265124754,1138.1.60-16D-b12-1.163.O,08:31:07,08:31:07,38, Ballinteer,13396.51,60-16D-b12-1,16D,b12
38,8220DB001287,"Synge Street, stop 1287",53.33247837,-6.266117791,1138.1.60-16D-b12-1.163.O,08:34:04,08:34:04,40, Ballinteer,13958.44,60-16D-b12-1,16D,b12
39,8220DB001288,"Victoria Street, stop 1288",53.33232275,-6.269637622,1138.1.60-16D-b12-1.163.O,08:35:02,08:35:02,41, Ballinteer,14192.8,60-16D-b12-1,16D,b12
40,8220DB001289,"Longwood Avenue, stop 1289",53.33212936,-6.273038833,1138.1.60-16D-b12-1.163.O,08:35:57,08:35:57,42, Ballinteer,14419.64,60-16D-b12-1,16D,b12
41,8220DB001290,"Clanbrassil St Upper, stop 1290",53.33073105,-6.275167319,1138.1.60-16D-b12-1.163.O,08:37:12,08:37:12,43, Ballinteer,14734.28,60-16D-b12-1,16D,b12
42,8220DB001291,"Harold's Cross Road, stop 1291",53.32844661,-6.276310441,1138.1.60-16D-b12-1.163.O,08:39:28,08:39:28,44, Ballinteer,14997.98,60-16D-b12-1,16D,b12
43,8220DB001292,"Harold's Cross Park, stop 1292",53.32562461,-6.278195704,1138.1.60-16D-b12-1.163.O,08:40:39,08:40:39,45, Ballinteer,15341.79,60-16D-b12-1,16D,b12
44,8220DB001293,"Parkview Avenue, stop 1293",53.32286036,-6.27910263,1138.1.60-16D-b12-1.163.O,08:41:46,08:41:46,46, Ballinteer,15653.76,60-16D-b12-1,16D,b12
45,8220DB001294,"Lady of the Rosary, stop 1294",53.32060003,-6.278803306,1138.1.60-16D-b12-1.163.O,08:42:40,08:42:40,47, Ballinteer,15914.88,60-16D-b12-1,16D,b12
46,8220DB001295,"Kenilworth Park, stop 1295",53.31791489,-6.279586817,1138.1.60-16D-b12-1.163.O,08:43:45,08:43:45,48, Ballinteer,16220.77,60-16D-b12-1,16D,b12
47,8220DB001296,"Mount Tallant Avenue, stop 1296",53.31556275,-6.281647623,1138.1.60-16D-b12-1.163.O,08:44:34,08:44:34,49, Ballinteer,16516.18,60-16D-b12-1,16D,b12
48,8220DB001297,"Whitton Road, stop 1297",53.31240961,-6.282389614,1138.1.60-16D-b12-1.163.O,08:45:36,08:45:36,50, Ballinteer,16881.34,60-16D-b12-1,16D,b12
49,8220DB001298,"Terenure, stop 1298",53.31074699,-6.283026651,1138.1.60-16D-b12-1.163.O,08:46:09,08:46:09,51, Ballinteer,17070.95,60-16D-b12-1,16D,b12
50,8220DB001299,"Rathfarnham Road, stop 1299",53.3083957,-6.283901356,1138.1.60-16D-b12-1.163.O,08:47:21,08:47:21,52, Ballinteer,17340.36,60-16D-b12-1,16D,b12
51,8220DB001300,"Rathdown Park, stop 1300",53.30615075,-6.283421177,1138.1.60-16D-b12-1.163.O,08:48:29,08:48:29,53, Ballinteer,17593.0,60-16D-b12-1,16D,b12
52,8230DB001301,"Dodder Park Road, stop 1301",53.30389581,-6.283496631,1138.1.60-16D-b12-1.163.O,08:49:40,08:49:40,54, Ballinteer,17844.33,60-16D-b12-1,16D,b12
53,8230DB001302,"Crannagh Road, stop 1302",53.30166272,-6.283841275,1138.1.60-16D-b12-1.163.O,08:50:08,08:50:08,55, Ballinteer,18097.52,60-16D-b12-1,16D,b12
54,8230DB001303,"Rathfarnham Castle, stop 1303",53.29934231,-6.283739278,1138.1.60-16D-b12-1.163.O,08:50:53,08:50:53,56, Ballinteer,18356.87,60-16D-b12-1,16D,b12
55,8230DB001304,"Butterfield Avenue, stop 1304",53.29817655,-6.284551179,1138.1.60-16D-b12-1.163.O,08:51:27,08:51:27,57, Ballinteer,18497.05,60-16D-b12-1,16D,b12
56,8230DB001305,"Willbrook Road, stop 1305",53.2961696,-6.283746478,1138.1.60-16D-b12-1.163.O,08:52:29,08:52:29,58, Ballinteer,18750.48,60-16D-b12-1,16D,b12
57,8230DB001320,"Loretto Terrace, stop 1320",53.29446542,-6.280874469,1138.1.60-16D-b12-1.163.O,08:53:21,08:53:21,59, Ballinteer,19047.44,60-16D-b12-1,16D,b12
58,8230DB001321,"Aranleigh, stop 1321",53.29246197,-6.282185009,1138.1.60-16D-b12-1.163.O,08:54:04,08:54:04,60, Ballinteer,19301.95,60-16D-b12-1,16D,b12
59,8230DB001322,"Tara Hill Road, stop 1322",53.2907131,-6.282450189,1138.1.60-16D-b12-1.163.O,08:54:37,08:54:37,61, Ballinteer,19496.29,60-16D-b12-1,16D,b12
60,8230DB001323,"Barton Drive, stop 1323",53.28908058,-6.282680679,1138.1.60-16D-b12-1.163.O,08:55:08,08:55:08,62, Ballinteer,19679.52,60-16D-b12-1,16D,b12
61,8230DB001324,"Barton Road West, stop 1324",53.28724891,-6.282814142,1138.1.60-16D-b12-1.163.O,08:55:44,08:55:44,63, Ballinteer,19885.7,60-16D-b12-1,16D,b12
62,8230DB007068,"St Enda's Park, stop 7068",53.28466155,-6.281028117,1138.1.60-16D-b12-1.163.O,08:56:38,08:56:38,64, Ballinteer,20202.89,60-16D-b12-1,16D,b12
63,8230DB002966,"Hermitage Avenue, stop 2966",53.28247407,-6.278926286,1138.1.60-16D-b12-1.163.O,08:57:29,08:57:29,65, Ballinteer,20502.04,60-16D-b12-1,16D,b12
64,8230DB002967,"Eden Avenue, stop 2967",53.2813395,-6.276917275,1138.1.60-16D-b12-1.163.O,08:58:04,08:58:04,66, Ballinteer,20717.65,60-16D-b12-1,16D,b12
65,8230DB002968,"Three Rock Rovers, stop 2968",53.28032933,-6.273568645,1138.1.60-16D-b12-1.163.O,08:58:44,08:58:44,67, Ballinteer,20966.59,60-16D-b12-1,16D,b12
66,8250DB002969,"Marley Park, stop 2969",53.27940273,-6.270411749,1138.1.60-16D-b12-1.163.O,08:59:22,08:59:22,68, Ballinteer,21200.3,60-16D-b12-1,16D,b12
67,8250DB002970,"Grange Road, stop 2970",53.27817063,-6.267267347,1138.1.60-16D-b12-1.163.O,09:00:02,09:00:02,69, Ballinteer,21448.65,60-16D-b12-1,16D,b12
68,8250DB002971,"Stonemasons Way, stop 2971",53.27629277,-6.264224271,1138.1.60-16D-b12-1.163.O,09:00:59,09:00:59,70, Ballinteer,21737.56,60-16D-b12-1,16D,b12
69,8250DB005051,"Pine Valley, stop 5051",53.273558,-6.259746786,1138.1.60-16D-b12-1.163.O,09:02:24,09:02:24,71, Ballinteer,22170.43,60-16D-b12-1,16D,b12
70,8250DB005052,"Grange Hall, stop 5052",53.27203136,-6.254920784,1138.1.60-16D-b12-1.163.O,09:02:57,09:02:57,72, Ballinteer,22537.77,60-16D-b12-1,16D,b12
71,8250DB002975,"Kingston, stop 2975",53.27186518,-6.247880434,1138.1.60-16D-b12-1.163.O,09:03:53,09:03:53,73, Ballinteer,23813.91,60-16D-b12-1,16D,b12
