Index,stop_id,stop_name,stop_lat,stop_lon,trip_id,arrival_time,departure_time,stop_sequence,stop_headsign,shape_dist_traveled,route_id,customer_route_name,project_subnet
106,8230DB007976,"Liffey Valley West, stop 7976",53.35271276,-6.396078675,13106.3.60-G2-b12-1.357.I,07:13:00,07:13:00,1, Spencer Dock,0.0,60-G2-b12-1,G2,b12
107,8230DB07755,"Clayton Hotel, stop 7755",53.35354586,-6.401230057,13106.3.60-G2-b12-1.357.I,07:13:43,07:13:43,2, Spencer Dock,412.76,60-G2-b12-1,G2,b12
108,8230DB004688,"Shancastle Park, stop 4688",53.35040934,-6.404607022,13106.3.60-G2-b12-1.357.I,07:14:43,07:14:43,3, Spencer Dock,943.35,60-G2-b12-1,G2,b12
109,8230DB004689,"Fonthill Retail Park, stop 4689",53.3476992,-6.405594414,13106.3.60-G2-b12-1.357.I,07:15:35,07:15:35,4, Spencer Dock,1265.79,60-G2-b12-1,G2,b12
110,8230DB004410,"St Mark's Grove, stop 4410",53.34524896,-6.406526926,13106.3.60-G2-b12-1.357.I,07:15:59,07:15:59,5, Spencer Dock,1546.16,60-G2-b12-1,G2,b12
111,8230DB002678,"Rowlagh, stop 2678",53.34350401,-6.407102633,13106.3.60-G2-b12-1.357.I,07:16:13,07:16:13,6, Spencer Dock,1744.64,60-G2-b12-1,G2,b12
112,8230DB002679,"Rowlagh Crescent, stop 2679",53.34155623,-6.40797119,13106.3.60-G2-b12-1.357.I,07:16:47,07:16:47,7, Spencer Dock,1968.33,60-G2-b12-1,G2,b12
113,8230DB002680,"Foxdene Gardens, stop 2680",53.33876117,-6.407985208,13106.3.60-G2-b12-1.357.I,07:17:34,07:17:34,8, Spencer Dock,2279.64,60-G2-b12-1,G2,b12
114,8230DB002676,"Wood Avens, stop 2676",53.33662312,-6.404701207,13106.3.60-G2-b12-1.357.I,07:18:11,07:18:11,9, Spencer Dock,2652.54,60-G2-b12-1,G2,b12
115,8230DB002118,"Neilstown Road, stop 2118",53.33562399,-6.400564075,13106.3.60-G2-b12-1.357.I,07:19:21,07:19:21,10, Spencer Dock,3071.21,60-G2-b12-1,G2,b12
116,8230DB002119,"St Peter School, stop 2119",53.33704793,-6.400180428,13106.3.60-G2-b12-1.357.I,07:19:48,07:19:48,11, Spencer Dock,3234.97,60-G2-b12-1,G2,b12
117,8230DB002120,"Collinstown College, stop 2120",53.34116327,-6.399425654,13106.3.60-G2-b12-1.357.I,07:21:04,07:21:04,12, Spencer Dock,3707.89,60-G2-b12-1,G2,b12
118,8230DB002121,"Rowlagh, stop 2121",53.34387558,-6.398603156,13106.3.60-G2-b12-1.357.I,07:21:55,07:21:55,13, Spencer Dock,4029.05,60-G2-b12-1,G2,b12
119,8230DB002123,"St Mark's Avenue, stop 2123",53.34717603,-6.398073913,13106.3.60-G2-b12-1.357.I,07:22:53,07:22:53,14, Spencer Dock,4406.34,60-G2-b12-1,G2,b12
120,8230DB002685,"Coldcut Road, stop 2685",53.34795509,-6.395851745,13106.3.60-G2-b12-1.357.I,07:23:32,07:23:32,15, Spencer Dock,4655.95,60-G2-b12-1,G2,b12
121,8230DB002686,"Sports Club, stop 2686",53.34765219,-6.388713524,13106.3.60-G2-b12-1.357.I,07:24:29,07:24:29,16, Spencer Dock,5131.81,60-G2-b12-1,G2,b12
122,8230DB007510,"Cloverhill Road, stop 7510",53.34719069,-6.384495287,13106.3.60-G2-b12-1.357.I,07:25:03,07:25:03,17, Spencer Dock,5413.11,60-G2-b12-1,G2,b12
123,8230DB004799,"Ballyfermot Road, stop 4799",53.34519374,-6.379073722,13106.3.60-G2-b12-1.357.I,07:26:13,07:26:13,18, Spencer Dock,5856.34,60-G2-b12-1,G2,b12
124,8230DB002205,"Cherry Orchard Hosp, stop 2205",53.34459064,-6.377023963,13106.3.60-G2-b12-1.357.I,07:26:37,07:26:37,19, Spencer Dock,6011.98,60-G2-b12-1,G2,b12
125,8230DB002687,"Cherry Orchard IE, stop 2687",53.34396112,-6.373037829,13106.3.60-G2-b12-1.357.I,07:27:13,07:27:13,20, Spencer Dock,6287.37,60-G2-b12-1,G2,b12
126,8220DB002688,"Cleggan Park, stop 2688",53.34346351,-6.368190708,13106.3.60-G2-b12-1.357.I,07:27:53,07:27:53,21, Spencer Dock,6615.22,60-G2-b12-1,G2,b12
127,8220DB002689,"Blackditch Drive, stop 2689",53.343106,-6.363743832,13106.3.60-G2-b12-1.357.I,07:28:30,07:28:30,22, Spencer Dock,6912.13,60-G2-b12-1,G2,b12
128,8220DB002696,"Ballyfermot, stop 2696",53.34268762,-6.358803755,13106.3.60-G2-b12-1.357.I,07:29:41,07:29:41,23, Spencer Dock,7243.37,60-G2-b12-1,G2,b12
129,8220DB002697,"Ballyfermot Parade, stop 2697",53.34227747,-6.35317261,13106.3.60-G2-b12-1.357.I,07:30:44,07:30:44,24, Spencer Dock,7621.22,60-G2-b12-1,G2,b12
130,8220DB002713,"St Gabriel's School, stop 2713",53.34248065,-6.347067298,13106.3.60-G2-b12-1.357.I,07:31:41,07:31:41,25, Spencer Dock,8057.25,60-G2-b12-1,G2,b12
131,8220DB002714,"Markievicz Park, stop 2714",53.34190511,-6.341863214,13106.3.60-G2-b12-1.357.I,07:32:28,07:32:28,26, Spencer Dock,8415.98,60-G2-b12-1,G2,b12
132,8220DB002715,"O'Hogan Road, stop 2715",53.34255171,-6.338594133,13106.3.60-G2-b12-1.357.I,07:32:59,07:32:59,27, Spencer Dock,8654.14,60-G2-b12-1,G2,b12
133,8220DB002716,"Sarsfield Road, stop 2716",53.34284063,-6.332245056,13106.3.60-G2-b12-1.357.I,07:33:58,07:33:58,28, Spencer Dock,9101.08,60-G2-b12-1,G2,b12
134,8220DB002718,"St Mary's Avenue, stop 2718",53.34228226,-6.327671217,13106.3.60-G2-b12-1.357.I,07:34:39,07:34:39,29, Spencer Dock,9418.95,60-G2-b12-1,G2,b12
135,8220DB002719,"Woodfield Place, stop 2719",53.34164577,-6.320111939,13106.3.60-G2-b12-1.357.I,07:35:40,07:35:40,30, Spencer Dock,9939.53,60-G2-b12-1,G2,b12
136,8220DB001989,"Emmet Road, stop 1989",53.33970648,-6.31898677,13106.3.60-G2-b12-1.357.I,07:37:49,07:37:49,31, Spencer Dock,10436.53,60-G2-b12-1,G2,b12
137,8220DB001990,"Myra Cottages, stop 1990",53.34047278,-6.314691573,13106.3.60-G2-b12-1.357.I,07:38:34,07:38:34,32, Spencer Dock,10740.46,60-G2-b12-1,G2,b12
138,8220DB001992,"Inchicore Library, stop 1992",53.3406545,-6.309112777,13106.3.60-G2-b12-1.357.I,07:39:30,07:39:30,33, Spencer Dock,11114.47,60-G2-b12-1,G2,b12
139,8220DB001993,"Old Kilmainham, stop 1993",53.34085366,-6.304779727,13106.3.60-G2-b12-1.357.I,07:40:13,07:40:13,34, Spencer Dock,11403.56,60-G2-b12-1,G2,b12
140,8220DB001994,"Mount Brown, stop 1994",53.34142396,-6.299380601,13106.3.60-G2-b12-1.357.I,07:40:51,07:40:51,35, Spencer Dock,11771.46,60-G2-b12-1,G2,b12
141,8220DB001995,"Basin Street Lower, stop 1995",53.34267519,-6.293218227,13106.3.60-G2-b12-1.357.I,07:41:36,07:41:36,36, Spencer Dock,12207.61,60-G2-b12-1,G2,b12
142,8220DB001996,"James Street, stop 1996",53.34356007,-6.288481954,13106.3.60-G2-b12-1.357.I,07:42:34,07:42:34,37, Spencer Dock,12536.81,60-G2-b12-1,G2,b12
143,8220DB001997,"Thomas Street, stop 1997",53.34357108,-6.285492742,13106.3.60-G2-b12-1.357.I,07:43:08,07:43:08,38, Spencer Dock,12734.95,60-G2-b12-1,G2,b12
144,8220DB001998,"Bridgefoot Street, stop 1998",53.34313961,-6.280493772,13106.3.60-G2-b12-1.357.I,07:44:34,07:44:34,39, Spencer Dock,13068.28,60-G2-b12-1,G2,b12
145,8220DB001999,"Francis St Junction, stop 1999",53.34311924,-6.276589701,13106.3.60-G2-b12-1.357.I,07:45:45,07:45:45,40, Spencer Dock,13343.54,60-G2-b12-1,G2,b12
146,8220DB002001,"High Street, stop 2001",53.34331047,-6.273653305,13106.3.60-G2-b12-1.357.I,07:46:39,07:46:39,41, Spencer Dock,13539.33,60-G2-b12-1,G2,b12
147,8220DB007883,"Ormond Quay, stop 7883",53.346058,-6.268495617,13106.3.60-G2-b12-1.357.I,07:49:31,07:49:31,42, Spencer Dock,14208.83,60-G2-b12-1,G2,b12
148,8220DB007359,"Eden Quay, stop 7359",53.34784247,-6.258329513,13106.3.60-G2-b12-1.357.I,07:52:36,07:52:36,43, Spencer Dock,14918.53,60-G2-b12-1,G2,b12
149,8220DB000407,"Custom House, stop 407",53.34833489,-6.253893353,13106.3.60-G2-b12-1.357.I,07:53:41,07:53:41,44, Spencer Dock,15230.62,60-G2-b12-1,G2,b12
150,8220DB002498,"IFSC, stop 2498",53.34824354,-6.250111878,13106.3.60-G2-b12-1.357.I,07:54:24,07:54:24,45, Spencer Dock,15482.08,60-G2-b12-1,G2,b12
151,8220DB002499,"CHQ, stop 2499",53.34812783,-6.24712751,13106.3.60-G2-b12-1.357.I,07:54:49,07:54:49,46, Spencer Dock,15681.07,60-G2-b12-1,G2,b12
152,8220DB002500,"Beckett Bridge, stop 2500",53.34778834,-6.242379931,13106.3.60-G2-b12-1.357.I,07:55:29,07:55:29,47, Spencer Dock,15998.02,60-G2-b12-1,G2,b12
153,8220DB002501,"Spencer Place, stop 2501",53.34737591,-6.236358699,13106.3.60-G2-b12-1.357.I,07:56:45,07:56:45,48, Spencer Dock,16401.02,60-G2-b12-1,G2,b12
154,8220DB002502,"New Wapping Street, stop 2502",53.34966038,-6.235242944,13106.3.60-G2-b12-1.357.I,07:57:45,07:57:45,49, Spencer Dock,16718.94,60-G2-b12-1,G2,b12
155,8220DB007890,"Castleforbes Road, stop 7890",53.34896384,-6.231907021,13106.3.60-G2-b12-1.357.I,07:59:01,07:59:01,50, Spencer Dock,17116.39,60-G2-b12-1,G2,b12
