Index,stop_id,stop_name,stop_lat,stop_lon,trip_id,arrival_time,departure_time,stop_sequence,stop_headsign,shape_dist_traveled,route_id,customer_route_name,project_subnet
0,8240DB007073,"Carlton Hotel, stop 7073",53.41908134,-6.378265517,15487.2.60-40E-b12-1.230.I,07:15:00,07:15:00,1, Broombridge Luas,0.0,60-40E-b12-1,40E,b12
1,8240DB007097,"Belgree Boulevard, stop 7097",53.420141,-6.384830261,15487.2.60-40E-b12-1.230.I,07:16:24,07:16:24,2, Broombridge Luas,534.61,60-40E-b12-1,40E,b12
2,8240DB007098,"Mount Eustace, stop 7098",53.42133658,-6.388170322,15487.2.60-40E-b12-1.230.I,07:17:12,07:17:12,3, Broombridge Luas,839.25,60-40E-b12-1,40E,b12
3,8240DB007099,"Mount Garrett, stop 7099",53.4217822,-6.391222908,15487.2.60-40E-b12-1.230.I,07:17:54,07:17:54,4, Broombridge Luas,1096.1,60-40E-b12-1,40E,b12
4,8240DB007100,"Rathmore Crescent, stop 7100",53.41975887,-6.391810848,15487.2.60-40E-b12-1.230.I,07:18:55,07:18:55,5, Broombridge Luas,1406.11,60-40E-b12-1,40E,b12
5,8240DB007101,"Bealing Walk, stop 7101",53.41825847,-6.387188463,15487.2.60-40E-b12-1.230.I,07:20:00,07:20:00,6, Broombridge Luas,1810.79,60-40E-b12-1,40E,b12
6,8240DB007505,"Ballentree Avenue, stop 7505",53.41757908,-6.386130949,15487.2.60-40E-b12-1.230.I,07:20:16,07:20:16,7, Broombridge Luas,1915.78,60-40E-b12-1,40E,b12
7,8240DB007678,"The Green, stop 7678",53.42431202,-6.378246984,15487.2.60-40E-b12-1.230.I,07:23:36,07:23:36,8, Broombridge Luas,3183.71,60-40E-b12-1,40E,b12
8,8240DB007560,"The Oaks, stop 7560",53.42676062,-6.369952565,15487.2.60-40E-b12-1.230.I,07:25:15,07:25:15,9, Broombridge Luas,3912.34,60-40E-b12-1,40E,b12
9,8240DB007679,"Mitchelstown Rd, stop 7679",53.41445192,-6.354567246,15487.2.60-40E-b12-1.230.I,07:28:36,07:28:36,10, Broombridge Luas,5945.31,60-40E-b12-1,40E,b12
10,8240DB007680,"Northwest, stop 7680",53.41318957,-6.349064989,15487.2.60-40E-b12-1.230.I,07:29:13,07:29:13,11, Broombridge Luas,6336.64,60-40E-b12-1,40E,b12
11,8240DB007681,"Millennium, stop 7681",53.40865373,-6.345389975,15487.2.60-40E-b12-1.230.I,07:30:22,07:30:22,12, Broombridge Luas,7077.65,60-40E-b12-1,40E,b12
12,8240DB007683,"Cappogue Cottages , stop 7683",53.39919585,-6.332929201,15487.2.60-40E-b12-1.230.I,07:32:15,07:32:15,13, Broombridge Luas,8468.68,60-40E-b12-1,40E,b12
13,8240DB001582,"Heathfield Avenue, stop 1582",53.39513353,-6.327163411,15487.2.60-40E-b12-1.230.I,07:33:07,07:33:07,14, Broombridge Luas,9115.05,60-40E-b12-1,40E,b12
14,8220DB004793,"Avila Park, stop 4793",53.39226726,-6.320825375,15487.2.60-40E-b12-1.230.I,07:33:52,07:33:52,15, Broombridge Luas,9658.02,60-40E-b12-1,40E,b12
15,8220DB006068,"Ratoath Drive, stop 6068",53.39028238,-6.317099574,15487.2.60-40E-b12-1.230.I,07:34:41,07:34:41,16, Broombridge Luas,10048.75,60-40E-b12-1,40E,b12
16,8220DB001584,"Abbottstown Road, stop 1584",53.38988546,-6.315085482,15487.2.60-40E-b12-1.230.I,07:34:59,07:34:59,17, Broombridge Luas,10189.71,60-40E-b12-1,40E,b12
17,8220DB001585,"Cardiffsbridge Road, stop 1585",53.38876802,-6.312333145,15487.2.60-40E-b12-1.230.I,07:35:31,07:35:31,18, Broombridge Luas,10430.55,60-40E-b12-1,40E,b12
18,8220DB001586,"Coláiste Íde, stop 1586",53.38652504,-6.312617318,15487.2.60-40E-b12-1.230.I,07:36:03,07:36:03,19, Broombridge Luas,10680.52,60-40E-b12-1,40E,b12
19,8220DB001600,"Deanstown Avenue, stop 1600",53.38359702,-6.312763184,15487.2.60-40E-b12-1.230.I,07:36:48,07:36:48,20, Broombridge Luas,11040.41,60-40E-b12-1,40E,b12
20,8220DB007701,"Rathvilly Road, stop 7701",53.38368967,-6.316141947,15487.2.60-40E-b12-1.230.I,07:37:22,07:37:22,21, Broombridge Luas,11304.36,60-40E-b12-1,40E,b12
21,8220DB007010,"Rathvilly Drive, stop 7010",53.38168278,-6.316596953,15487.2.60-40E-b12-1.230.I,07:37:58,07:37:58,22, Broombridge Luas,11590.58,60-40E-b12-1,40E,b12
22,8220DB007703,"River Road, stop 7703",53.37733191,-6.309553808,15487.2.60-40E-b12-1.230.I,07:39:28,07:39:28,23, Broombridge Luas,12297.81,60-40E-b12-1,40E,b12
23,8220DB005147,"Marian College, stop 5147",53.37182345,-6.305834409,15487.2.60-40E-b12-1.230.I,07:40:54,07:40:54,24, Broombridge Luas,13075.04,60-40E-b12-1,40E,b12
24,8220DB000068,"Ventry Drive, stop 68",53.36907751,-6.304245235,15487.2.60-40E-b12-1.230.I,07:42:07,07:42:07,25, Broombridge Luas,13532.98,60-40E-b12-1,40E,b12
25,8220DB000030,"Ventry Park, stop 30",53.3703319,-6.304601169,15487.2.60-40E-b12-1.230.I,07:42:32,07:42:32,26, Broombridge Luas,13690.78,60-40E-b12-1,40E,b12
26,8220DB000069,"Carnlough Road, stop 69",53.37139256,-6.303341717,15487.2.60-40E-b12-1.230.I,07:43:03,07:43:03,27, Broombridge Luas,13886.8,60-40E-b12-1,40E,b12
27,8220DB007686,"Broombridge, stop 7686",53.37246476,-6.299105983,15487.2.60-40E-b12-1.230.I,07:44:05,07:44:05,28, Broombridge Luas,14333.46,60-40E-b12-1,40E,b12
