Index,stop_id,stop_name,stop_lat,stop_lon,trip_id,arrival_time,departure_time,stop_sequence,stop_headsign,shape_dist_traveled,route_id,customer_route_name,project_subnet
372,8250DB004952,"UCD, stop 4952",53.30489662,-6.216937317,6454.1.60-X30-b12-1.108.O,17:25:00,17:25:00,1, Dodsboro,0.0,60-X30-b12-1,X30,b12
373,8250DB000768,"UCD Belfield, stop 768",53.30941819,-6.21877483,6454.1.60-X30-b12-1.108.O,17:27:19,17:27:19,2, Dodsboro,681.75,60-X30-b12-1,X30,b12
374,8220DB000769,"Belfield Court, stop 769",53.31190109,-6.221327857,6454.1.60-X30-b12-1.108.O,17:27:45,17:27:45,3, Dodsboro,1009.31,60-X30-b12-1,X30,b12
375,8220DB000770,"RTE, stop 770",53.31463619,-6.225731811,6454.1.60-X30-b12-1.108.O,17:28:57,17:28:57,4, Dodsboro,1452.34,60-X30-b12-1,X30,b12
376,8220DB000771,"Teresian School, stop 771",53.31588007,-6.227781522,6454.1.60-X30-b12-1.108.O,17:29:26,17:29:26,5, Dodsboro,1643.14,60-X30-b12-1,X30,b12
377,8220DB000772,"Donnybrook Garage, stop 772",53.31848526,-6.231321064,6454.1.60-X30-b12-1.108.O,17:30:26,17:30:26,6, Dodsboro,2016.7,60-X30-b12-1,X30,b12
378,8220DB000773,"Donnybrook Road, stop 773",53.31991635,-6.233273319,6454.1.60-X30-b12-1.108.O,17:31:02,17:31:02,7, Dodsboro,2220.02,60-X30-b12-1,X30,b12
379,8220DB000774,"Donnybrook Garda Stn, stop 774",53.32161212,-6.235499996,6454.1.60-X30-b12-1.108.O,17:31:48,17:31:48,8, Dodsboro,2461.9,60-X30-b12-1,X30,b12
380,8220DB000775,"Donnybrook Village, stop 775",53.32348971,-6.239085447,6454.1.60-X30-b12-1.108.O,17:32:49,17:32:49,9, Dodsboro,2785.75,60-X30-b12-1,X30,b12
381,8220DB000776,"Morehampton Terrace, stop 776",53.32547924,-6.241735821,6454.1.60-X30-b12-1.108.O,17:33:48,17:33:48,10, Dodsboro,3068.63,60-X30-b12-1,X30,b12
382,8220DB000777,"Royal Hospital, stop 777",53.32697216,-6.243626144,6454.1.60-X30-b12-1.108.O,17:34:42,17:34:42,11, Dodsboro,3276.96,60-X30-b12-1,X30,b12
383,8220DB000906,"Leeson St Upper, stop 906",53.32881077,-6.247634377,6454.1.60-X30-b12-1.108.O,17:36:13,17:36:13,12, Dodsboro,3617.68,60-X30-b12-1,X30,b12
384,8220DB000909,"Fitzwilliam Place, stop 909",53.33314766,-6.254078364,6454.1.60-X30-b12-1.108.O,17:40:09,17:40:09,13, Dodsboro,4298.27,60-X30-b12-1,X30,b12
385,8220DB000786,"Embassy of Malta, stop 786",53.33518155,-6.256097534,6454.1.60-X30-b12-1.108.O,17:41:40,17:41:40,14, Dodsboro,4559.51,60-X30-b12-1,X30,b12
386,8220DB002905,"Merrion Sq West, stop 2905",53.34002881,-6.251980091,6454.1.60-X30-b12-1.108.O,17:47:52,17:47:52,15, Dodsboro,5417.45,60-X30-b12-1,X30,b12
387,8220DB000494,"Clare Street, stop 494",53.34143558,-6.251682252,6454.1.60-X30-b12-1.108.O,17:51:59,17:51:59,16, Dodsboro,5640.0,60-X30-b12-1,X30,b12
388,8220DB007587,"Science Gallery, stop 7587",53.34445793,-6.25122816,6454.1.60-X30-b12-1.108.O,17:55:08,17:55:08,17, Dodsboro,6227.49,60-X30-b12-1,X30,b12
389,8220DB007732,"Tara Street, Stop no 7732",53.34722107,-6.255170542,6454.1.60-X30-b12-1.108.O,17:57:46,17:57:46,18, Dodsboro,6718.69,60-X30-b12-1,X30,b12
390,8220DB007392,"Aston Quay, stop 7392",53.34640871,-6.261091564,6454.1.60-X30-b12-1.108.O,18:01:17,18:01:17,19, Dodsboro,7168.42,60-X30-b12-1,X30,b12
391,8220DB000312,"Wellington Quay, stop 312",53.34547647,-6.266206155,6454.1.60-X30-b12-1.108.O,18:04:05,18:04:05,20, Dodsboro,7523.67,60-X30-b12-1,X30,b12
392,8220DB007857,"Merchant's Quay, stop 7857",53.34504365,-6.274169038,6454.1.60-X30-b12-1.108.O,18:07:58,18:07:58,21, Dodsboro,8056.72,60-X30-b12-1,X30,b12
393,8220DB007855,"Usher's Quay, stop 7855",53.34592009,-6.279465664,6454.1.60-X30-b12-1.108.O,18:10:39,18:10:39,22, Dodsboro,8420.46,60-X30-b12-1,X30,b12
394,8220DB001447,"Victoria Quay, stop 1447",53.34650253,-6.285585386,6454.1.60-X30-b12-1.108.O,18:12:15,18:12:15,23, Dodsboro,8834.95,60-X30-b12-1,X30,b12
395,8220DB002637,"Heuston Station, stop 2637",53.34584559,-6.294308178,6454.1.60-X30-b12-1.108.O,18:14:40,18:14:40,24, Dodsboro,9461.42,60-X30-b12-1,X30,b12
396,8220DB002721,"South Circular Road, stop 2721",53.34327186,-6.310511085,6454.1.60-X30-b12-1.108.O,18:18:03,18:18:03,25, Dodsboro,10595.99,60-X30-b12-1,X30,b12
397,8220DB007012,"Memorial Gardens, stop 7012",53.34295414,-6.315374679,6454.1.60-X30-b12-1.108.O,18:19:01,18:19:01,26, Dodsboro,10920.41,60-X30-b12-1,X30,b12
398,8230DB002201,"Palmerstown Drive, stop 2201",53.35327375,-6.364571165,6454.1.60-X30-b12-1.108.O,18:23:40,18:23:40,27, Dodsboro,14648.22,60-X30-b12-1,X30,b12
399,8230DB004401,"Kennelsfort Road, stop 4401",53.35475553,-6.371710305,6454.1.60-X30-b12-1.108.O,18:25:43,18:25:43,28, Dodsboro,15150.33,60-X30-b12-1,X30,b12
400,8230DB002213,"Liffey Valley SC, stop 2213",53.35577765,-6.392072623,6454.1.60-X30-b12-1.108.O,18:27:59,18:27:59,29, Dodsboro,16565.04,60-X30-b12-1,X30,b12
401,8230DB002214,"Clayton Hotel, stop 2214",53.35609004,-6.399932976,6454.1.60-X30-b12-1.108.O,18:28:50,18:28:50,30, Dodsboro,17095.9,60-X30-b12-1,X30,b12
402,8230DB002215,"St Loman's Hospital, stop 2215",53.35820623,-6.408973166,6454.1.60-X30-b12-1.108.O,18:30:06,18:30:06,31, Dodsboro,17740.48,60-X30-b12-1,X30,b12
403,8230DB002216,"Ballyowen Lane, stop 2216",53.35886528,-6.415949824,6454.1.60-X30-b12-1.108.O,18:31:28,18:31:28,32, Dodsboro,18214.33,60-X30-b12-1,X30,b12
404,8230DB002217,"Esker Lane, stop 2217",53.3595962,-6.427040693,6454.1.60-X30-b12-1.108.O,18:34:12,18:34:12,33, Dodsboro,19175.97,60-X30-b12-1,X30,b12
405,8230DB002218,"Roselawn, stop 2218",53.35967652,-6.43246151,6454.1.60-X30-b12-1.108.O,18:35:41,18:35:41,34, Dodsboro,19535.74,60-X30-b12-1,X30,b12
406,8230DB002219,"St Andrews NS, stop 2219",53.36005568,-6.436699507,6454.1.60-X30-b12-1.108.O,18:36:42,18:36:42,35, Dodsboro,19820.34,60-X30-b12-1,X30,b12
407,8230DB003365,"St Mary's Church, stop 3365",53.3596569,-6.439193112,6454.1.60-X30-b12-1.108.O,18:37:20,18:37:20,36, Dodsboro,19995.48,60-X30-b12-1,X30,b12
408,8230DB003366,"Lucan Heights, stop 3366",53.35817573,-6.44139564,6454.1.60-X30-b12-1.108.O,18:38:08,18:38:08,37, Dodsboro,20219.05,60-X30-b12-1,X30,b12
409,8230DB003367,"Lucan Village, stop 3367",53.35642918,-6.448760619,6454.1.60-X30-b12-1.108.O,18:41:08,18:41:08,38, Dodsboro,20764.8,60-X30-b12-1,X30,b12
410,8230DB003886,"Primrose Lane, stop 3886",53.35569042,-6.454165634,6454.1.60-X30-b12-1.108.O,18:42:29,18:42:29,39, Dodsboro,21136.9,60-X30-b12-1,X30,b12
411,8230DB003887,"Ardeevin Avenue, stop 3887",53.3552288,-6.458779283,6454.1.60-X30-b12-1.108.O,18:43:38,18:43:38,40, Dodsboro,21450.31,60-X30-b12-1,X30,b12
412,8230DB007810,"Woodview Heights, stop 7810",53.35174307,-6.46308101,6454.1.60-X30-b12-1.108.O,18:46:13,18:46:13,41, Dodsboro,22150.46,60-X30-b12-1,X30,b12
413,8230DB007801,"The Paddocks Drive, stop 7801",53.34902411,-6.464816057,6454.1.60-X30-b12-1.108.O,18:47:26,18:47:26,42, Dodsboro,22479.98,60-X30-b12-1,X30,b12
414,8230DB007895,"Shackleton Drive, stop 7895",53.34697163,-6.468058976,6454.1.60-X30-b12-1.108.O,18:47:48,18:47:48,43, Dodsboro,22846.22,60-X30-b12-1,X30,b12
415,8230DB007894,"Shackleton Park, stop 7894",53.34624533,-6.47310153,6454.1.60-X30-b12-1.108.O,18:48:12,18:48:12,44, Dodsboro,26529.28,60-X30-b12-1,X30,b12
416,8230DB007898,"Adamstown Avenue, stop 7898",53.3382093,-6.468823567,6454.1.60-X30-b12-1.108.O,18:49:17,18:49:17,45, Dodsboro,31676.43,60-X30-b12-1,X30,b12
417,8230DB006289,"Adamstown Station, stop 6289",53.33626245,-6.468397781,6454.1.60-X30-b12-1.108.O,18:49:48,18:49:48,46, Dodsboro,32131.65,60-X30-b12-1,X30,b12
