Index,stop_id,stop_name,stop_lat,stop_lon,trip_id,arrival_time,departure_time,stop_sequence,stop_headsign,shape_dist_traveled,route_id,customer_route_name,project_subnet
0,8240DB007158,"Delhurst, stop 7158",53.39191955,-6.43822334,11075.3.60-39-b12-1.211.I,06:17:00,06:17:00,1, Burlington Road,0.0,60-39-b12-1,39,b12
1,8240DB007048,"Barnwell Green, stop 7048",53.39301156,-6.442694165,11075.3.60-39-b12-1.211.I,06:17:35,06:17:35,2, Burlington Road,346.06,60-39-b12-1,39,b12
2,8240DB007699,"Blackwood Park, stop 7699",53.39497415,-6.444321655,11075.3.60-39-b12-1.211.I,06:18:11,06:18:11,3, Burlington Road,708.05,60-39-b12-1,39,b12
3,8240DB007159,"Ongar Square, stop 7159",53.39659834,-6.442743644,11075.3.60-39-b12-1.211.I,06:18:33,06:18:33,4, Burlington Road,922.96,60-39-b12-1,39,b12
4,8240DB007388,"Linnetfields, stop 7388",53.39795854,-6.442287956,11075.3.60-39-b12-1.211.I,06:18:48,06:18:48,5, Burlington Road,1078.33,60-39-b12-1,39,b12
5,8240DB007017,"Phibblestown Road, stop 7017",53.40187634,-6.435347136,11075.3.60-39-b12-1.211.I,06:20:34,06:20:34,6, Burlington Road,1872.21,60-39-b12-1,39,b12
6,8240DB007018,"Castlegrange Row, stop 7018",53.3988068,-6.431564896,11075.3.60-39-b12-1.211.I,06:21:33,06:21:33,7, Burlington Road,2309.29,60-39-b12-1,39,b12
7,8240DB007030,"Ravenwood Road, stop 7030",53.39589929,-6.42917567,11075.3.60-39-b12-1.211.I,06:22:29,06:22:29,8, Burlington Road,2735.14,60-39-b12-1,39,b12
8,8240DB007021,"Manorfields Drive, stop 7021",53.39405503,-6.431093071,11075.3.60-39-b12-1.211.I,06:23:02,06:23:02,9, Burlington Road,2979.11,60-39-b12-1,39,b12
9,8240DB007163,"Allendale Square, stop 7163",53.3890226,-6.430466285,11075.3.60-39-b12-1.211.I,06:24:34,06:24:34,10, Burlington Road,3664.7,60-39-b12-1,39,b12
10,8240DB001893,"St Joseph's Hospital, stop 1893",53.38694047,-6.428648612,11075.3.60-39-b12-1.211.I,06:25:10,06:25:10,11, Burlington Road,3945.57,60-39-b12-1,39,b12
11,8240DB001894,"Clonsilla Train Stn, stop 1894",53.38359077,-6.423405287,11075.3.60-39-b12-1.211.I,06:26:31,06:26:31,12, Burlington Road,4560.22,60-39-b12-1,39,b12
12,8240DB001912,"Clonsilla Station, stop 1912",53.38366981,-6.42054614,11075.3.60-39-b12-1.211.I,06:26:57,06:26:57,13, Burlington Road,4763.29,60-39-b12-1,39,b12
13,8240DB001895,"Clonsilla Road, stop 1895",53.38352601,-6.417154066,11075.3.60-39-b12-1.211.I,06:27:30,06:27:30,14, Burlington Road,4988.94,60-39-b12-1,39,b12
14,8240DB001896,"Lambourn, stop 1896",53.38335556,-6.413793069,11075.3.60-39-b12-1.211.I,06:28:03,06:28:03,15, Burlington Road,5212.54,60-39-b12-1,39,b12
15,8240DB001897,"Castlefield Woods, stop 1897",53.38311196,-6.410344628,11075.3.60-39-b12-1.211.I,06:28:37,06:28:37,16, Burlington Road,5442.35,60-39-b12-1,39,b12
16,8240DB006088,"Shelerin Road, stop 6088",53.38363955,-6.409468102,11075.3.60-39-b12-1.211.I,06:28:57,06:28:57,17, Burlington Road,5578.4,60-39-b12-1,39,b12
17,8240DB001898,"Lohunda Crescent, stop 1898",53.38759805,-6.409756516,11075.3.60-39-b12-1.211.I,06:30:02,06:30:02,18, Burlington Road,6024.64,60-39-b12-1,39,b12
18,8240DB001858,"Hartstown Road, stop 1858",53.39088162,-6.41065651,11075.3.60-39-b12-1.211.I,06:31:22,06:31:22,19, Burlington Road,6569.22,60-39-b12-1,39,b12
19,8240DB001859,"Willow Wood, stop 1859",53.39103578,-6.415492162,11075.3.60-39-b12-1.211.I,06:32:14,06:32:14,20, Burlington Road,6893.28,60-39-b12-1,39,b12
20,8240DB001860,"St Ciaran's Church, stop 1860",53.39329913,-6.41876115,11075.3.60-39-b12-1.211.I,06:33:14,06:33:14,21, Burlington Road,7260.07,60-39-b12-1,39,b12
21,8240DB004492,"Cherryfield Park, stop 4492",53.39499841,-6.418126754,11075.3.60-39-b12-1.211.I,06:33:45,06:33:45,22, Burlington Road,7451.52,60-39-b12-1,39,b12
22,8240DB001861,"Hartstown Comm School, stop 1861",53.39674962,-6.416663322,11075.3.60-39-b12-1.211.I,06:34:18,06:34:18,23, Burlington Road,7669.26,60-39-b12-1,39,b12
23,8240DB001862,"Pinebrook Vale, stop 1862",53.39861599,-6.415075183,11075.3.60-39-b12-1.211.I,06:34:58,06:34:58,24, Burlington Road,7919.76,60-39-b12-1,39,b12
24,8240DB001863,"Huntstown Green, stop 1863",53.40061529,-6.413346609,11075.3.60-39-b12-1.211.I,06:35:37,06:35:37,25, Burlington Road,8169.13,60-39-b12-1,39,b12
25,8240DB001864,"Sacred Heart Church, stop 1864",53.40181601,-6.410369287,11075.3.60-39-b12-1.211.I,06:36:13,06:36:13,26, Burlington Road,8408.55,60-39-b12-1,39,b12
26,8240DB001865,"Ashfield Gardens, stop 1865",53.40104463,-6.406442806,11075.3.60-39-b12-1.211.I,06:36:58,06:36:58,27, Burlington Road,8697.66,60-39-b12-1,39,b12
27,8240DB001866,"Ashfield Park, stop 1866",53.39989965,-6.402816192,11075.3.60-39-b12-1.211.I,06:37:43,06:37:43,28, Burlington Road,8973.7,60-39-b12-1,39,b12
28,8240DB001850,"Whitestown Park, stop 1850",53.39774762,-6.399167421,11075.3.60-39-b12-1.211.I,06:38:37,06:38:37,29, Burlington Road,9332.08,60-39-b12-1,39,b12
29,8240DB001867,"Whitestown, stop 1867",53.39580791,-6.39996201,11075.3.60-39-b12-1.211.I,06:39:12,06:39:12,30, Burlington Road,9554.39,60-39-b12-1,39,b12
30,8240DB004489,"Sheepmoor Grove, stop 4489",53.39441581,-6.399367661,11075.3.60-39-b12-1.211.I,06:39:39,06:39:39,31, Burlington Road,9719.85,60-39-b12-1,39,b12
31,8240DB004747,"Blanchardstown SC, stop 4747",53.39433278,-6.391852482,11075.3.60-39-b12-1.211.I,06:41:22,06:41:22,32, Burlington Road,10350.34,60-39-b12-1,39,b12
32,8240DB001882,"Millennium Park, stop 1882",53.39277258,-6.398812848,11075.3.60-39-b12-1.211.I,06:43:50,06:43:50,33, Burlington Road,10957.57,60-39-b12-1,39,b12
33,8240DB007379,"Mountview Road, stop 7379",53.38974838,-6.400505036,11075.3.60-39-b12-1.211.I,06:44:46,06:44:46,34, Burlington Road,11314.69,60-39-b12-1,39,b12
34,8240DB004903,"Lohunda Road, stop 4903",53.38666401,-6.401733181,11075.3.60-39-b12-1.211.I,06:45:41,06:45:41,35, Burlington Road,11669.78,60-39-b12-1,39,b12
35,8240DB001883,"Scoil Oilibheir, stop 1883",53.38574489,-6.398204661,11075.3.60-39-b12-1.211.I,06:46:37,06:46:37,36, Burlington Road,12034.37,60-39-b12-1,39,b12
36,8240DB001884,"Porters Road, stop 1884",53.38553496,-6.39595752,11075.3.60-39-b12-1.211.I,06:47:07,06:47:07,37, Burlington Road,12224.13,60-39-b12-1,39,b12
37,8240DB001902,"Orchard Court, stop 1902",53.38353726,-6.392439786,11075.3.60-39-b12-1.211.I,06:48:17,06:48:17,38, Burlington Road,12684.07,60-39-b12-1,39,b12
38,8240DB001903,"Broadway Road, stop 1903",53.38524989,-6.387474369,11075.3.60-39-b12-1.211.I,06:49:17,06:49:17,39, Burlington Road,13067.01,60-39-b12-1,39,b12
39,8240DB001904,"Springlawn, stop 1904",53.38784162,-6.383061557,11075.3.60-39-b12-1.211.I,06:50:23,06:50:23,40, Burlington Road,13482.99,60-39-b12-1,39,b12
40,8240DB001840,"Blanchardstown Vlge, stop 1840",53.38796115,-6.379283399,11075.3.60-39-b12-1.211.I,06:51:21,06:51:21,41, Burlington Road,13861.04,60-39-b12-1,39,b12
41,8240DB001841,"Church Road, stop 1841",53.3861214,-6.375519687,11075.3.60-39-b12-1.211.I,06:52:07,06:52:07,42, Burlington Road,14187.23,60-39-b12-1,39,b12
42,8240DB001842,"Old Navan Road, stop 1842",53.3849679,-6.37133924,11075.3.60-39-b12-1.211.I,06:52:50,06:52:50,43, Burlington Road,14494.87,60-39-b12-1,39,b12
43,8240DB007374,"Connolly Hospital, stop 7374",53.38398578,-6.365243265,11075.3.60-39-b12-1.211.I,06:54:06,06:54:06,44, Burlington Road,14981.83,60-39-b12-1,39,b12
44,8240DB001845,"Morgan Place, stop 1845",53.37902299,-6.352716929,11075.3.60-39-b12-1.211.I,06:56:32,06:56:32,45, Burlington Road,16023.49,60-39-b12-1,39,b12
45,8240DB007166,"Parkway Station, stop 7166",53.3770936,-6.345787136,11075.3.60-39-b12-1.211.I,06:57:08,06:57:08,46, Burlington Road,16534.54,60-39-b12-1,39,b12
46,8220DB001847,"Old Racecourse, stop 1847",53.37290201,-6.333926261,11075.3.60-39-b12-1.211.I,06:58:04,06:58:04,47, Burlington Road,17448.33,60-39-b12-1,39,b12
47,8220DB001696,"Ashtown Roundabout, stop 1696",53.37154152,-6.329831443,11075.3.60-39-b12-1.211.I,06:58:37,06:58:37,48, Burlington Road,17771.07,60-39-b12-1,39,b12
48,8220DB001697,"Kempton, stop 1697",53.37080115,-6.327666259,11075.3.60-39-b12-1.211.I,06:58:51,06:58:51,49, Burlington Road,17936.16,60-39-b12-1,39,b12
49,8220DB001698,"Ashtown Grove, stop 1698",53.3695773,-6.323716751,11075.3.60-39-b12-1.211.I,06:59:15,06:59:15,50, Burlington Road,18231.9,60-39-b12-1,39,b12
50,8220DB001699,"Baggot Road, stop 1699",53.36874361,-6.321314995,11075.3.60-39-b12-1.211.I,06:59:43,06:59:43,51, Burlington Road,18416.12,60-39-b12-1,39,b12
51,8220DB001700,"Baggot Road, stop 1700",53.36770883,-6.317403485,11075.3.60-39-b12-1.211.I,07:00:26,07:00:26,52, Burlington Road,18701.64,60-39-b12-1,39,b12
52,8220DB001701,"Our Lady's Church, stop 1701",53.36656726,-6.312940383,11075.3.60-39-b12-1.211.I,07:01:04,07:01:04,53, Burlington Road,19022.23,60-39-b12-1,39,b12
53,8220DB001702,"Navan Road Church, stop 1702",53.36561083,-6.310138139,11075.3.60-39-b12-1.211.I,07:01:31,07:01:31,54, Burlington Road,19237.25,60-39-b12-1,39,b12
54,8220DB001703,"Cabra Garda Station, stop 1703",53.3647354,-6.307347834,11075.3.60-39-b12-1.211.I,07:02:06,07:02:06,55, Burlington Road,19447.46,60-39-b12-1,39,b12
55,8220DB001905,"Skreen Road, stop 1905",53.36331755,-6.303076594,11075.3.60-39-b12-1.211.I,07:02:59,07:02:59,56, Burlington Road,19770.86,60-39-b12-1,39,b12
56,8220DB001906,"Old Cabra Road, stop 1906",53.36120076,-6.297075539,11075.3.60-39-b12-1.211.I,07:04:09,07:04:09,57, Burlington Road,20241.41,60-39-b12-1,39,b12
57,8220DB001907,"Glenbeigh Road, stop 1907",53.35990495,-6.293821785,11075.3.60-39-b12-1.211.I,07:04:35,07:04:35,58, Burlington Road,20499.73,60-39-b12-1,39,b12
58,8220DB001908,"Cabra Drive, stop 1908",53.3586908,-6.291256073,11075.3.60-39-b12-1.211.I,07:05:20,07:05:20,59, Burlington Road,20717.7,60-39-b12-1,39,b12
59,8220DB001909,"Prussia Street, stop 1909",53.35696026,-6.288410723,11075.3.60-39-b12-1.211.I,07:06:16,07:06:16,60, Burlington Road,20986.52,60-39-b12-1,39,b12
60,8220DB001713,"Manor Street, stop 1713",53.35190782,-6.283325473,11075.3.60-39-b12-1.211.I,07:07:14,07:07:14,61, Burlington Road,21650.68,60-39-b12-1,39,b12
61,8220DB001714,"Stoneybatter, stop 1714",53.35063781,-6.281889388,11075.3.60-39-b12-1.211.I,07:07:55,07:07:55,62, Burlington Road,21822.12,60-39-b12-1,39,b12
62,8220DB001715,"Blackhall Place, stop 1715",53.34771198,-6.2821873,11075.3.60-39-b12-1.211.I,07:09:14,07:09:14,63, Burlington Road,22147.4,60-39-b12-1,39,b12
63,8220DB007453,"Arran Quay, stop 7453",53.34633589,-6.278382504,11075.3.60-39-b12-1.211.I,07:10:46,07:10:46,64, Burlington Road,22524.85,60-39-b12-1,39,b12
64,8220DB001478,"Four Courts, stop 1478",53.3456082,-6.272809481,11075.3.60-39-b12-1.211.I,07:12:34,07:12:34,65, Burlington Road,22907.42,60-39-b12-1,39,b12
65,8220DB001479,"Ormond Quay, stop 1479",53.34598809,-6.268633628,11075.3.60-39-b12-1.211.I,07:13:58,07:13:58,66, Burlington Road,23190.57,60-39-b12-1,39,b12
66,8220DB000315,"Bachelors Walk, stop 315",53.34702829,-6.261667155,11075.3.60-39-b12-1.211.I,07:16:18,07:16:18,67, Burlington Road,23671.02,60-39-b12-1,39,b12
67,8220DB000335,"D'Olier Street, stop 335",53.34636141,-6.25784917,11075.3.60-39-b12-1.211.I,07:18:11,07:18:11,69, Burlington Road,23969.02,60-39-b12-1,39,b12
68,8220DB000404,"Nassau Street, stop 404",53.34266333,-6.256347892,11075.3.60-39-b12-1.211.I,07:20:52,07:20:52,71, Burlington Road,24596.39,60-39-b12-1,39,b12
69,8220DB000747,"Kildare Street, stop 747",53.3399308,-6.255723519,11075.3.60-39-b12-1.211.I,07:22:06,07:22:06,72, Burlington Road,24986.52,60-39-b12-1,39,b12
70,8220DB000748,"Huguenot Cemetery, stop 748",53.33850953,-6.255030666,11075.3.60-39-b12-1.211.I,07:22:44,07:22:44,73, Burlington Road,25230.35,60-39-b12-1,39,b12
71,8220DB000749,"Baggot St Lower, stop 749",53.3376207,-6.250802147,11075.3.60-39-b12-1.211.I,07:23:31,07:23:31,74, Burlington Road,25528.33,60-39-b12-1,39,b12
72,8220DB000750,"Fitzwilliam Street, stop 750",53.33657108,-6.248487503,11075.3.60-39-b12-1.211.I,07:24:04,07:24:04,75, Burlington Road,25719.64,60-39-b12-1,39,b12
73,8220DB000751,"Herbert Street, stop 751",53.33532055,-6.246571636,11075.3.60-39-b12-1.211.I,07:24:37,07:24:37,76, Burlington Road,25906.72,60-39-b12-1,39,b12
74,8220DB000752,"Baggot St Upper, stop 752",53.33367165,-6.24446202,11075.3.60-39-b12-1.211.I,07:25:18,07:25:18,77, Burlington Road,26140.99,60-39-b12-1,39,b12
75,8220DB000753,"Waterloo Road, stop 753",53.33245339,-6.243521055,11075.3.60-39-b12-1.211.I,07:25:51,07:25:51,78, Burlington Road,26319.73,60-39-b12-1,39,b12
76,8220DB007339,"Burlington Road, stop 7339",53.33240794,-6.246540962,11075.3.60-39-b12-1.211.I,07:27:02,07:27:02,79, Burlington Road,26680.66,60-39-b12-1,39,b12
