Index,stop_id,stop_name,stop_lat,stop_lon,trip_id,arrival_time,departure_time,stop_sequence,stop_headsign,shape_dist_traveled,route_id,customer_route_name,project_subnet
174,8230DB002353,"Fortunestown Road, stop 2353",53.27915053,-6.401758972,15184.2.60-27-b12-1.170.I,09:40:00,09:40:00,1, Clare Hall,0.0,60-27-b12-1,27,b12
175,8230DB004643,"Jobstown Road, stop 4643",53.28082042,-6.403631229,15184.2.60-27-b12-1.170.I,09:40:57,09:40:57,2, Clare Hall,349.74,60-27-b12-1,27,b12
176,8230DB004644,"Russell Lane, stop 4644",53.28367573,-6.402744914,15184.2.60-27-b12-1.170.I,09:42:04,09:42:04,3, Clare Hall,756.48,60-27-b12-1,27,b12
177,8230DB004645,"Swiftbrook Avenue, stop 4645",53.28486097,-6.406015283,15184.2.60-27-b12-1.170.I,09:42:47,09:42:47,4, Clare Hall,1010.77,60-27-b12-1,27,b12
178,8230DB004440,"Brookview Road, stop 4440",53.28642954,-6.407036795,15184.2.60-27-b12-1.170.I,09:43:31,09:43:31,5, Clare Hall,1283.43,60-27-b12-1,27,b12
179,8230DB002628,"Brookfield Road, stop 2628",53.28887111,-6.404111054,15184.2.60-27-b12-1.170.I,09:44:27,09:44:27,6, Clare Hall,1617.62,60-27-b12-1,27,b12
180,8230DB002629,"Fettercairn Crescent, stop 2629",53.28820444,-6.398631171,15184.2.60-27-b12-1.170.I,09:45:44,09:45:44,7, Clare Hall,2081.19,60-27-b12-1,27,b12
181,8230DB006095,"Glenshane, stop 6095",53.2867624,-6.396330294,15184.2.60-27-b12-1.170.I,09:46:20,09:46:20,8, Clare Hall,2302.82,60-27-b12-1,27,b12
182,8230DB007062,"Whitebrook, stop 7062",53.28480977,-6.39349379,15184.2.60-27-b12-1.170.I,09:47:07,09:47:07,9, Clare Hall,2590.62,60-27-b12-1,27,b12
183,8230DB006075,"Whitebrook Park, stop 6075",53.28322944,-6.390943502,15184.2.60-27-b12-1.170.I,09:47:47,09:47:47,10, Clare Hall,2835.62,60-27-b12-1,27,b12
184,8230DB002631,"Raheen Drive, stop 2631",53.28219617,-6.3889727,15184.2.60-27-b12-1.170.I,09:48:16,09:48:16,11, Clare Hall,3010.23,60-27-b12-1,27,b12
185,8230DB002359,"Maplewood Avenue, stop 2359",53.28359003,-6.384375966,15184.2.60-27-b12-1.170.I,09:49:23,09:49:23,12, Clare Hall,3413.96,60-27-b12-1,27,b12
186,8230DB002360,"Alderwood, stop 2360",53.28469482,-6.37968488,15184.2.60-27-b12-1.170.I,09:50:48,09:50:48,13, Clare Hall,3779.07,60-27-b12-1,27,b12
187,8230DB004348,"Tallaght Luas, stop 4348",53.28667204,-6.375050431,15184.2.60-27-b12-1.170.I,09:52:25,09:52:25,14, Clare Hall,4197.87,60-27-b12-1,27,b12
188,8230DB004646,"Tallaght Hospital, stop 4646",53.28943871,-6.37427044,15184.2.60-27-b12-1.170.I,09:53:41,09:53:41,15, Clare Hall,4614.95,60-27-b12-1,27,b12
189,8230DB004647,"South Dublin CC, stop 4647",53.29005747,-6.371531949,15184.2.60-27-b12-1.170.I,09:54:17,09:54:17,16, Clare Hall,4810.34,60-27-b12-1,27,b12
190,8230DB002346,"Belgard Square North, stop 2346",53.29007974,-6.367901104,15184.2.60-27-b12-1.170.I,09:55:17,09:55:17,17, Clare Hall,5140.04,60-27-b12-1,27,b12
191,8230DB004435,"Tallaght Village, stop 4435",53.28884292,-6.363568377,15184.2.60-27-b12-1.170.I,09:56:36,09:56:36,18, Clare Hall,5576.57,60-27-b12-1,27,b12
192,8230DB002632,"Greenhills Road, stop 2632",53.28912228,-6.357737825,15184.2.60-27-b12-1.170.I,09:58:22,09:58:22,19, Clare Hall,6146.94,60-27-b12-1,27,b12
193,8230DB002633,"Airton Road, stop 2633",53.29409118,-6.355672026,15184.2.60-27-b12-1.170.I,10:00:07,10:00:07,20, Clare Hall,6732.13,60-27-b12-1,27,b12
194,8230DB002369,"Birchview Avenue, stop 2369",53.29858218,-6.354149222,15184.2.60-27-b12-1.170.I,10:01:27,10:01:27,21, Clare Hall,7246.48,60-27-b12-1,27,b12
195,8230DB002370,"Park View, stop 2370",53.30086761,-6.353026068,15184.2.60-27-b12-1.170.I,10:02:08,10:02:08,22, Clare Hall,7515.27,60-27-b12-1,27,b12
196,8230DB002371,"Kilnamanagh SC, stop 2371",53.3033969,-6.351338226,15184.2.60-27-b12-1.170.I,10:02:55,10:02:55,23, Clare Hall,7828.16,60-27-b12-1,27,b12
197,8230DB002372,"Old Tymon Lane, stop 2372",53.30725688,-6.347738103,15184.2.60-27-b12-1.170.I,10:03:38,10:03:38,24, Clare Hall,8319.95,60-27-b12-1,27,b12
198,8230DB002373,"Kilakee Drive, stop 2373",53.31071163,-6.344738289,15184.2.60-27-b12-1.170.I,10:04:16,10:04:16,25, Clare Hall,8763.04,60-27-b12-1,27,b12
199,8230DB002377,"Greenhills SC, stop 2377",53.31604708,-6.334160486,15184.2.60-27-b12-1.170.I,10:05:43,10:05:43,26, Clare Hall,9710.88,60-27-b12-1,27,b12
200,8220DB002378,"Walkinstown Road, stop 2378",53.31814782,-6.332697752,15184.2.60-27-b12-1.170.I,10:06:36,10:06:36,27, Clare Hall,9972.81,60-27-b12-1,27,b12
201,8220DB002183,"Walkinstown Shop Cen, stop 2183",53.32170398,-6.330547609,15184.2.60-27-b12-1.170.I,10:07:59,10:07:59,28, Clare Hall,10392.84,60-27-b12-1,27,b12
202,8220DB002184,"Drimnagh Road Junc, stop 2184",53.32299661,-6.329146097,15184.2.60-27-b12-1.170.I,10:08:32,10:08:32,29, Clare Hall,10563.27,60-27-b12-1,27,b12
203,8220DB002185,"Slievebloom Road, stop 2185",53.3242587,-6.327490489,15184.2.60-27-b12-1.170.I,10:09:08,10:09:08,30, Clare Hall,10753.03,60-27-b12-1,27,b12
204,8220DB007043,"St Mary's Road, stop 7043",53.32506078,-6.318691894,15184.2.60-27-b12-1.170.I,10:10:53,10:10:53,31, Clare Hall,11345.26,60-27-b12-1,27,b12
205,8220DB001424,"Crumlin Hospital, stop 1424",53.32566251,-6.316746622,15184.2.60-27-b12-1.170.I,10:11:21,10:11:21,32, Clare Hall,11496.7,60-27-b12-1,27,b12
206,8220DB002186,"Crumlin Road, stop 2186",53.32693328,-6.31253798,15184.2.60-27-b12-1.170.I,10:12:08,10:12:08,33, Clare Hall,11811.45,60-27-b12-1,27,b12
207,8220DB002187,"Iveagh Grounds, stop 2187",53.32804528,-6.307284425,15184.2.60-27-b12-1.170.I,10:13:06,10:13:06,34, Clare Hall,12181.02,60-27-b12-1,27,b12
208,8220DB002188,"Crumlin College, stop 2188",53.32901692,-6.302921981,15184.2.60-27-b12-1.170.I,10:14:01,10:14:01,35, Clare Hall,12490.41,60-27-b12-1,27,b12
209,8220DB002189,"Crumlin SC, stop 2189",53.3296954,-6.300072408,15184.2.60-27-b12-1.170.I,10:14:37,10:14:37,36, Clare Hall,12694.07,60-27-b12-1,27,b12
210,8220DB001436,"Herberton Road, stop 1436",53.33088496,-6.29651172,15184.2.60-27-b12-1.170.I,10:15:26,10:15:26,37, Clare Hall,12968.84,60-27-b12-1,27,b12
211,8220DB003952,"Rutland Avenue, stop 3952",53.33168395,-6.294557992,15184.2.60-27-b12-1.170.I,10:16:12,10:16:12,38, Clare Hall,13125.73,60-27-b12-1,27,b12
212,8220DB002190,"Dolphin's Barn, stop 2190",53.33277057,-6.292607716,15184.2.60-27-b12-1.170.I,10:17:04,10:17:04,39, Clare Hall,13306.17,60-27-b12-1,27,b12
213,8220DB004434,"Coombe Hospital, stop 4434",53.33586838,-6.289255479,15184.2.60-27-b12-1.170.I,10:18:31,10:18:31,40, Clare Hall,13742.17,60-27-b12-1,27,b12
214,8220DB002379,"Marion Villas, stop 2379",53.33783344,-6.284641707,15184.2.60-27-b12-1.170.I,10:20:12,10:20:12,41, Clare Hall,14136.51,60-27-b12-1,27,b12
215,8220DB002380,"Ardee Street, stop 2380",53.33850607,-6.280169624,15184.2.60-27-b12-1.170.I,10:21:03,10:21:03,42, Clare Hall,14445.77,60-27-b12-1,27,b12
216,8220DB002382,"St Luke's Avenue, stop 2382",53.33885781,-6.278383426,15184.2.60-27-b12-1.170.I,10:21:39,10:21:39,43, Clare Hall,14568.89,60-27-b12-1,27,b12
217,8220DB005099,"Newmarket Street, stop 5099",53.33898244,-6.275810437,15184.2.60-27-b12-1.170.I,10:22:29,10:22:29,44, Clare Hall,14741.26,60-27-b12-1,27,b12
218,8220DB002383,"Patrick's Cathedral, stop 2383",53.33945807,-6.272652583,15184.2.60-27-b12-1.170.I,10:23:46,10:23:46,45, Clare Hall,15034.88,60-27-b12-1,27,b12
219,8220DB002002,"Lord Edward Street, stop 2002",53.34377081,-6.26944439,15184.2.60-27-b12-1.170.I,10:26:37,10:26:37,46, Clare Hall,15626.63,60-27-b12-1,27,b12
220,8220DB001358,"Dame Street, stop 1358",53.34430471,-6.262889389,15184.2.60-27-b12-1.170.I,10:29:35,10:29:35,47, Clare Hall,16067.81,60-27-b12-1,27,b12
221,8220DB000298,"Eden Quay, stop 298",53.34820066,-6.256392268,15184.2.60-27-b12-1.170.I,10:34:45,10:34:45,48, Clare Hall,16843.87,60-27-b12-1,27,b12
222,8220DB000496,"Bus√°ras, stop 496",53.34949688,-6.252223579,15184.2.60-27-b12-1.170.I,10:36:07,10:36:07,49, Clare Hall,17201.02,60-27-b12-1,27,b12
223,8220DB000497,"Connolly, stop 497",53.35052608,-6.250694343,15184.2.60-27-b12-1.170.I,10:36:46,10:36:46,51, Clare Hall,17382.17,60-27-b12-1,27,b12
224,8220DB000515,"Portland Row, stop 515",53.35353487,-6.248092401,15184.2.60-27-b12-1.170.I,10:38:08,10:38:08,52, Clare Hall,17759.58,60-27-b12-1,27,b12
225,8220DB000516,"North Strand Road, stop 516",53.35568392,-6.245705684,15184.2.60-27-b12-1.170.I,10:39:11,10:39:11,53, Clare Hall,18044.26,60-27-b12-1,27,b12
226,8220DB004384,"Bayview Avenue, stop 4384",53.35768013,-6.242709027,15184.2.60-27-b12-1.170.I,10:40:03,10:40:03,54, Clare Hall,18343.3,60-27-b12-1,27,b12
227,8220DB000519,"North Strand Fire Station, stop 519",53.36033876,-6.239534529,15184.2.60-27-b12-1.170.I,10:41:06,10:41:06,55, Clare Hall,18709.53,60-27-b12-1,27,b12
228,8220DB000521,"Annesley Bridge, stop 521",53.36163705,-6.237978461,15184.2.60-27-b12-1.170.I,10:41:43,10:41:43,56, Clare Hall,18886.06,60-27-b12-1,27,b12
229,8220DB000522,"Fairview, stop 522",53.36328895,-6.235415975,15184.2.60-27-b12-1.170.I,10:42:35,10:42:35,57, Clare Hall,19138.03,60-27-b12-1,27,b12
230,8220DB000523,"Marino College, stop 523",53.36428545,-6.231693332,15184.2.60-27-b12-1.170.I,10:43:27,10:43:27,59, Clare Hall,19427.69,60-27-b12-1,27,b12
231,8220DB000669,"Malahide Road, stop 669",53.366317,-6.228678905,15184.2.60-27-b12-1.170.I,10:44:28,10:44:28,60, Clare Hall,19788.3,60-27-b12-1,27,b12
232,8220DB000670,"Mount Temple School, stop 670",53.36895611,-6.226029664,15184.2.60-27-b12-1.170.I,10:45:28,10:45:28,61, Clare Hall,20131.1,60-27-b12-1,27,b12
233,8220DB000671,"Nazareth House, stop 671",53.37071684,-6.224153053,15184.2.60-27-b12-1.170.I,10:46:03,10:46:03,62, Clare Hall,20363.69,60-27-b12-1,27,b12
234,8220DB000672,"Donnycarney Road, stop 672",53.37346635,-6.221077821,15184.2.60-27-b12-1.170.I,10:46:58,10:46:58,63, Clare Hall,20732.62,60-27-b12-1,27,b12
235,8220DB004382,"Donnycarney Church, stop 4382",53.37496447,-6.219677694,15184.2.60-27-b12-1.170.I,10:47:25,10:47:25,64, Clare Hall,20955.76,60-27-b12-1,27,b12
236,8220DB001196,"Elm Mount Road, stop 1196",53.37778751,-6.214915296,15184.2.60-27-b12-1.170.I,10:48:31,10:48:31,65, Clare Hall,21471.02,60-27-b12-1,27,b12
237,8220DB001197,"Killester Avenue, stop 1197",53.37923228,-6.211758333,15184.2.60-27-b12-1.170.I,10:49:10,10:49:10,66, Clare Hall,21735.14,60-27-b12-1,27,b12
238,8220DB001198,"Mornington Grove, stop 1198",53.3825122,-6.206915591,15184.2.60-27-b12-1.170.I,10:50:26,10:50:26,67, Clare Hall,22222.08,60-27-b12-1,27,b12
239,8220DB001199,"Mask Avenue, stop 1199",53.38498446,-6.202767614,15184.2.60-27-b12-1.170.I,10:51:27,10:51:27,68, Clare Hall,22639.81,60-27-b12-1,27,b12
240,8220DB001200,"Coolock Village, stop 1200",53.38696265,-6.201030489,15184.2.60-27-b12-1.170.I,10:52:03,10:52:03,69, Clare Hall,22886.06,60-27-b12-1,27,b12
241,8220DB004385,"Coolock Village, stop 4385",53.38853138,-6.19896468,15184.2.60-27-b12-1.170.I,10:52:45,10:52:45,70, Clare Hall,23109.01,60-27-b12-1,27,b12
242,8220DB001201,"Brookville Crescent, stop 1201",53.39078981,-6.196147843,15184.2.60-27-b12-1.170.I,10:53:48,10:53:48,71, Clare Hall,23423.31,60-27-b12-1,27,b12
243,8220DB004695,"Greencastle Road, stop 4695",53.39298308,-6.197348227,15184.2.60-27-b12-1.170.I,10:54:50,10:54:50,72, Clare Hall,23758.76,60-27-b12-1,27,b12
244,8220DB001243,"Greencastle Avenue, stop 1243",53.39490031,-6.199913741,15184.2.60-27-b12-1.170.I,10:55:34,10:55:34,73, Clare Hall,24032.52,60-27-b12-1,27,b12
245,8220DB004696,"Adare Road, stop 4696",53.39430755,-6.202329646,15184.2.60-27-b12-1.170.I,10:56:13,10:56:13,74, Clare Hall,24274.24,60-27-b12-1,27,b12
246,8220DB004697,"Bunratty Avenue, stop 4697",53.39308924,-6.203794436,15184.2.60-27-b12-1.170.I,10:56:40,10:56:40,75, Clare Hall,24440.99,60-27-b12-1,27,b12
247,8220DB001250,"Bunratty Road, stop 1250",53.39373901,-6.207556346,15184.2.60-27-b12-1.170.I,10:57:29,10:57:29,76, Clare Hall,24747.01,60-27-b12-1,27,b12
248,8220DB004698,"Adare Avenue, stop 4698",53.39494264,-6.211099654,15184.2.60-27-b12-1.170.I,10:58:12,10:58:12,77, Clare Hall,25016.68,60-27-b12-1,27,b12
249,8220DB004383,"Coolock Library, stop 4383",53.39631831,-6.211132174,15184.2.60-27-b12-1.170.I,10:58:44,10:58:44,78, Clare Hall,25214.47,60-27-b12-1,27,b12
250,8220DB004699,"Stardust Memorial Pk, stop 4699",53.39753776,-6.208539574,15184.2.60-27-b12-1.170.I,10:59:19,10:59:19,79, Clare Hall,25435.05,60-27-b12-1,27,b12
251,8220DB004388,"Glin Road, stop 4388",53.39873112,-6.206008076,15184.2.60-27-b12-1.170.I,11:00:05,11:00:05,80, Clare Hall,25731.07,60-27-b12-1,27,b12
252,8220DB004700,"DCC Sports Centre, stop 4700",53.40013323,-6.205407679,15184.2.60-27-b12-1.170.I,11:00:36,11:00:36,81, Clare Hall,25890.27,60-27-b12-1,27,b12
253,8220DB001266,"Priorswood Road, stop 1266",53.40205541,-6.204725184,15184.2.60-27-b12-1.170.I,11:01:27,11:01:27,82, Clare Hall,26148.72,60-27-b12-1,27,b12
254,8220DB001267,"Ferrycarrig Park, stop 1267",53.40085551,-6.20024887,15184.2.60-27-b12-1.170.I,11:02:12,11:02:12,83, Clare Hall,26472.71,60-27-b12-1,27,b12
255,8220DB001268,"Belcamp Avenue, stop 1268",53.39989427,-6.197898243,15184.2.60-27-b12-1.170.I,11:02:39,11:02:39,84, Clare Hall,26661.19,60-27-b12-1,27,b12
256,8220DB001269,"Marigold Road, stop 1269",53.39842896,-6.193719317,15184.2.60-27-b12-1.170.I,11:03:24,11:03:24,85, Clare Hall,26987.42,60-27-b12-1,27,b12
257,8220DB001265,"Marigold Avenue, stop 1265",53.39822153,-6.190705381,15184.2.60-27-b12-1.170.I,11:03:52,11:03:52,86, Clare Hall,27189.12,60-27-b12-1,27,b12
258,8220DB006115,"Belcamp Lane, stop 6115",53.40012738,-6.184217854,15184.2.60-27-b12-1.170.I,11:05:14,11:05:14,87, Clare Hall,27787.15,60-27-b12-1,27,b12
259,8220DB004593,"Temple View Rise, stop 4593",53.40250415,-6.176807213,15184.2.60-27-b12-1.170.I,11:07:04,11:07:04,89, Clare Hall,28431.41,60-27-b12-1,27,b12
260,8220DB004595,"Templeview Avenue, stop 4595",53.40213992,-6.172972588,15184.2.60-27-b12-1.170.I,11:09:06,11:09:06,90, Clare Hall,29116.02,60-27-b12-1,27,b12
