Index,stop_id,stop_name,stop_lat,stop_lon,trip_id,arrival_time,departure_time,stop_sequence,stop_headsign,shape_dist_traveled,route_id,customer_route_name,project_subnet
0,8240DB003815,"Northcliffe Heights, stop 3815",53.58194361,-6.125216105,1130.1.60-33X-b12-1.189.I,07:55:00,07:55:00,1, Stephen's Gn,0.0,60-33X-b12-1,33X,b12
1,8240DB003816,"Mourne Drive, stop 3816",53.58047156,-6.127637364,1130.1.60-33X-b12-1.189.I,07:55:27,07:55:27,2, Stephen's Gn,230.36,60-33X-b12-1,33X,b12
2,8240DB003566,"Selskar Court, stop 3566",53.5780675,-6.125070504,1130.1.60-33X-b12-1.189.I,07:56:18,07:56:18,3, Stephen's Gn,700.15,60-33X-b12-1,33X,b12
3,8240DB003567,"Skerries Station, stop 3567",53.57627924,-6.119939546,1130.1.60-33X-b12-1.189.I,07:57:03,07:57:03,4, Stephen's Gn,1096.87,60-33X-b12-1,33X,b12
4,8240DB007292,"Skerries GAA Club, stop 7292",53.57753435,-6.112317635,1130.1.60-33X-b12-1.189.I,07:58:14,07:58:14,5, Stephen's Gn,1748.1,60-33X-b12-1,33X,b12
5,8240DB003818,"Church Street, stop 3818",53.57980244,-6.110238063,1130.1.60-33X-b12-1.189.I,07:58:46,07:58:46,6, Stephen's Gn,2034.41,60-33X-b12-1,33X,b12
6,8240DB003819,"Skerries, stop 3819",53.57999712,-6.106634837,1130.1.60-33X-b12-1.189.I,07:59:21,07:59:21,7, Stephen's Gn,2375.88,60-33X-b12-1,33X,b12
7,8240DB003820,"Strand Street, stop 3820",53.5778728,-6.105868951,1130.1.60-33X-b12-1.189.I,07:59:49,07:59:49,8, Stephen's Gn,2617.62,60-33X-b12-1,33X,b12
8,8240DB003822,"Brookville Lane, stop 3822",53.57536948,-6.104440526,1130.1.60-33X-b12-1.189.I,08:00:22,08:00:22,9, Stephen's Gn,2912.29,60-33X-b12-1,33X,b12
9,8240DB003823,"Skerries RFC, stop 3823",53.57277153,-6.10158195,1130.1.60-33X-b12-1.189.I,08:01:01,08:01:01,10, Stephen's Gn,3261.33,60-33X-b12-1,33X,b12
10,8240DB003824,"Shenick Road, stop 3824",53.56970963,-6.10120575,1130.1.60-33X-b12-1.189.I,08:01:41,08:01:41,11, Stephen's Gn,3626.13,60-33X-b12-1,33X,b12
11,8240DB003565,"Rush Road, stop 3565",53.5667591,-6.102183464,1130.1.60-33X-b12-1.189.I,08:02:18,08:02:18,12, Stephen's Gn,3961.26,60-33X-b12-1,33X,b12
12,8240DB003825,"Hacketstown Cottages, stop 3825",53.56229352,-6.103410001,1130.1.60-33X-b12-1.189.I,08:03:13,08:03:13,13, Stephen's Gn,4463.96,60-33X-b12-1,33X,b12
13,8240DB003826,"Pierstown Lane, stop 3826",53.55848483,-6.102418056,1130.1.60-33X-b12-1.189.I,08:04:03,08:04:03,14, Stephen's Gn,4908.1,60-33X-b12-1,33X,b12
14,8240DB003827,"Thomastown Resevoir, stop 3827",53.55398178,-6.101849814,1130.1.60-33X-b12-1.189.I,08:04:58,08:04:58,15, Stephen's Gn,5416.7,60-33X-b12-1,33X,b12
15,8240DB003828,"Mine Road, stop 3828",53.54990901,-6.101775557,1130.1.60-33X-b12-1.189.I,08:05:48,08:05:48,16, Stephen's Gn,5872.39,60-33X-b12-1,33X,b12
16,8240DB003829,"Loughshinny Cross, stop 3829",53.54728432,-6.101198833,1130.1.60-33X-b12-1.189.I,08:06:21,08:06:21,17, Stephen's Gn,6166.57,60-33X-b12-1,33X,b12
17,8240DB003831,"Carnhill, stop 3831",53.54241411,-6.096195808,1130.1.60-33X-b12-1.189.I,08:07:32,08:07:32,18, Stephen's Gn,6805.77,60-33X-b12-1,33X,b12
18,8240DB003832,"Rush Athletic FC, stop 3832",53.5391483,-6.092615494,1130.1.60-33X-b12-1.189.I,08:08:20,08:08:20,19, Stephen's Gn,7239.49,60-33X-b12-1,33X,b12
19,8240DB003833,"Clifflands, stop 3833",53.53365985,-6.09056906,1130.1.60-33X-b12-1.189.I,08:09:32,08:09:32,20, Stephen's Gn,7893.81,60-33X-b12-1,33X,b12
20,8240DB003834,"Palmer Road, stop 3834",53.53094219,-6.091490892,1130.1.60-33X-b12-1.189.I,08:10:07,08:10:07,21, Stephen's Gn,8204.55,60-33X-b12-1,33X,b12
21,8240DB003835,"Rush Cricket Club, stop 3835",53.52883542,-6.091268857,1130.1.60-33X-b12-1.189.I,08:10:33,08:10:33,22, Stephen's Gn,8440.1,60-33X-b12-1,33X,b12
22,8240DB003836,"Kilbrush Lane, stop 3836",53.52341419,-6.091180826,1130.1.60-33X-b12-1.189.I,08:11:40,08:11:40,23, Stephen's Gn,9044.46,60-33X-b12-1,33X,b12
23,8240DB003837,"Rush Main Street, stop 3837",53.52201698,-6.092616166,1130.1.60-33X-b12-1.189.I,08:12:08,08:12:08,24, Stephen's Gn,9304.51,60-33X-b12-1,33X,b12
24,8240DB003838,"Community Centre, stop 3838",53.52252613,-6.096363957,1130.1.60-33X-b12-1.189.I,08:12:37,08:12:37,25, Stephen's Gn,9559.32,60-33X-b12-1,33X,b12
25,8240DB003840,"Rush Garda Station, stop 3840",53.52281062,-6.100121891,1130.1.60-33X-b12-1.189.I,08:13:02,08:13:02,26, Stephen's Gn,9810.34,60-33X-b12-1,33X,b12
26,8240DB003842,"Millbank Court, stop 3842",53.52137424,-6.106460396,1130.1.60-33X-b12-1.189.I,08:14:02,08:14:02,27, Stephen's Gn,10268.45,60-33X-b12-1,33X,b12
27,8240DB003843,"Old Road, stop 3843",53.5208015,-6.109457105,1130.1.60-33X-b12-1.189.I,08:14:31,08:14:31,28, Stephen's Gn,10476.22,60-33X-b12-1,33X,b12
28,8240DB003844,"Healy's Lane, stop 3844",53.51869929,-6.116352377,1130.1.60-33X-b12-1.189.I,08:15:38,08:15:38,29, Stephen's Gn,11003.98,60-33X-b12-1,33X,b12
29,8240DB003845,"Whitestown Cemetery, stop 3845",53.51765385,-6.120168984,1130.1.60-33X-b12-1.189.I,08:16:14,08:16:14,30, Stephen's Gn,11284.66,60-33X-b12-1,33X,b12
30,8240DB003846,"Spout Road, stop 3846",53.51819026,-6.127429387,1130.1.60-33X-b12-1.189.I,08:17:18,08:17:18,31, Stephen's Gn,11768.05,60-33X-b12-1,33X,b12
31,8240DB003848,"Beau Hill, stop 3848",53.52034758,-6.138374111,1130.1.60-33X-b12-1.189.I,08:18:57,08:18:57,32, Stephen's Gn,12542.77,60-33X-b12-1,33X,b12
32,8240DB003849,"Rush & Lusk Stn, stop 3849",53.52098652,-6.141890365,1130.1.60-33X-b12-1.189.I,08:19:30,08:19:30,33, Stephen's Gn,12787.92,60-33X-b12-1,33X,b12
33,8240DB003850,"Rogerstown Lane, stop 3850",53.52159377,-6.146267794,1130.1.60-33X-b12-1.189.I,08:20:07,08:20:07,34, Stephen's Gn,13084.93,60-33X-b12-1,33X,b12
34,8240DB003851,"Rosewood, stop 3851",53.52192906,-6.148183691,1130.1.60-33X-b12-1.189.I,08:20:24,08:20:24,35, Stephen's Gn,13219.04,60-33X-b12-1,33X,b12
35,8240DB003852,"Lusk House, stop 3852",53.52246885,-6.154027242,1130.1.60-33X-b12-1.189.I,08:21:15,08:21:15,36, Stephen's Gn,13611.03,60-33X-b12-1,33X,b12
36,8240DB003853,"Orlynn Park, stop 3853",53.52423485,-6.160722764,1130.1.60-33X-b12-1.189.I,08:22:19,08:22:19,37, Stephen's Gn,14113.14,60-33X-b12-1,33X,b12
37,8240DB003854,"Station Road, stop 3854",53.52534969,-6.164837503,1130.1.60-33X-b12-1.189.I,08:22:57,08:22:57,38, Stephen's Gn,14413.42,60-33X-b12-1,33X,b12
38,8240DB003855,"Barrack Lane, stop 3855",53.52306612,-6.16772653,1130.1.60-33X-b12-1.189.I,08:23:34,08:23:34,39, Stephen's Gn,14797.07,60-33X-b12-1,33X,b12
39,8240DB003856,"Racecourse Commons, stop 3856",53.51861339,-6.16983401,1130.1.60-33X-b12-1.189.I,08:24:27,08:24:27,40, Stephen's Gn,15346.07,60-33X-b12-1,33X,b12
40,8240DB003857,"Dublin Road, stop 3857",53.51473686,-6.173182925,1130.1.60-33X-b12-1.189.I,08:25:14,08:25:14,41, Stephen's Gn,15833.8,60-33X-b12-1,33X,b12
41,8240DB003858,"Bridetree, stop 3858",53.51097166,-6.177943805,1130.1.60-33X-b12-1.189.I,08:26:04,08:26:04,42, Stephen's Gn,16362.53,60-33X-b12-1,33X,b12
42,8240DB003859,"Balleally West, stop 3859",53.50980203,-6.180225523,1130.1.60-33X-b12-1.189.I,08:26:24,08:26:24,43, Stephen's Gn,16566.42,60-33X-b12-1,33X,b12
43,8240DB003860,"Hannas Avenue, stop 3860",53.50707612,-6.185378028,1130.1.60-33X-b12-1.189.I,08:27:10,08:27:10,44, Stephen's Gn,17032.89,60-33X-b12-1,33X,b12
44,8240DB003861,"Newhaggard, stop 3861",53.50483198,-6.187343347,1130.1.60-33X-b12-1.189.I,08:27:37,08:27:37,45, Stephen's Gn,17319.03,60-33X-b12-1,33X,b12
45,8240DB003862,"Blake's Cross, stop 3862",53.5022905,-6.192230651,1130.1.60-33X-b12-1.189.I,08:28:18,08:28:18,46, Stephen's Gn,17752.3,60-33X-b12-1,33X,b12
46,8240DB003863,"Turvey Avenue, stop 3863",53.4945348,-6.194670773,1130.1.60-33X-b12-1.189.I,08:29:47,08:29:47,47, Stephen's Gn,18671.51,60-33X-b12-1,33X,b12
47,8240DB003748,"Batter Lane, stop 3748",53.48848542,-6.197022518,1130.1.60-33X-b12-1.189.I,08:30:42,08:30:42,48, Stephen's Gn,19388.01,60-33X-b12-1,33X,b12
48,8240DB006050,"Lissenhall Green, stop 6050",53.48105429,-6.202520975,1130.1.60-33X-b12-1.189.I,08:31:52,08:31:52,49, Stephen's Gn,20291.34,60-33X-b12-1,33X,b12
49,8220DB007398,"Convention Centre, stop 7398",53.34749942,-6.239853363,1130.1.60-33X-b12-1.189.I,08:53:37,08:53:37,50, Stephen's Gn,37231.57,60-33X-b12-1,33X,b12
50,8220DB006252,"CHQ, stop 6252",53.34796481,-6.247044075,1130.1.60-33X-b12-1.189.I,08:57:02,08:57:02,51, Stephen's Gn,37711.49,60-33X-b12-1,33X,b12
51,8220DB000302,"Eden Quay, stop 302",53.3480381,-6.25633882,1130.1.60-33X-b12-1.189.I,09:01:28,09:01:28,52, Stephen's Gn,38348.42,60-33X-b12-1,33X,b12
52,8220DB004495,"Hawkins Street, stop 4495",53.34649329,-6.25703271,1130.1.60-33X-b12-1.189.I,09:03:09,09:03:09,53, Stephen's Gn,38580.67,60-33X-b12-1,33X,b12
53,8220DB002809,"Pearse Station, stop 2809",53.34288455,-6.2499709,1130.1.60-33X-b12-1.189.I,09:09:02,09:09:02,54, Stephen's Gn,39517.27,60-33X-b12-1,33X,b12
54,8220DB002810,"Merrion Square West, stop 2810",53.34079491,-6.250897489,1130.1.60-33X-b12-1.189.I,09:10:37,09:10:37,55, Stephen's Gn,39757.29,60-33X-b12-1,33X,b12
